site,lat,lon,elev,values,date
alligatorriver,35.7879,-75.9038,1,0.493,2014-01-06
arbutuslake,43.98207,-74.23322,535,-0.06,2014-01-06
arbutuslakeinlet,43.99336,-74.24527,527,-0.06,2014-01-06
archboldavir,27.176064,-81.21958,8,-1.206,2014-01-06
archboldavirx,27.166627,-81.219828,8,-1.206,2014-01-06
archboldbahia,27.1656,-81.216112,8,-1.206,2014-01-06
archboldpnot,27.187948,-81.200345,9,-1.206,2014-01-06
archboldpnotx,27.180677,-81.20068,9,-1.206,2014-01-06
arkansascornsoy,34.416,-91.6723,61,0.335,2014-01-06
arsbrooks10,41.9749,-93.6905,312,-0.765,2014-01-06
arsbrooks11,41.9744,-93.6937,313,-0.765,2014-01-06
arscolesnorth,42.4884,-93.5225,356,-0.649,2014-01-06
arscolessouth,42.4816,-93.5235,352,-0.649,2014-01-06
arsgacp1,31.5109,-83.6179,96,-0.009,2014-01-06
arsgacp3,31.7563,-83.7516,139,0.092,2014-01-06
arsgacp4,31.7093,-83.7287,127,0.041,2014-01-06
arsgreatbasinltar098,43.1675,-116.7132,1426,-0.352,2014-01-06
arsgreatbasinltar117,43.1432,-116.7357,1625,-0.759,2014-01-06
arsgreatbasinltar177,43.0645,-116.7484,2114,-0.881,2014-01-06
arsltarmdcr,39.0587,-75.8513,17,0.047,2014-01-06
arsltarmdcrnatw,39.0575,-75.7531,16,0.026,2014-01-06
arsltarmdcrprcw,39.0667,-75.7609,17,0.026,2014-01-06
arsltarmdcrresw,39.0549,-75.7532,16,0.026,2014-01-06
arsltarucbec1,40.7537,-78.0057,400,-0.541,2014-01-06
arsltarucbec2,40.7558,-77.9999,396,-0.541,2014-01-06
arsmnswanlake1,45.684508,-95.799703,370,0.392,2014-01-06
arsmorris1,45.6167,-96.1269,341,0.565,2014-01-06
arsmorris2,45.627,-96.127,338,0.565,2014-01-06
arsmorris3,45.6091,-96.1265,342,0.565,2014-01-06
arsope3ltar,39.0309,-76.8442,41,-0.016,2014-01-06
ashburnham,42.6029,-71.926,292,-1.144,2014-01-06
asuhighlands,36.2076,-81.7032,1016,0.202,2014-01-06
austincary,29.738,-82.2188,44,1.119,2014-01-06
barrow,71.28007453,-156.6091492,5,-9999.0,2014-01-06
bartlettir,44.0646,-71.2881,268,-0.734,2014-01-06
bigtraillake,64.9194,-147.822,190,-9999.0,2014-01-06
bitterbrush001,48.154,-119.9456,667,-1.733,2014-01-06
blackrockforest,41.3974,-74.0239,427,-0.994,2014-01-06
bnzblackspruce,64.6963,-148.3235,102,-9999.0,2014-01-06
bnzrichfen,64.70134,-148.31195,97,-9999.0,2014-01-06
bnzthermokarstbog,64.6955,-148.3208,104,-9999.0,2014-01-06
boglakepeatland,47.5051,-93.4893,416,0.343,2014-01-06
bostoncommon,42.355912,-71.064145,10,-1.009,2014-01-06
bostonu,42.35041,-71.10438,10,-1.02,2014-01-06
bouldinalfalfa,38.0985,-121.4993,-5,-1.572,2014-01-06
bouldincorn,38.109,-121.535,-5,-1.578,2014-01-06
bozeman,45.783056,-110.777778,2332,0.366,2014-01-06
brackishimpoundment,33.2015,-79.2973,1,-0.108,2014-01-06
bullshoals,36.562833,-93.06663,260,-0.459,2014-01-06
burnssagebrush,43.4712,-119.6909,1398,-0.547,2014-01-06
butte,45.95304,-112.47964,1682,0.02,2014-01-06
butterice,39.5793,-121.858,33,-1.735,2014-01-06
cafboydnorthltar01,46.755104,-117.126052,795,-1.092,2014-01-06
cafboydsouthltar01,46.751809,-117.128502,795,-1.092,2014-01-06
cafcookeastltar01,46.78152,-117.0821,794,-1.217,2014-01-06
cafcookwestltar01,46.784037,-117.09083,807,-1.217,2014-01-06
caryinstitute,41.7839,-73.7341,127,-0.764,2014-01-06
centralredwoods1,38.632272,-123.301511,200,-1.536,2014-01-06
centralredwoods2,38.632272,-123.301511,200,-1.536,2014-01-06
cperagm,40.8402,-104.7672,1644,0.396,2014-01-06
cperheavy,40.8153,-104.7386,1652,0.366,2014-01-06
cpertgm,40.833,-104.76,1644,0.416,2014-01-06
cperuvb,40.8055764,-104.7558542,1641,0.416,2014-01-06
cuny,40.8162,-73.9507,42,-0.757,2014-01-06
doverdesaltmarsh,39.0888,-75.4368,0,-0.01,2014-01-06
downerwoods,43.07938,-87.88076,213,-0.506,2014-01-06
dukehw,35.973583,-79.100371,400,-0.203,2014-01-06
ecb1,41.5348,-84.8068,275,-0.606,2014-01-06
ecb2,41.5321,-84.808,275,-0.606,2014-01-06
ecb4,41.1796,-83.0604,240,-0.145,2014-01-06
elverde,18.320654,-65.8199,312,-9999.0,2014-01-06
flagstaff,35.17961521,-111.6049032,6983,-0.1,2014-01-06
flagstaff2,35.179225,-111.604506,6983,-0.1,2014-01-06
flagstaffchimneysprings,35.257296,-111.678542,2250,-0.258,2014-01-06
forbes,39.232,-121.2972,360,-1.656,2014-01-06
fortpaynealpasture1,34.3824,-85.6428,405,0.642,2014-01-06
fortpaynealpasture2,34.3824,-85.6447,403,0.642,2014-01-06
gcesapelo,31.4440444,-81.283528,0,0.599,2014-01-06
gilberttract,38.0015,-121.6691,6,-1.534,2014-01-06
glees,41.3644,-106.2394,3150,0.526,2014-01-06
glennorganicrice,39.6805,-122.0026,2,-1.857,2014-01-06
glennrice,39.5944,-122.0253,36,-1.845,2014-01-06
goodnow,43.96018,-74.20994,820,-0.123,2014-01-06
goodwater,39.22848,-92.11936,264,-0.373,2014-01-06
goodwaterbau,39.23115,-92.15216,274,-0.383,2014-01-06
grandteton,43.915017,-110.578036,2054,-0.436,2014-01-06
grca1pj,36.0241,-112.2211,1978,-0.385,2014-01-06
greenridge1,39.6905,-78.4067,285,-0.29,2014-01-06
harvard,42.5378,-72.1715,340,-1.031,2014-01-06
harvardbarn,42.53532,-72.1899,350,-0.992,2014-01-06
harvardbarn2,42.53532,-72.1899,350,-0.992,2014-01-06
harvardems2,42.5378,-72.1715,340,-1.031,2014-01-06
harvardfarmnorth,42.520465,-72.182242,355,-0.992,2014-01-06
harvardfarmsouth,42.522466,-72.182339,355,-0.992,2014-01-06
harvardgarden,42.5291,-72.1863,335,-0.992,2014-01-06
harvardhemlock,42.539,-72.18,355,-0.992,2014-01-06
harvardhemlock2,42.539407,-72.177976,355,-1.031,2014-01-06
harvardlph,42.542,-72.185,380,-0.992,2014-01-06
hawbeckereddy,40.6608,-77.848849,310,-0.705,2014-01-06
hobcawclearcutlongleaf,33.3486,-79.232,4,-0.002,2014-01-06
hobcawmaturelongleaf,33.3242,-79.2439,8,-0.002,2014-01-06
homesteadsprings,37.2009,-92.9937,452,-0.103,2014-01-06
howland1,45.2041,-68.7403,80,-0.316,2014-01-06
howland2,45.2128,-68.7418,79,-0.316,2014-01-06
hubbardbrook,43.9438,-71.701,253,-0.695,2014-01-06
humnokericea,34.585192,-91.751684,61,0.312,2014-01-06
humnokericec,34.588853,-91.7516729,70,0.312,2014-01-06
huyckpreserveny,42.5266,-74.1587,478,-0.798,2014-01-06
hwmo1,20.0212,-155.7331,585,-9999.0,2014-01-06
hwmo2,19.9766,-155.8298,12,-9999.0,2014-01-06
hwmo5,20.1117,-155.8151,635,-9999.0,2014-01-06
ibp,32.589,-106.847,1325,-0.618,2014-01-06
imcrkfen,68.60583,-149.31101,900,-9999.0,2014-01-06
imcrkridge0,68.60681,-149.2958,951,-9999.0,2014-01-06
imcrkridge1,68.60681,-149.2958,951,-9999.0,2014-01-06
imcrktussock,68.60633,-149.30408,918,-9999.0,2014-01-06
jasperridge,37.402028,-122.22104,197,-1.617,2014-01-06
jerbajada,32.57992,-106.633793,1402,-0.674,2014-01-06
jergrassland,32.5833,-106.8333,1331,-0.618,2014-01-06
jernort,32.619,-106.788,1328,-0.618,2014-01-06
jernovel,32.6335,-106.8334,1324,-0.591,2014-01-06
jernwern,32.6271,-106.7387,1325,-0.651,2014-01-06
jersand,32.515,-106.798,1363,-0.672,2014-01-06
jershrubland,32.6502,-106.8334,1328,-0.555,2014-01-06
junipersavannah,34.4254,-105.8615,1931,-0.067,2014-01-06
kamuela,20.015008,-155.661326,850,-9999.0,2014-01-06
kamuela2,20.014959,-155.661139,830,-9999.0,2014-01-06
kansas,39.0561,-95.1907,333,-0.586,2014-01-06
kelloggcorn,42.437536,-85.3225472,288,-0.083,2014-01-06
kempnrs,45.83992,-89.67755,539,0.746,2014-01-06
kendall,31.73652,-109.94185,1529,-0.321,2014-01-06
konza,39.0824,-96.5603,443,-0.751,2014-01-06
laupahoehoe,19.9322,-155.2912,1145,-9999.0,2014-01-06
ldeocam,41.0039,-73.9053,121,-0.856,2014-01-06
lostcreek,46.0827,-89.9792,480,0.617,2014-01-06
luckyhills,31.743896,-110.052023,1366,-0.342,2014-01-06
macleish,42.4484,-72.6804,251,-0.918,2014-01-06
macordway,44.8106,-93.0272,264,-0.295,2014-01-06
mandanh5,46.775423,-100.95109,593,1.199,2014-01-06
mandani2,46.7614,-100.9257,590,1.107,2014-01-06
manilacotton,35.8872,-90.1371,73,-0.263,2014-01-06
marena,36.06434,-97.21271,327,-0.767,2014-01-06
mead1,41.1651,-96.4766,361,-0.553,2014-01-06
mead2,41.1649,-96.4701,362,-0.553,2014-01-06
mead3,41.1797,-96.4397,363,-0.542,2014-01-06
meadpasture,41.1447,-96.4616,356,-0.552,2014-01-06
meadpasturese,41.1447,-96.4616,356,-0.552,2014-01-06
meadpasturesw,41.1447,-96.4616,356,-0.552,2014-01-06
missouriozarks,38.7441,-92.2,219,-0.744,2014-01-06
morganmonroe,39.3231,-86.4131,275,0.671,2014-01-06
morganmonroe2,39.3231,-86.4131,275,0.671,2014-01-06
nahuku,19.415187,-155.238383,1202,-9999.0,2014-01-06
nationalelkrefuge,43.488931,-110.737824,1899,-0.256,2014-01-06
ncssm,36.018446,-78.92075,175,-0.166,2014-01-06
NEON.D01.BART.DP1.00033,44.063869,-71.287375,285,-0.734,2014-01-06
NEON.D01.HARV.DP1.00033,42.536911,-72.17265,359,-1.031,2014-01-06
NEON.D01.HOPB.DP1.20002,42.471786,-72.329627,203,-1.114,2014-01-06
NEON.D02.BLAN.DP1.00033,39.033698,-78.041788,162,0.385,2014-01-06
NEON.D02.LEWI.DP1.20002,39.09564,-77.98322,152,0.39,2014-01-06
NEON.D02.POSE.DP1.20002,38.89332,-78.14678,293,0.302,2014-01-06
NEON.D02.SCBI.DP1.00033,38.892925,-78.139494,364,0.291,2014-01-06
NEON.D02.SERC.DP1.00033,38.89008,-76.56001,30,0.235,2014-01-06
NEON.D03.BARC.DP1.20002,29.676473,-82.009089,35,1.214,2014-01-06
NEON.D03.DSNY.DP1.00033,28.12505,-81.43619,22,-0.63,2014-01-06
NEON.D03.FLNT.DP1.20002,31.185424,-84.437403,27,0.017,2014-01-06
NEON.D03.JERC.DP1.00033,31.194839,-84.468623,58,0.0,2014-01-06
NEON.D03.OSBS.DP1.00033,29.689282,-81.993431,56,1.146,2014-01-06
NEON.D03.SUGG.DP1.20002,29.687054,-82.016171,28,1.146,2014-01-06
NEON.D04.CUPE.DP1.20002,18.11352,-66.98676,164,-9999.0,2014-01-06
NEON.D04.GUAN.DP1.00033,17.96955,-66.8687,136,-9999.0,2014-01-06
NEON.D04.GUIL.DP1.20002,18.1741,-66.79851,564,-9999.0,2014-01-06
NEON.D04.LAJA.DP1.00033,18.021261,-67.076889,22,-9999.0,2014-01-06
NEON.D05.CRAM.DP1.20002,46.21111,-89.47825,518,0.952,2014-01-06
NEON.D05.LIRO.DP1.20002,45.998269,-89.704767,495,0.696,2014-01-06
NEON.D05.STEI.DP1.00033,45.50894,-89.58637,476,0.42,2014-01-06
NEON.D05.TREE.DP1.00033,45.49373,-89.58572,474,0.42,2014-01-06
NEON.D05.UNDE.DP1.00033,46.23391,-89.537254,529,0.922,2014-01-06
NEON.D06.KING.DP1.20002,39.10506,-96.60336,339,-0.771,2014-01-06
NEON.D06.KONA.DP1.00033,39.110446,-96.612935,443,-0.771,2014-01-06
NEON.D06.KONZ.DP1.00033,39.10077,-96.56309,415,-0.751,2014-01-06
NEON.D06.MCDI.DP1.20002,38.94428,-96.44197,376,-0.609,2014-01-06
NEON.D06.UKFS.DP1.00033,39.040431,-95.19215,330,-0.586,2014-01-06
NEON.D07.GRSM.DP1.00033,35.68896,-83.50195,589,0.792,2014-01-06
NEON.D07.LECO.DP1.20002,35.69043,-83.50379,578,0.792,2014-01-06
NEON.D07.MLBS.DP1.00033,37.378314,-80.524847,1177,0.179,2014-01-06
NEON.D07.ORNL.DP1.00033,35.964128,-84.282588,351,0.602,2014-01-06
NEON.D07.WALK.DP1.20002,35.95947,-84.28041,274,0.61,2014-01-06
NEON.D08.BLWA.DP1.20002,32.541529,-87.798151,23,0.673,2014-01-06
NEON.D08.DELA.DP1.00033,32.541727,-87.803877,36,0.673,2014-01-06
NEON.D08.LENO.DP1.00033,31.85388,-88.16122,10,-0.168,2014-01-06
NEON.D08.MAYF.DP1.20002,32.959657,-87.408128,93,0.548,2014-01-06
NEON.D08.TALL.DP1.00033,32.95047,-87.393259,167,0.548,2014-01-06
NEON.D08.TOMB.DP1.20002,31.853431,-88.158872,10,-0.168,2014-01-06
NEON.D09.DCFS.DP1.00033,47.161647,-99.106556,574,1.2,2014-01-06
NEON.D09.NOGP.DP1.00033,46.76972,-100.91535,589,1.107,2014-01-06
NEON.D09.PRLA.DP1.20002,47.15909,-99.11388,563,1.209,2014-01-06
NEON.D09.PRPO.DP1.20002,47.12999,-99.250551,587,1.279,2014-01-06
NEON.D09.WOOD.DP1.00033,47.1282,-99.241334,585,1.279,2014-01-06
NEON.D10.ARIK.DP1.20002,39.758246,-102.447103,1188,-0.576,2014-01-06
NEON.D10.CPER.DP1.00033,40.81553,-104.7456,1600,0.416,2014-01-06
NEON.D10.HQTW.DP1.00033,40.016704,-105.245612,1601,-0.307,2014-01-06
NEON.D10.RMNP.DP1.00033,40.275903,-105.545955,2751,-0.281,2014-01-06
NEON.D10.STER.DP1.00033,40.461894,-103.02929,1366,0.125,2014-01-06
NEON.D11.BLUE.DP1.20002,34.444218,-96.624201,288,0.056,2014-01-06
NEON.D11.CLBJ.DP1.00033,33.40123,-97.57,279,0.297,2014-01-06
NEON.D11.OAES.DP1.00033,35.41059,-99.05879,520,-0.631,2014-01-06
NEON.D11.PRIN.DP1.20002,33.37859,-97.78226,255,0.13,2014-01-06
NEON.D12.BLDE.DP1.20002,44.95011,-110.58715,2035,0.161,2014-01-06
NEON.D12.YELL.DP1.00033,44.95348,-110.53914,2130,0.098,2014-01-06
NEON.D13.COMO.DP1.20002,40.03496,-105.54487,3036,-0.387,2014-01-06
NEON.D13.MOAB.DP1.00033,38.24833,-109.38827,1803,0.524,2014-01-06
NEON.D13.NIWO.DP1.00033,40.05425,-105.58237,3493,-0.171,2014-01-06
NEON.D13.WLOU.DP1.20002,39.891366,-105.915395,2920,0.05,2014-01-06
NEON.D14.JORN.DP1.00033,32.59068,-106.84254,1321,-0.618,2014-01-06
NEON.D14.SRER.DP1.00033,31.91068,-110.83549,999,-0.067,2014-01-06
NEON.D14.SYCA.DP1.20002,33.749057,-111.506903,644,-0.277,2014-01-06
NEON.D15.ONAQ.DP1.00033,40.177599,-112.452452,1655,0.429,2014-01-06
NEON.D15.REDB.DP1.20002,40.783934,-111.797887,1696,-0.751,2014-01-06
NEON.D16.ABBY.DP1.00033,45.76243,-122.33033,390,-1.72,2014-01-06
NEON.D16.MART.DP1.20002,45.791248,-121.931959,354,-1.584,2014-01-06
NEON.D16.MCRA.DP1.20002,44.259598,-122.165554,880,-1.776,2014-01-06
NEON.D16.WREF.DP1.00033,45.82049,-121.95191,368,-1.629,2014-01-06
NEON.D17.BIGC.DP1.20002,37.059719,-119.257549,1133,-1.241,2014-01-06
NEON.D17.SJER.DP1.00033,37.10878,-119.73228,398,-1.404,2014-01-06
NEON.D17.SOAP.DP1.00033,37.03337,-119.26219,1210,-1.245,2014-01-06
NEON.D17.TEAK.DP1.00033,37.00583,-119.00602,2149,-1.261,2014-01-06
NEON.D17.TECR.DP1.20002,36.955931,-119.027363,2053,-1.25,2014-01-06
NEON.D18.BARR.DP1.00033,71.28241,-156.61936,7,-9999.0,2014-01-06
NEON.D18.OKSR.DP1.20002,68.669753,-149.143018,773,-9999.0,2014-01-06
NEON.D18.TOOK.DP1.20002,68.629562,-149.610509,715,-9999.0,2014-01-06
NEON.D18.TOOL.DP1.00033,68.66109,-149.37047,827,-9999.0,2014-01-06
NEON.D19.BONA.DP1.00033,65.15401,-147.50258,233,-9999.0,2014-01-06
NEON.D19.CARI.DP1.20002,65.15306,-147.50246,229,-9999.0,2014-01-06
NEON.D19.DEJU.DP1.00033,63.88112,-145.75136,504,-9999.0,2014-01-06
NEON.D19.HEAL.DP1.00033,63.87569,-149.21334,409,-9999.0,2014-01-06
NEON.D20.PUUM.DP1.00033,19.55309,-155.31731,1683,-9999.0,2014-01-06
nevcansnk3a,39.0099,-114.3095,3063,0.365,2014-01-06
nevcanspg1a,38.9253,-114.4082,1792,0.452,2014-01-06
nevcanspg2a,38.8921,-114.3521,2203,0.353,2014-01-06
nevcanspg3a,38.8898,-114.3314,2820,0.236,2014-01-06
nevcanspg4a,38.9061,-114.3089,3360,0.236,2014-01-06
ninemileprairie,40.86801886,-96.82208066,381,-0.774,2014-01-06
nist,39.139,-77.2125,100,0.072,2014-01-06
niwot3,40.03286358,-105.5469702,3050,-0.387,2014-01-06
niwot5,40.03286358,-105.5469702,2993,-0.387,2014-01-06
northattleboroma,41.98369,-71.31056,60,-1.015,2014-01-06
northinletsaltmarsh,33.3455,-79.1957,1,0.028,2014-01-06
oakville,47.899334,-97.316139,268,0.33,2014-01-06
oregonMP,44.4523,-121.5574,1253,-1.451,2014-01-06
oregonYP,44.32384,-121.605993,977,-1.304,2014-01-06
oregonYPbud,44.3238,-121.606,977,-1.304,2014-01-06
othshardwood,44.934805,-68.6655,41,-0.45,2014-01-06
othssoftwood,44.934527,-68.664888,41,-0.45,2014-01-06
pace,37.9229,-78.2739,100,0.266,2014-01-06
parkschoolbuffalo,42.9637,-78.7834,205,1.393,2014-01-06
piedmontalpasture2,33.8875,-85.6935,238,0.889,2014-01-06
portal,31.9385,-109.0823,1330,-0.557,2014-01-06
proctor,44.525,-72.866,403,-0.409,2014-01-06
readingma,42.5304,-71.1272,100,-1.094,2014-01-06
robinson,37.4671,-83.1576,483,0.986,2014-01-06
robinson2,37.4671,-83.1576,483,0.986,2014-01-06
rosemountcons,44.6946,-93.0578,283,-0.504,2014-01-06
rosemountconv,44.691,-93.0576,283,-0.504,2014-01-06
rosemountnprs,44.6781,-93.0723,274,-0.522,2014-01-06
russellsage,32.456961,-91.974322,20,0.07,2014-01-06
sagehen,39.4315,-120.2398,1934,-1.364,2014-01-06
sagehen2,39.4307,-120.2407,1937,-1.364,2014-01-06
sagehen3,39.4311,-120.2405,1935,-1.364,2014-01-06
sanford,42.726777,-84.464482,268,-0.162,2014-01-06
santacruz1,36.9741,-122.0308,11,-1.56,2014-01-06
santacruz2,36.9741,-122.0308,11,-1.56,2014-01-06
santaluciapreserve1,36.5265,-121.8682,500,-1.132,2014-01-06
santaluciapreserve2,36.5265,-121.8682,500,-1.132,2014-01-06
segaarboretum10,35.16209,-111.73151,2170,-0.236,2014-01-06
segaarboretum2,35.16209,-111.73151,2170,-0.236,2014-01-06
segaarboretum3,35.16209,-111.73151,2170,-0.236,2014-01-06
segaarboretum4,35.16214,-111.73153,2170,-0.236,2014-01-06
segaarboretum6,35.16209,-111.73151,2170,-0.236,2014-01-06
segaarboretum9,35.16222,-111.73158,2170,-0.236,2014-01-06
segaarboretumforest,35.1613,-111.7359,2173,-0.236,2014-01-06
segaarboretummeadow,35.1621,-111.7316,2157,-0.236,2014-01-06
segablackpoint,35.6814,-111.4754,1566,0.583,2014-01-06
segabluechute,35.5876,-111.9716,1930,-0.285,2014-01-06
segabluechute1,35.58759,-111.97115,1931,-0.285,2014-01-06
segabluechute2,35.58759,-111.97115,1931,-0.285,2014-01-06
segabluechute4,35.58759,-111.9716,1931,-0.285,2014-01-06
segabluechute6,35.58759,-111.97115,1931,-0.285,2014-01-06
segabluechute7,35.58759,-111.97115,1931,-0.285,2014-01-06
segabluechute8,35.58759,-111.97115,1931,-0.285,2014-01-06
segabradshaw,34.9109,-111.9285,1402,-0.148,2014-01-06
segahartprairie,35.3536,-111.7324,2585,-0.34,2014-01-06
segalcr,35.7231,-111.321,1275,0.487,2014-01-06
segalcr2,35.7069,-111.36,1495,0.528,2014-01-06
segalittlemountain,36.5865,-112.3634,2276,-0.334,2014-01-06
segasoapcreek,36.751,-111.716,1233,0.746,2014-01-06
segawhitepockets,36.6081,-112.4082,2057,-0.283,2014-01-06
sevilletagrass,34.360444,-106.700186,1600,-0.273,2014-01-06
sevilletanewgrass,34.358,-106.6799,1603,-0.289,2014-01-06
sevilletashrub,34.334956,-106.744469,1603,-0.29,2014-01-06
sevMRME10L,34.3438,-106.7269,1604,-0.259,2014-01-06
sevMRME11C,34.3438,-106.7268,1604,-0.259,2014-01-06
sevMRME1S,34.3442,-106.7272,1604,-0.259,2014-01-06
sevpjrm12,34.38615,-106.52621,1905,-0.298,2014-01-06
sevpjrm13,34.38631,-106.52791,1914,-0.298,2014-01-06
shalehillsczo,40.6658,-77.9041,310,-0.695,2014-01-06
shenandoah,38.6167,-78.35,1037,-0.099,2014-01-06
silverton,44.9986,-122.6948,347,-1.934,2014-01-06
siwetland,38.0369,-121.7546,-5,-1.525,2014-01-06
slatefloodplain,38.9094,-107.0282,2725,-0.189,2014-01-06
snodgrass1,38.92619636,-106.9714376,3023,-0.054,2014-01-06
snodgrass2,38.92619636,-106.9714376,3023,-0.054,2014-01-06
snodgrass3,38.92839978,-106.9781196,3141,-0.054,2014-01-06
snodgrass4,38.92839978,-106.9781196,3141,-0.054,2014-01-06
snodgrass5,38.92744789,-106.9785209,3152,-0.054,2014-01-06
snodgrass6,38.92744789,-106.9785209,3152,-0.054,2014-01-06
snodgrass7,38.93142134,-106.9852388,3363,-0.061,2014-01-06
snodgrass8,38.93142134,-106.9852388,3363,-0.061,2014-01-06
southerngreatplains,36.6058,-97.4888,314,-0.549,2014-01-06
springfieldma,42.135162,-72.585972,56,-0.931,2014-01-06
spruceA0EMI,47.5049,-93.4541,413,0.353,2014-01-06
spruceA0EMT,47.5049,-93.4541,418,0.353,2014-01-06
spruceA0P07,47.50493,-93.45314,413,0.353,2014-01-06
spruceA0P07SH,47.50493,-93.45314,413,0.353,2014-01-06
spruceA0P21,47.50625,-93.45275,413,0.353,2014-01-06
spruceA0P21SH,47.50625,-93.45275,413,0.353,2014-01-06
srg,31.7894,-110.8276,1281,-0.429,2014-01-06
srm,31.8214,-110.8661,1116,-0.108,2014-01-06
statenrice1,38.1235,-121.549,-5,-1.576,2014-01-06
stjones,39.088222,-75.43725,2,-0.01,2014-01-06
sweetbriar,37.57341,-79.08482,242,0.358,2014-01-06
sweetbriarclearcut,37.5753,-79.0872,242,0.358,2014-01-06
sweetbriargrass,37.5605,-79.0884,240,0.358,2014-01-06
sylvania,46.242,-89.348,540,0.98,2014-01-06
templefieldstation1,40.1667,-75.1894,105,-0.348,2014-01-06
tfforest,43.1086,-70.9505,23,-1.358,2014-01-06
tidmarshplymouth,41.9157,-70.5754,9,-0.678,2014-01-06
tonzi,38.43091667,-120.9658861,177,-1.627,2014-01-06
townsenddemeadow,39.3917,-75.6281,11,-0.264,2014-01-06
tsubiology,36.1671,-86.8295,164,-0.15,2014-01-06
tsubiology2,36.1171,-86.8295,100,-0.245,2014-01-06
tuckerprairie,38.9491,-91.9952,274,-0.742,2014-01-06
twodafo,29.1658,-95.829,16,0.018,2014-01-06
tworfaa,31.4777,-96.8882,167,0.845,2014-01-06
tworfpr,31.4802,-96.8826,162,0.735,2014-01-06
tworfta,31.4693,-96.8864,173,0.845,2014-01-06
twosfpr,30.6176,-97.2938,157,0.794,2014-01-06
ucnrsanzaborrego,33.2401,-116.3886,214,-0.569,2014-01-06
ufona,27.3836,-81.950856,25,-1.177,2014-01-06
uiefmaize2,40.0628,-88.1961,224,-0.934,2014-01-06
uiefmiscanthus2,40.0628,-88.1984,221,-0.934,2014-01-06
uiefprairie2,40.0637,-88.1973,224,-0.934,2014-01-06
uiefsorghum,40.0065,-88.2032,224,-0.964,2014-01-06
uiefswitchgrass2,40.0637,-88.1973,224,-0.934,2014-01-06
umichbiological,45.55984,-84.71382,230,1.88,2014-01-06
umichbiological2,45.5625,-84.6976,240,1.712,2014-01-06
unca,35.5951,-82.5515,650,0.934,2014-01-06
usgseros,43.7343,-96.6234,448,0.959,2014-01-06
usmpj,34.43845,-106.2543606,2126,-0.132,2014-01-06
usof5,35.7297,-90.0406,70,-0.419,2014-01-06
usof6,35.7333,-90.0403,70,-0.419,2014-01-06
uwmfieldsta,43.38709,-88.0229,265,-0.341,2014-01-06
vaira,38.41328056,-120.9506361,129,-1.627,2014-01-06
vallesburnedconifer,35.8884,-106.5321,3043,-0.211,2014-01-06
vallesmixedconifer,35.9192,-106.6142,2752,-0.159,2014-01-06
vallesponderosapine,35.864,-106.5964,2501,-0.086,2014-01-06
waahila,21.3017,-157.8152,55,-9999.0,2014-01-06
warrenwilson,35.6069,-82.4421,2198,0.787,2014-01-06
willamettepoplar,44.1368,-123.1823,112,-2.073,2014-01-06
willowcreek,45.805986,-90.07912,521,0.673,2014-01-06
windriver,45.8212833,-121.9520833,371,-1.629,2014-01-06
windriverunderstory,45.8212833,-121.9520833,371,-1.629,2014-01-06
wolfesneckfarm,43.8305,-70.0715,16,-0.812,2014-01-06
worcester,42.2697,-71.8428,185,-1.112,2014-01-06
alligatorriver,35.7879,-75.9038,1,0.565,2014-01-13
arbutuslake,43.98207,-74.23322,535,0.055,2014-01-13
arbutuslakeinlet,43.99336,-74.24527,527,0.055,2014-01-13
archboldavir,27.176064,-81.21958,8,-1.008,2014-01-13
archboldavirx,27.166627,-81.219828,8,-1.008,2014-01-13
archboldbahia,27.1656,-81.216112,8,-1.008,2014-01-13
archboldpnot,27.187948,-81.200345,9,-1.008,2014-01-13
archboldpnotx,27.180677,-81.20068,9,-1.008,2014-01-13
arkansascornsoy,34.416,-91.6723,61,0.291,2014-01-13
arsbrooks10,41.9749,-93.6905,312,-0.579,2014-01-13
arsbrooks11,41.9744,-93.6937,313,-0.579,2014-01-13
arscolesnorth,42.4884,-93.5225,356,-0.486,2014-01-13
arscolessouth,42.4816,-93.5235,352,-0.486,2014-01-13
arsgacp1,31.5109,-83.6179,96,-0.049,2014-01-13
arsgacp3,31.7563,-83.7516,139,0.018,2014-01-13
arsgacp4,31.7093,-83.7287,127,-0.03,2014-01-13
arsgreatbasinltar098,43.1675,-116.7132,1426,-0.538,2014-01-13
arsgreatbasinltar117,43.1432,-116.7357,1625,-0.91,2014-01-13
arsgreatbasinltar177,43.0645,-116.7484,2114,-1.032,2014-01-13
arsltarmdcr,39.0587,-75.8513,17,-0.08,2014-01-13
arsltarmdcrnatw,39.0575,-75.7531,16,-0.137,2014-01-13
arsltarmdcrprcw,39.0667,-75.7609,17,-0.137,2014-01-13
arsltarmdcrresw,39.0549,-75.7532,16,-0.137,2014-01-13
arsltarucbec1,40.7537,-78.0057,400,-0.541,2014-01-13
arsltarucbec2,40.7558,-77.9999,396,-0.541,2014-01-13
arsmnswanlake1,45.684508,-95.799703,370,-0.479,2014-01-13
arsmorris1,45.6167,-96.1269,341,-0.43,2014-01-13
arsmorris2,45.627,-96.127,338,-0.43,2014-01-13
arsmorris3,45.6091,-96.1265,342,-0.43,2014-01-13
arsope3ltar,39.0309,-76.8442,41,-0.178,2014-01-13
ashburnham,42.6029,-71.926,292,-0.85,2014-01-13
asuhighlands,36.2076,-81.7032,1016,0.213,2014-01-13
austincary,29.738,-82.2188,44,1.082,2014-01-13
barrow,71.28007453,-156.6091492,5,-9999.0,2014-01-13
bartlettir,44.0646,-71.2881,268,-0.334,2014-01-13
bigtraillake,64.9194,-147.822,190,-9999.0,2014-01-13
bitterbrush001,48.154,-119.9456,667,-1.783,2014-01-13
blackrockforest,41.3974,-74.0239,427,-0.703,2014-01-13
bnzblackspruce,64.6963,-148.3235,102,-9999.0,2014-01-13
bnzrichfen,64.70134,-148.31195,97,-9999.0,2014-01-13
bnzthermokarstbog,64.6955,-148.3208,104,-9999.0,2014-01-13
boglakepeatland,47.5051,-93.4893,416,0.021,2014-01-13
bostoncommon,42.355912,-71.064145,10,-0.833,2014-01-13
bostonu,42.35041,-71.10438,10,-0.844,2014-01-13
bouldinalfalfa,38.0985,-121.4993,-5,-1.687,2014-01-13
bouldincorn,38.109,-121.535,-5,-1.683,2014-01-13
bozeman,45.783056,-110.777778,2332,0.24,2014-01-13
brackishimpoundment,33.2015,-79.2973,1,-0.094,2014-01-13
bullshoals,36.562833,-93.06663,260,-0.261,2014-01-13
burnssagebrush,43.4712,-119.6909,1398,-0.74,2014-01-13
butte,45.95304,-112.47964,1682,-0.008,2014-01-13
butterice,39.5793,-121.858,33,-1.758,2014-01-13
cafboydnorthltar01,46.755104,-117.126052,795,-1.127,2014-01-13
cafboydsouthltar01,46.751809,-117.128502,795,-1.127,2014-01-13
cafcookeastltar01,46.78152,-117.0821,794,-1.206,2014-01-13
cafcookwestltar01,46.784037,-117.09083,807,-1.206,2014-01-13
caryinstitute,41.7839,-73.7341,127,-0.493,2014-01-13
centralredwoods1,38.632272,-123.301511,200,-1.625,2014-01-13
centralredwoods2,38.632272,-123.301511,200,-1.625,2014-01-13
cperagm,40.8402,-104.7672,1644,0.03,2014-01-13
cperheavy,40.8153,-104.7386,1652,0.073,2014-01-13
cpertgm,40.833,-104.76,1644,0.073,2014-01-13
cperuvb,40.8055764,-104.7558542,1641,0.073,2014-01-13
cuny,40.8162,-73.9507,42,-0.573,2014-01-13
doverdesaltmarsh,39.0888,-75.4368,0,-0.133,2014-01-13
downerwoods,43.07938,-87.88076,213,-0.375,2014-01-13
dukehw,35.973583,-79.100371,400,0.013,2014-01-13
ecb1,41.5348,-84.8068,275,-0.05,2014-01-13
ecb2,41.5321,-84.808,275,-0.05,2014-01-13
ecb4,41.1796,-83.0604,240,0.295,2014-01-13
elverde,18.320654,-65.8199,312,-9999.0,2014-01-13
flagstaff,35.17961521,-111.6049032,6983,-0.243,2014-01-13
flagstaff2,35.179225,-111.604506,6983,-0.243,2014-01-13
flagstaffchimneysprings,35.257296,-111.678542,2250,-0.394,2014-01-13
forbes,39.232,-121.2972,360,-1.703,2014-01-13
fortpaynealpasture1,34.3824,-85.6428,405,0.495,2014-01-13
fortpaynealpasture2,34.3824,-85.6447,403,0.495,2014-01-13
gcesapelo,31.4440444,-81.283528,0,0.768,2014-01-13
gilberttract,38.0015,-121.6691,6,-1.631,2014-01-13
glees,41.3644,-106.2394,3150,0.345,2014-01-13
glennorganicrice,39.6805,-122.0026,2,-1.877,2014-01-13
glennrice,39.5944,-122.0253,36,-1.855,2014-01-13
goodnow,43.96018,-74.20994,820,-0.001,2014-01-13
goodwater,39.22848,-92.11936,264,-0.198,2014-01-13
goodwaterbau,39.23115,-92.15216,274,-0.194,2014-01-13
grandteton,43.915017,-110.578036,2054,-0.645,2014-01-13
grca1pj,36.0241,-112.2211,1978,-0.487,2014-01-13
greenridge1,39.6905,-78.4067,285,-0.607,2014-01-13
harvard,42.5378,-72.1715,340,-0.649,2014-01-13
harvardbarn,42.53532,-72.1899,350,-0.59,2014-01-13
harvardbarn2,42.53532,-72.1899,350,-0.59,2014-01-13
harvardems2,42.5378,-72.1715,340,-0.649,2014-01-13
harvardfarmnorth,42.520465,-72.182242,355,-0.59,2014-01-13
harvardfarmsouth,42.522466,-72.182339,355,-0.59,2014-01-13
harvardgarden,42.5291,-72.1863,335,-0.59,2014-01-13
harvardhemlock,42.539,-72.18,355,-0.59,2014-01-13
harvardhemlock2,42.539407,-72.177976,355,-0.649,2014-01-13
harvardlph,42.542,-72.185,380,-0.59,2014-01-13
hawbeckereddy,40.6608,-77.848849,310,-0.693,2014-01-13
hobcawclearcutlongleaf,33.3486,-79.232,4,0.004,2014-01-13
hobcawmaturelongleaf,33.3242,-79.2439,8,0.004,2014-01-13
homesteadsprings,37.2009,-92.9937,452,-0.027,2014-01-13
howland1,45.2041,-68.7403,80,0.062,2014-01-13
howland2,45.2128,-68.7418,79,0.062,2014-01-13
hubbardbrook,43.9438,-71.701,253,-0.338,2014-01-13
humnokericea,34.585192,-91.751684,61,0.346,2014-01-13
humnokericec,34.588853,-91.7516729,70,0.346,2014-01-13
huyckpreserveny,42.5266,-74.1587,478,-0.629,2014-01-13
hwmo1,20.0212,-155.7331,585,-9999.0,2014-01-13
hwmo2,19.9766,-155.8298,12,-9999.0,2014-01-13
hwmo5,20.1117,-155.8151,635,-9999.0,2014-01-13
ibp,32.589,-106.847,1325,-0.554,2014-01-13
imcrkfen,68.60583,-149.31101,900,-9999.0,2014-01-13
imcrkridge0,68.60681,-149.2958,951,-9999.0,2014-01-13
imcrkridge1,68.60681,-149.2958,951,-9999.0,2014-01-13
imcrktussock,68.60633,-149.30408,918,-9999.0,2014-01-13
jasperridge,37.402028,-122.22104,197,-1.665,2014-01-13
jerbajada,32.57992,-106.633793,1402,-0.595,2014-01-13
jergrassland,32.5833,-106.8333,1331,-0.554,2014-01-13
jernort,32.619,-106.788,1328,-0.554,2014-01-13
jernovel,32.6335,-106.8334,1324,-0.524,2014-01-13
jernwern,32.6271,-106.7387,1325,-0.581,2014-01-13
jersand,32.515,-106.798,1363,-0.599,2014-01-13
jershrubland,32.6502,-106.8334,1328,-0.469,2014-01-13
junipersavannah,34.4254,-105.8615,1931,-0.034,2014-01-13
kamuela,20.015008,-155.661326,850,-9999.0,2014-01-13
kamuela2,20.014959,-155.661139,830,-9999.0,2014-01-13
kansas,39.0561,-95.1907,333,-0.378,2014-01-13
kelloggcorn,42.437536,-85.3225472,288,0.372,2014-01-13
kempnrs,45.83992,-89.67755,539,0.504,2014-01-13
kendall,31.73652,-109.94185,1529,-0.358,2014-01-13
konza,39.0824,-96.5603,443,-0.702,2014-01-13
laupahoehoe,19.9322,-155.2912,1145,-9999.0,2014-01-13
ldeocam,41.0039,-73.9053,121,-0.568,2014-01-13
lostcreek,46.0827,-89.9792,480,0.396,2014-01-13
luckyhills,31.743896,-110.052023,1366,-0.38,2014-01-13
macleish,42.4484,-72.6804,251,-0.538,2014-01-13
macordway,44.8106,-93.0272,264,-0.6,2014-01-13
mandanh5,46.775423,-100.95109,593,0.305,2014-01-13
mandani2,46.7614,-100.9257,590,0.295,2014-01-13
manilacotton,35.8872,-90.1371,73,-0.272,2014-01-13
marena,36.06434,-97.21271,327,-0.805,2014-01-13
mead1,41.1651,-96.4766,361,-0.833,2014-01-13
mead2,41.1649,-96.4701,362,-0.833,2014-01-13
mead3,41.1797,-96.4397,363,-0.821,2014-01-13
meadpasture,41.1447,-96.4616,356,-0.833,2014-01-13
meadpasturese,41.1447,-96.4616,356,-0.833,2014-01-13
meadpasturesw,41.1447,-96.4616,356,-0.833,2014-01-13
missouriozarks,38.7441,-92.2,219,-0.492,2014-01-13
morganmonroe,39.3231,-86.4131,275,1.307,2014-01-13
morganmonroe2,39.3231,-86.4131,275,1.307,2014-01-13
nahuku,19.415187,-155.238383,1202,-9999.0,2014-01-13
nationalelkrefuge,43.488931,-110.737824,1899,-0.619,2014-01-13
ncssm,36.018446,-78.92075,175,-0.013,2014-01-13
NEON.D01.BART.DP1.00033,44.063869,-71.287375,285,-0.334,2014-01-13
NEON.D01.HARV.DP1.00033,42.536911,-72.17265,359,-0.649,2014-01-13
NEON.D01.HOPB.DP1.20002,42.471786,-72.329627,203,-0.785,2014-01-13
NEON.D02.BLAN.DP1.00033,39.033698,-78.041788,162,-0.085,2014-01-13
NEON.D02.LEWI.DP1.20002,39.09564,-77.98322,152,-0.038,2014-01-13
NEON.D02.POSE.DP1.20002,38.89332,-78.14678,293,-0.154,2014-01-13
NEON.D02.SCBI.DP1.00033,38.892925,-78.139494,364,-0.151,2014-01-13
NEON.D02.SERC.DP1.00033,38.89008,-76.56001,30,-0.04,2014-01-13
NEON.D03.BARC.DP1.20002,29.676473,-82.009089,35,1.208,2014-01-13
NEON.D03.DSNY.DP1.00033,28.12505,-81.43619,22,-0.538,2014-01-13
NEON.D03.FLNT.DP1.20002,31.185424,-84.437403,27,-0.034,2014-01-13
NEON.D03.JERC.DP1.00033,31.194839,-84.468623,58,-0.049,2014-01-13
NEON.D03.OSBS.DP1.00033,29.689282,-81.993431,56,1.118,2014-01-13
NEON.D03.SUGG.DP1.20002,29.687054,-82.016171,28,1.118,2014-01-13
NEON.D04.CUPE.DP1.20002,18.11352,-66.98676,164,-9999.0,2014-01-13
NEON.D04.GUAN.DP1.00033,17.96955,-66.8687,136,-9999.0,2014-01-13
NEON.D04.GUIL.DP1.20002,18.1741,-66.79851,564,-9999.0,2014-01-13
NEON.D04.LAJA.DP1.00033,18.021261,-67.076889,22,-9999.0,2014-01-13
NEON.D05.CRAM.DP1.20002,46.21111,-89.47825,518,0.84,2014-01-13
NEON.D05.LIRO.DP1.20002,45.998269,-89.704767,495,0.523,2014-01-13
NEON.D05.STEI.DP1.00033,45.50894,-89.58637,476,0.25,2014-01-13
NEON.D05.TREE.DP1.00033,45.49373,-89.58572,474,0.25,2014-01-13
NEON.D05.UNDE.DP1.00033,46.23391,-89.537254,529,0.788,2014-01-13
NEON.D06.KING.DP1.20002,39.10506,-96.60336,339,-0.712,2014-01-13
NEON.D06.KONA.DP1.00033,39.110446,-96.612935,443,-0.712,2014-01-13
NEON.D06.KONZ.DP1.00033,39.10077,-96.56309,415,-0.702,2014-01-13
NEON.D06.MCDI.DP1.20002,38.94428,-96.44197,376,-0.629,2014-01-13
NEON.D06.UKFS.DP1.00033,39.040431,-95.19215,330,-0.378,2014-01-13
NEON.D07.GRSM.DP1.00033,35.68896,-83.50195,589,0.608,2014-01-13
NEON.D07.LECO.DP1.20002,35.69043,-83.50379,578,0.608,2014-01-13
NEON.D07.MLBS.DP1.00033,37.378314,-80.524847,1177,0.142,2014-01-13
NEON.D07.ORNL.DP1.00033,35.964128,-84.282588,351,0.51,2014-01-13
NEON.D07.WALK.DP1.20002,35.95947,-84.28041,274,0.518,2014-01-13
NEON.D08.BLWA.DP1.20002,32.541529,-87.798151,23,0.565,2014-01-13
NEON.D08.DELA.DP1.00033,32.541727,-87.803877,36,0.565,2014-01-13
NEON.D08.LENO.DP1.00033,31.85388,-88.16122,10,-0.249,2014-01-13
NEON.D08.MAYF.DP1.20002,32.959657,-87.408128,93,0.343,2014-01-13
NEON.D08.TALL.DP1.00033,32.95047,-87.393259,167,0.343,2014-01-13
NEON.D08.TOMB.DP1.20002,31.853431,-88.158872,10,-0.249,2014-01-13
NEON.D09.DCFS.DP1.00033,47.161647,-99.106556,574,0.014,2014-01-13
NEON.D09.NOGP.DP1.00033,46.76972,-100.91535,589,0.295,2014-01-13
NEON.D09.PRLA.DP1.20002,47.15909,-99.11388,563,0.038,2014-01-13
NEON.D09.PRPO.DP1.20002,47.12999,-99.250551,587,0.121,2014-01-13
NEON.D09.WOOD.DP1.00033,47.1282,-99.241334,585,0.121,2014-01-13
NEON.D10.ARIK.DP1.20002,39.758246,-102.447103,1188,-0.597,2014-01-13
NEON.D10.CPER.DP1.00033,40.81553,-104.7456,1600,0.073,2014-01-13
NEON.D10.HQTW.DP1.00033,40.016704,-105.245612,1601,-0.38,2014-01-13
NEON.D10.RMNP.DP1.00033,40.275903,-105.545955,2751,-0.386,2014-01-13
NEON.D10.STER.DP1.00033,40.461894,-103.02929,1366,-0.179,2014-01-13
NEON.D11.BLUE.DP1.20002,34.444218,-96.624201,288,-0.188,2014-01-13
NEON.D11.CLBJ.DP1.00033,33.40123,-97.57,279,0.08,2014-01-13
NEON.D11.OAES.DP1.00033,35.41059,-99.05879,520,-0.716,2014-01-13
NEON.D11.PRIN.DP1.20002,33.37859,-97.78226,255,-0.023,2014-01-13
NEON.D12.BLDE.DP1.20002,44.95011,-110.58715,2035,-0.165,2014-01-13
NEON.D12.YELL.DP1.00033,44.95348,-110.53914,2130,-0.138,2014-01-13
NEON.D13.COMO.DP1.20002,40.03496,-105.54487,3036,-0.494,2014-01-13
NEON.D13.MOAB.DP1.00033,38.24833,-109.38827,1803,0.47,2014-01-13
NEON.D13.NIWO.DP1.00033,40.05425,-105.58237,3493,-0.174,2014-01-13
NEON.D13.WLOU.DP1.20002,39.891366,-105.915395,2920,-0.028,2014-01-13
NEON.D14.JORN.DP1.00033,32.59068,-106.84254,1321,-0.554,2014-01-13
NEON.D14.SRER.DP1.00033,31.91068,-110.83549,999,-0.124,2014-01-13
NEON.D14.SYCA.DP1.20002,33.749057,-111.506903,644,-0.338,2014-01-13
NEON.D15.ONAQ.DP1.00033,40.177599,-112.452452,1655,0.199,2014-01-13
NEON.D15.REDB.DP1.20002,40.783934,-111.797887,1696,-0.77,2014-01-13
NEON.D16.ABBY.DP1.00033,45.76243,-122.33033,390,-1.634,2014-01-13
NEON.D16.MART.DP1.20002,45.791248,-121.931959,354,-1.5,2014-01-13
NEON.D16.MCRA.DP1.20002,44.259598,-122.165554,880,-1.753,2014-01-13
NEON.D16.WREF.DP1.00033,45.82049,-121.95191,368,-1.558,2014-01-13
NEON.D17.BIGC.DP1.20002,37.059719,-119.257549,1133,-1.328,2014-01-13
NEON.D17.SJER.DP1.00033,37.10878,-119.73228,398,-1.501,2014-01-13
NEON.D17.SOAP.DP1.00033,37.03337,-119.26219,1210,-1.334,2014-01-13
NEON.D17.TEAK.DP1.00033,37.00583,-119.00602,2149,-1.337,2014-01-13
NEON.D17.TECR.DP1.20002,36.955931,-119.027363,2053,-1.335,2014-01-13
NEON.D18.BARR.DP1.00033,71.28241,-156.61936,7,-9999.0,2014-01-13
NEON.D18.OKSR.DP1.20002,68.669753,-149.143018,773,-9999.0,2014-01-13
NEON.D18.TOOK.DP1.20002,68.629562,-149.610509,715,-9999.0,2014-01-13
NEON.D18.TOOL.DP1.00033,68.66109,-149.37047,827,-9999.0,2014-01-13
NEON.D19.BONA.DP1.00033,65.15401,-147.50258,233,-9999.0,2014-01-13
NEON.D19.CARI.DP1.20002,65.15306,-147.50246,229,-9999.0,2014-01-13
NEON.D19.DEJU.DP1.00033,63.88112,-145.75136,504,-9999.0,2014-01-13
NEON.D19.HEAL.DP1.00033,63.87569,-149.21334,409,-9999.0,2014-01-13
NEON.D20.PUUM.DP1.00033,19.55309,-155.31731,1683,-9999.0,2014-01-13
nevcansnk3a,39.0099,-114.3095,3063,0.047,2014-01-13
nevcanspg1a,38.9253,-114.4082,1792,0.141,2014-01-13
nevcanspg2a,38.8921,-114.3521,2203,0.016,2014-01-13
nevcanspg3a,38.8898,-114.3314,2820,-0.101,2014-01-13
nevcanspg4a,38.9061,-114.3089,3360,-0.101,2014-01-13
ninemileprairie,40.86801886,-96.82208066,381,-0.776,2014-01-13
nist,39.139,-77.2125,100,-0.159,2014-01-13
niwot3,40.03286358,-105.5469702,3050,-0.494,2014-01-13
niwot5,40.03286358,-105.5469702,2993,-0.494,2014-01-13
northattleboroma,41.98369,-71.31056,60,-0.855,2014-01-13
northinletsaltmarsh,33.3455,-79.1957,1,0.042,2014-01-13
oakville,47.899334,-97.316139,268,-0.579,2014-01-13
oregonMP,44.4523,-121.5574,1253,-1.525,2014-01-13
oregonYP,44.32384,-121.605993,977,-1.397,2014-01-13
oregonYPbud,44.3238,-121.606,977,-1.397,2014-01-13
othshardwood,44.934805,-68.6655,41,-0.148,2014-01-13
othssoftwood,44.934527,-68.664888,41,-0.148,2014-01-13
pace,37.9229,-78.2739,100,0.352,2014-01-13
parkschoolbuffalo,42.9637,-78.7834,205,1.3,2014-01-13
piedmontalpasture2,33.8875,-85.6935,238,0.84,2014-01-13
portal,31.9385,-109.0823,1330,-0.552,2014-01-13
proctor,44.525,-72.866,403,-0.381,2014-01-13
readingma,42.5304,-71.1272,100,-0.918,2014-01-13
robinson,37.4671,-83.1576,483,1.097,2014-01-13
robinson2,37.4671,-83.1576,483,1.097,2014-01-13
rosemountcons,44.6946,-93.0578,283,-0.689,2014-01-13
rosemountconv,44.691,-93.0576,283,-0.689,2014-01-13
rosemountnprs,44.6781,-93.0723,274,-0.684,2014-01-13
russellsage,32.456961,-91.974322,20,-0.278,2014-01-13
sagehen,39.4315,-120.2398,1934,-1.446,2014-01-13
sagehen2,39.4307,-120.2407,1937,-1.446,2014-01-13
sagehen3,39.4311,-120.2405,1935,-1.446,2014-01-13
sanford,42.726777,-84.464482,268,0.611,2014-01-13
santacruz1,36.9741,-122.0308,11,-1.639,2014-01-13
santacruz2,36.9741,-122.0308,11,-1.639,2014-01-13
santaluciapreserve1,36.5265,-121.8682,500,-1.229,2014-01-13
santaluciapreserve2,36.5265,-121.8682,500,-1.229,2014-01-13
segaarboretum10,35.16209,-111.73151,2170,-0.337,2014-01-13
segaarboretum2,35.16209,-111.73151,2170,-0.337,2014-01-13
segaarboretum3,35.16209,-111.73151,2170,-0.337,2014-01-13
segaarboretum4,35.16214,-111.73153,2170,-0.337,2014-01-13
segaarboretum6,35.16209,-111.73151,2170,-0.337,2014-01-13
segaarboretum9,35.16222,-111.73158,2170,-0.337,2014-01-13
segaarboretumforest,35.1613,-111.7359,2173,-0.337,2014-01-13
segaarboretummeadow,35.1621,-111.7316,2157,-0.337,2014-01-13
segablackpoint,35.6814,-111.4754,1566,0.522,2014-01-13
segabluechute,35.5876,-111.9716,1930,-0.429,2014-01-13
segabluechute1,35.58759,-111.97115,1931,-0.429,2014-01-13
segabluechute2,35.58759,-111.97115,1931,-0.429,2014-01-13
segabluechute4,35.58759,-111.9716,1931,-0.429,2014-01-13
segabluechute6,35.58759,-111.97115,1931,-0.429,2014-01-13
segabluechute7,35.58759,-111.97115,1931,-0.429,2014-01-13
segabluechute8,35.58759,-111.97115,1931,-0.429,2014-01-13
segabradshaw,34.9109,-111.9285,1402,-0.213,2014-01-13
segahartprairie,35.3536,-111.7324,2585,-0.454,2014-01-13
segalcr,35.7231,-111.321,1275,0.446,2014-01-13
segalcr2,35.7069,-111.36,1495,0.494,2014-01-13
segalittlemountain,36.5865,-112.3634,2276,-0.432,2014-01-13
segasoapcreek,36.751,-111.716,1233,0.643,2014-01-13
segawhitepockets,36.6081,-112.4082,2057,-0.394,2014-01-13
sevilletagrass,34.360444,-106.700186,1600,-0.181,2014-01-13
sevilletanewgrass,34.358,-106.6799,1603,-0.177,2014-01-13
sevilletashrub,34.334956,-106.744469,1603,-0.184,2014-01-13
sevMRME10L,34.3438,-106.7269,1604,-0.16,2014-01-13
sevMRME11C,34.3438,-106.7268,1604,-0.16,2014-01-13
sevMRME1S,34.3442,-106.7272,1604,-0.16,2014-01-13
sevpjrm12,34.38615,-106.52621,1905,-0.214,2014-01-13
sevpjrm13,34.38631,-106.52791,1914,-0.214,2014-01-13
shalehillsczo,40.6658,-77.9041,310,-0.681,2014-01-13
shenandoah,38.6167,-78.35,1037,-0.243,2014-01-13
silverton,44.9986,-122.6948,347,-1.902,2014-01-13
siwetland,38.0369,-121.7546,-5,-1.611,2014-01-13
slatefloodplain,38.9094,-107.0282,2725,-0.186,2014-01-13
snodgrass1,38.92619636,-106.9714376,3023,-0.073,2014-01-13
snodgrass2,38.92619636,-106.9714376,3023,-0.073,2014-01-13
snodgrass3,38.92839978,-106.9781196,3141,-0.073,2014-01-13
snodgrass4,38.92839978,-106.9781196,3141,-0.073,2014-01-13
snodgrass5,38.92744789,-106.9785209,3152,-0.073,2014-01-13
snodgrass6,38.92744789,-106.9785209,3152,-0.073,2014-01-13
snodgrass7,38.93142134,-106.9852388,3363,-0.08,2014-01-13
snodgrass8,38.93142134,-106.9852388,3363,-0.08,2014-01-13
southerngreatplains,36.6058,-97.4888,314,-0.569,2014-01-13
springfieldma,42.135162,-72.585972,56,-0.392,2014-01-13
spruceA0EMI,47.5049,-93.4541,413,0.029,2014-01-13
spruceA0EMT,47.5049,-93.4541,418,0.029,2014-01-13
spruceA0P07,47.50493,-93.45314,413,0.029,2014-01-13
spruceA0P07SH,47.50493,-93.45314,413,0.029,2014-01-13
spruceA0P21,47.50625,-93.45275,413,0.029,2014-01-13
spruceA0P21SH,47.50625,-93.45275,413,0.029,2014-01-13
srg,31.7894,-110.8276,1281,-0.446,2014-01-13
srm,31.8214,-110.8661,1116,-0.159,2014-01-13
statenrice1,38.1235,-121.549,-5,-1.682,2014-01-13
stjones,39.088222,-75.43725,2,-0.133,2014-01-13
sweetbriar,37.57341,-79.08482,242,0.411,2014-01-13
sweetbriarclearcut,37.5753,-79.0872,242,0.411,2014-01-13
sweetbriargrass,37.5605,-79.0884,240,0.411,2014-01-13
sylvania,46.242,-89.348,540,0.876,2014-01-13
templefieldstation1,40.1667,-75.1894,105,-0.212,2014-01-13
tfforest,43.1086,-70.9505,23,-1.123,2014-01-13
tidmarshplymouth,41.9157,-70.5754,9,-0.566,2014-01-13
tonzi,38.43091667,-120.9658861,177,-1.704,2014-01-13
townsenddemeadow,39.3917,-75.6281,11,-0.158,2014-01-13
tsubiology,36.1671,-86.8295,164,-0.112,2014-01-13
tsubiology2,36.1171,-86.8295,100,-0.196,2014-01-13
tuckerprairie,38.9491,-91.9952,274,-0.499,2014-01-13
twodafo,29.1658,-95.829,16,-0.067,2014-01-13
tworfaa,31.4777,-96.8882,167,0.246,2014-01-13
tworfpr,31.4802,-96.8826,162,0.147,2014-01-13
tworfta,31.4693,-96.8864,173,0.246,2014-01-13
twosfpr,30.6176,-97.2938,157,0.346,2014-01-13
ucnrsanzaborrego,33.2401,-116.3886,214,-0.557,2014-01-13
ufona,27.3836,-81.950856,25,-1.132,2014-01-13
uiefmaize2,40.0628,-88.1961,224,-0.491,2014-01-13
uiefmiscanthus2,40.0628,-88.1984,221,-0.491,2014-01-13
uiefprairie2,40.0637,-88.1973,224,-0.491,2014-01-13
uiefsorghum,40.0065,-88.2032,224,-0.543,2014-01-13
uiefswitchgrass2,40.0637,-88.1973,224,-0.491,2014-01-13
umichbiological,45.55984,-84.71382,230,1.98,2014-01-13
umichbiological2,45.5625,-84.6976,240,1.855,2014-01-13
unca,35.5951,-82.5515,650,0.795,2014-01-13
usgseros,43.7343,-96.6234,448,0.054,2014-01-13
usmpj,34.43845,-106.2543606,2126,-0.079,2014-01-13
usof5,35.7297,-90.0406,70,-0.455,2014-01-13
usof6,35.7333,-90.0403,70,-0.455,2014-01-13
uwmfieldsta,43.38709,-88.0229,265,-0.34,2014-01-13
vaira,38.41328056,-120.9506361,129,-1.704,2014-01-13
vallesburnedconifer,35.8884,-106.5321,3043,-0.295,2014-01-13
vallesmixedconifer,35.9192,-106.6142,2752,-0.245,2014-01-13
vallesponderosapine,35.864,-106.5964,2501,-0.172,2014-01-13
waahila,21.3017,-157.8152,55,-9999.0,2014-01-13
warrenwilson,35.6069,-82.4421,2198,0.759,2014-01-13
willamettepoplar,44.1368,-123.1823,112,-1.918,2014-01-13
willowcreek,45.805986,-90.07912,521,0.404,2014-01-13
windriver,45.8212833,-121.9520833,371,-1.558,2014-01-13
windriverunderstory,45.8212833,-121.9520833,371,-1.558,2014-01-13
wolfesneckfarm,43.8305,-70.0715,16,-0.498,2014-01-13
worcester,42.2697,-71.8428,185,-0.866,2014-01-13
alligatorriver,35.7879,-75.9038,1,0.967,2014-01-20
arbutuslake,43.98207,-74.23322,535,0.631,2014-01-20
arbutuslakeinlet,43.99336,-74.24527,527,0.631,2014-01-20
archboldavir,27.176064,-81.21958,8,-1.144,2014-01-20
archboldavirx,27.166627,-81.219828,8,-1.144,2014-01-20
archboldbahia,27.1656,-81.216112,8,-1.144,2014-01-20
archboldpnot,27.187948,-81.200345,9,-1.144,2014-01-20
archboldpnotx,27.180677,-81.20068,9,-1.144,2014-01-20
arkansascornsoy,34.416,-91.6723,61,0.444,2014-01-20
arsbrooks10,41.9749,-93.6905,312,-0.591,2014-01-20
arsbrooks11,41.9744,-93.6937,313,-0.591,2014-01-20
arscolesnorth,42.4884,-93.5225,356,-0.513,2014-01-20
arscolessouth,42.4816,-93.5235,352,-0.513,2014-01-20
arsgacp1,31.5109,-83.6179,96,0.026,2014-01-20
arsgacp3,31.7563,-83.7516,139,0.09,2014-01-20
arsgacp4,31.7093,-83.7287,127,0.035,2014-01-20
arsgreatbasinltar098,43.1675,-116.7132,1426,-0.817,2014-01-20
arsgreatbasinltar117,43.1432,-116.7357,1625,-1.132,2014-01-20
arsgreatbasinltar177,43.0645,-116.7484,2114,-1.182,2014-01-20
arsltarmdcr,39.0587,-75.8513,17,0.25,2014-01-20
arsltarmdcrnatw,39.0575,-75.7531,16,0.162,2014-01-20
arsltarmdcrprcw,39.0667,-75.7609,17,0.162,2014-01-20
arsltarmdcrresw,39.0549,-75.7532,16,0.162,2014-01-20
arsltarucbec1,40.7537,-78.0057,400,-0.293,2014-01-20
arsltarucbec2,40.7558,-77.9999,396,-0.293,2014-01-20
arsmnswanlake1,45.684508,-95.799703,370,-0.676,2014-01-20
arsmorris1,45.6167,-96.1269,341,-0.613,2014-01-20
arsmorris2,45.627,-96.127,338,-0.613,2014-01-20
arsmorris3,45.6091,-96.1265,342,-0.613,2014-01-20
arsope3ltar,39.0309,-76.8442,41,0.266,2014-01-20
ashburnham,42.6029,-71.926,292,-0.427,2014-01-20
asuhighlands,36.2076,-81.7032,1016,0.403,2014-01-20
austincary,29.738,-82.2188,44,1.361,2014-01-20
barrow,71.28007453,-156.6091492,5,-9999.0,2014-01-20
bartlettir,44.0646,-71.2881,268,0.476,2014-01-20
bigtraillake,64.9194,-147.822,190,-9999.0,2014-01-20
bitterbrush001,48.154,-119.9456,667,-1.805,2014-01-20
blackrockforest,41.3974,-74.0239,427,-0.375,2014-01-20
bnzblackspruce,64.6963,-148.3235,102,-9999.0,2014-01-20
bnzrichfen,64.70134,-148.31195,97,-9999.0,2014-01-20
bnzthermokarstbog,64.6955,-148.3208,104,-9999.0,2014-01-20
boglakepeatland,47.5051,-93.4893,416,0.048,2014-01-20
bostoncommon,42.355912,-71.064145,10,-0.398,2014-01-20
bostonu,42.35041,-71.10438,10,-0.403,2014-01-20
bouldinalfalfa,38.0985,-121.4993,-5,-1.702,2014-01-20
bouldincorn,38.109,-121.535,-5,-1.704,2014-01-20
bozeman,45.783056,-110.777778,2332,0.303,2014-01-20
brackishimpoundment,33.2015,-79.2973,1,0.0,2014-01-20
bullshoals,36.562833,-93.06663,260,-0.315,2014-01-20
burnssagebrush,43.4712,-119.6909,1398,-0.81,2014-01-20
butte,45.95304,-112.47964,1682,-0.166,2014-01-20
butterice,39.5793,-121.858,33,-1.874,2014-01-20
cafboydnorthltar01,46.755104,-117.126052,795,-1.199,2014-01-20
cafboydsouthltar01,46.751809,-117.128502,795,-1.199,2014-01-20
cafcookeastltar01,46.78152,-117.0821,794,-1.256,2014-01-20
cafcookwestltar01,46.784037,-117.09083,807,-1.256,2014-01-20
caryinstitute,41.7839,-73.7341,127,-0.042,2014-01-20
centralredwoods1,38.632272,-123.301511,200,-1.66,2014-01-20
centralredwoods2,38.632272,-123.301511,200,-1.66,2014-01-20
cperagm,40.8402,-104.7672,1644,-0.174,2014-01-20
cperheavy,40.8153,-104.7386,1652,-0.169,2014-01-20
cpertgm,40.833,-104.76,1644,-0.134,2014-01-20
cperuvb,40.8055764,-104.7558542,1641,-0.134,2014-01-20
cuny,40.8162,-73.9507,42,-0.202,2014-01-20
doverdesaltmarsh,39.0888,-75.4368,0,0.112,2014-01-20
downerwoods,43.07938,-87.88076,213,-0.05,2014-01-20
dukehw,35.973583,-79.100371,400,0.467,2014-01-20
ecb1,41.5348,-84.8068,275,0.062,2014-01-20
ecb2,41.5321,-84.808,275,0.062,2014-01-20
ecb4,41.1796,-83.0604,240,0.28,2014-01-20
elverde,18.320654,-65.8199,312,-9999.0,2014-01-20
flagstaff,35.17961521,-111.6049032,6983,-0.354,2014-01-20
flagstaff2,35.179225,-111.604506,6983,-0.354,2014-01-20
flagstaffchimneysprings,35.257296,-111.678542,2250,-0.484,2014-01-20
forbes,39.232,-121.2972,360,-1.802,2014-01-20
fortpaynealpasture1,34.3824,-85.6428,405,0.643,2014-01-20
fortpaynealpasture2,34.3824,-85.6447,403,0.643,2014-01-20
gcesapelo,31.4440444,-81.283528,0,0.866,2014-01-20
gilberttract,38.0015,-121.6691,6,-1.704,2014-01-20
glees,41.3644,-106.2394,3150,0.727,2014-01-20
glennorganicrice,39.6805,-122.0026,2,-1.952,2014-01-20
glennrice,39.5944,-122.0253,36,-1.945,2014-01-20
goodnow,43.96018,-74.20994,820,0.558,2014-01-20
goodwater,39.22848,-92.11936,264,-0.182,2014-01-20
goodwaterbau,39.23115,-92.15216,274,-0.182,2014-01-20
grandteton,43.915017,-110.578036,2054,-0.334,2014-01-20
grca1pj,36.0241,-112.2211,1978,-0.529,2014-01-20
greenridge1,39.6905,-78.4067,285,-0.475,2014-01-20
harvard,42.5378,-72.1715,340,-0.195,2014-01-20
harvardbarn,42.53532,-72.1899,350,-0.144,2014-01-20
harvardbarn2,42.53532,-72.1899,350,-0.144,2014-01-20
harvardems2,42.5378,-72.1715,340,-0.195,2014-01-20
harvardfarmnorth,42.520465,-72.182242,355,-0.144,2014-01-20
harvardfarmsouth,42.522466,-72.182339,355,-0.144,2014-01-20
harvardgarden,42.5291,-72.1863,335,-0.144,2014-01-20
harvardhemlock,42.539,-72.18,355,-0.144,2014-01-20
harvardhemlock2,42.539407,-72.177976,355,-0.195,2014-01-20
harvardlph,42.542,-72.185,380,-0.144,2014-01-20
hawbeckereddy,40.6608,-77.848849,310,-0.42,2014-01-20
hobcawclearcutlongleaf,33.3486,-79.232,4,0.105,2014-01-20
hobcawmaturelongleaf,33.3242,-79.2439,8,0.105,2014-01-20
homesteadsprings,37.2009,-92.9937,452,0.005,2014-01-20
howland1,45.2041,-68.7403,80,0.732,2014-01-20
howland2,45.2128,-68.7418,79,0.732,2014-01-20
hubbardbrook,43.9438,-71.701,253,0.385,2014-01-20
humnokericea,34.585192,-91.751684,61,0.507,2014-01-20
humnokericec,34.588853,-91.7516729,70,0.507,2014-01-20
huyckpreserveny,42.5266,-74.1587,478,-0.197,2014-01-20
hwmo1,20.0212,-155.7331,585,-9999.0,2014-01-20
hwmo2,19.9766,-155.8298,12,-9999.0,2014-01-20
hwmo5,20.1117,-155.8151,635,-9999.0,2014-01-20
ibp,32.589,-106.847,1325,-0.64,2014-01-20
imcrkfen,68.60583,-149.31101,900,-9999.0,2014-01-20
imcrkridge0,68.60681,-149.2958,951,-9999.0,2014-01-20
imcrkridge1,68.60681,-149.2958,951,-9999.0,2014-01-20
imcrktussock,68.60633,-149.30408,918,-9999.0,2014-01-20
jasperridge,37.402028,-122.22104,197,-1.772,2014-01-20
jerbajada,32.57992,-106.633793,1402,-0.687,2014-01-20
jergrassland,32.5833,-106.8333,1331,-0.64,2014-01-20
jernort,32.619,-106.788,1328,-0.641,2014-01-20
jernovel,32.6335,-106.8334,1324,-0.608,2014-01-20
jernwern,32.6271,-106.7387,1325,-0.661,2014-01-20
jersand,32.515,-106.798,1363,-0.675,2014-01-20
jershrubland,32.6502,-106.8334,1328,-0.564,2014-01-20
junipersavannah,34.4254,-105.8615,1931,-0.246,2014-01-20
kamuela,20.015008,-155.661326,850,-9999.0,2014-01-20
kamuela2,20.014959,-155.661139,830,-9999.0,2014-01-20
kansas,39.0561,-95.1907,333,-0.358,2014-01-20
kelloggcorn,42.437536,-85.3225472,288,0.355,2014-01-20
kempnrs,45.83992,-89.67755,539,0.542,2014-01-20
kendall,31.73652,-109.94185,1529,-0.404,2014-01-20
konza,39.0824,-96.5603,443,-0.724,2014-01-20
laupahoehoe,19.9322,-155.2912,1145,-9999.0,2014-01-20
ldeocam,41.0039,-73.9053,121,-0.142,2014-01-20
lostcreek,46.0827,-89.9792,480,0.377,2014-01-20
luckyhills,31.743896,-110.052023,1366,-0.43,2014-01-20
macleish,42.4484,-72.6804,251,-0.141,2014-01-20
macordway,44.8106,-93.0272,264,-0.513,2014-01-20
mandanh5,46.775423,-100.95109,593,-0.029,2014-01-20
mandani2,46.7614,-100.9257,590,-0.033,2014-01-20
manilacotton,35.8872,-90.1371,73,-0.15,2014-01-20
marena,36.06434,-97.21271,327,-0.902,2014-01-20
mead1,41.1651,-96.4766,361,-0.889,2014-01-20
mead2,41.1649,-96.4701,362,-0.889,2014-01-20
mead3,41.1797,-96.4397,363,-0.874,2014-01-20
meadpasture,41.1447,-96.4616,356,-0.902,2014-01-20
meadpasturese,41.1447,-96.4616,356,-0.902,2014-01-20
meadpasturesw,41.1447,-96.4616,356,-0.902,2014-01-20
missouriozarks,38.7441,-92.2,219,-0.52,2014-01-20
morganmonroe,39.3231,-86.4131,275,1.259,2014-01-20
morganmonroe2,39.3231,-86.4131,275,1.259,2014-01-20
nahuku,19.415187,-155.238383,1202,-9999.0,2014-01-20
nationalelkrefuge,43.488931,-110.737824,1899,-0.584,2014-01-20
ncssm,36.018446,-78.92075,175,0.416,2014-01-20
NEON.D01.BART.DP1.00033,44.063869,-71.287375,285,0.476,2014-01-20
NEON.D01.HARV.DP1.00033,42.536911,-72.17265,359,-0.195,2014-01-20
NEON.D01.HOPB.DP1.20002,42.471786,-72.329627,203,-0.334,2014-01-20
NEON.D02.BLAN.DP1.00033,39.033698,-78.041788,162,0.273,2014-01-20
NEON.D02.LEWI.DP1.20002,39.09564,-77.98322,152,0.281,2014-01-20
NEON.D02.POSE.DP1.20002,38.89332,-78.14678,293,0.141,2014-01-20
NEON.D02.SCBI.DP1.00033,38.892925,-78.139494,364,0.174,2014-01-20
NEON.D02.SERC.DP1.00033,38.89008,-76.56001,30,0.446,2014-01-20
NEON.D03.BARC.DP1.20002,29.676473,-82.009089,35,1.381,2014-01-20
NEON.D03.DSNY.DP1.00033,28.12505,-81.43619,22,-0.604,2014-01-20
NEON.D03.FLNT.DP1.20002,31.185424,-84.437403,27,0.017,2014-01-20
NEON.D03.JERC.DP1.00033,31.194839,-84.468623,58,-0.006,2014-01-20
NEON.D03.OSBS.DP1.00033,29.689282,-81.993431,56,1.324,2014-01-20
NEON.D03.SUGG.DP1.20002,29.687054,-82.016171,28,1.324,2014-01-20
NEON.D04.CUPE.DP1.20002,18.11352,-66.98676,164,-9999.0,2014-01-20
NEON.D04.GUAN.DP1.00033,17.96955,-66.8687,136,-9999.0,2014-01-20
NEON.D04.GUIL.DP1.20002,18.1741,-66.79851,564,-9999.0,2014-01-20
NEON.D04.LAJA.DP1.00033,18.021261,-67.076889,22,-9999.0,2014-01-20
NEON.D05.CRAM.DP1.20002,46.21111,-89.47825,518,0.603,2014-01-20
NEON.D05.LIRO.DP1.20002,45.998269,-89.704767,495,0.477,2014-01-20
NEON.D05.STEI.DP1.00033,45.50894,-89.58637,476,0.446,2014-01-20
NEON.D05.TREE.DP1.00033,45.49373,-89.58572,474,0.446,2014-01-20
NEON.D05.UNDE.DP1.00033,46.23391,-89.537254,529,0.556,2014-01-20
NEON.D06.KING.DP1.20002,39.10506,-96.60336,339,-0.733,2014-01-20
NEON.D06.KONA.DP1.00033,39.110446,-96.612935,443,-0.733,2014-01-20
NEON.D06.KONZ.DP1.00033,39.10077,-96.56309,415,-0.724,2014-01-20
NEON.D06.MCDI.DP1.20002,38.94428,-96.44197,376,-0.658,2014-01-20
NEON.D06.UKFS.DP1.00033,39.040431,-95.19215,330,-0.358,2014-01-20
NEON.D07.GRSM.DP1.00033,35.68896,-83.50195,589,1.087,2014-01-20
NEON.D07.LECO.DP1.20002,35.69043,-83.50379,578,1.087,2014-01-20
NEON.D07.MLBS.DP1.00033,37.378314,-80.524847,1177,0.437,2014-01-20
NEON.D07.ORNL.DP1.00033,35.964128,-84.282588,351,0.716,2014-01-20
NEON.D07.WALK.DP1.20002,35.95947,-84.28041,274,0.732,2014-01-20
NEON.D08.BLWA.DP1.20002,32.541529,-87.798151,23,0.652,2014-01-20
NEON.D08.DELA.DP1.00033,32.541727,-87.803877,36,0.652,2014-01-20
NEON.D08.LENO.DP1.00033,31.85388,-88.16122,10,-0.202,2014-01-20
NEON.D08.MAYF.DP1.20002,32.959657,-87.408128,93,0.539,2014-01-20
NEON.D08.TALL.DP1.00033,32.95047,-87.393259,167,0.539,2014-01-20
NEON.D08.TOMB.DP1.20002,31.853431,-88.158872,10,-0.202,2014-01-20
NEON.D09.DCFS.DP1.00033,47.161647,-99.106556,574,-0.221,2014-01-20
NEON.D09.NOGP.DP1.00033,46.76972,-100.91535,589,-0.033,2014-01-20
NEON.D09.PRLA.DP1.20002,47.15909,-99.11388,563,-0.226,2014-01-20
NEON.D09.PRPO.DP1.20002,47.12999,-99.250551,587,-0.131,2014-01-20
NEON.D09.WOOD.DP1.00033,47.1282,-99.241334,585,-0.131,2014-01-20
NEON.D10.ARIK.DP1.20002,39.758246,-102.447103,1188,-0.718,2014-01-20
NEON.D10.CPER.DP1.00033,40.81553,-104.7456,1600,-0.134,2014-01-20
NEON.D10.HQTW.DP1.00033,40.016704,-105.245612,1601,-0.63,2014-01-20
NEON.D10.RMNP.DP1.00033,40.275903,-105.545955,2751,-0.077,2014-01-20
NEON.D10.STER.DP1.00033,40.461894,-103.02929,1366,-0.35,2014-01-20
NEON.D11.BLUE.DP1.20002,34.444218,-96.624201,288,-0.146,2014-01-20
NEON.D11.CLBJ.DP1.00033,33.40123,-97.57,279,0.068,2014-01-20
NEON.D11.OAES.DP1.00033,35.41059,-99.05879,520,-0.842,2014-01-20
NEON.D11.PRIN.DP1.20002,33.37859,-97.78226,255,-0.047,2014-01-20
NEON.D12.BLDE.DP1.20002,44.95011,-110.58715,2035,-0.102,2014-01-20
NEON.D12.YELL.DP1.00033,44.95348,-110.53914,2130,0.033,2014-01-20
NEON.D13.COMO.DP1.20002,40.03496,-105.54487,3036,-0.126,2014-01-20
NEON.D13.MOAB.DP1.00033,38.24833,-109.38827,1803,0.449,2014-01-20
NEON.D13.NIWO.DP1.00033,40.05425,-105.58237,3493,0.338,2014-01-20
NEON.D13.WLOU.DP1.20002,39.891366,-105.915395,2920,0.424,2014-01-20
NEON.D14.JORN.DP1.00033,32.59068,-106.84254,1321,-0.64,2014-01-20
NEON.D14.SRER.DP1.00033,31.91068,-110.83549,999,-0.125,2014-01-20
NEON.D14.SYCA.DP1.20002,33.749057,-111.506903,644,-0.435,2014-01-20
NEON.D15.ONAQ.DP1.00033,40.177599,-112.452452,1655,0.174,2014-01-20
NEON.D15.REDB.DP1.20002,40.783934,-111.797887,1696,-0.705,2014-01-20
NEON.D16.ABBY.DP1.00033,45.76243,-122.33033,390,-1.514,2014-01-20
NEON.D16.MART.DP1.20002,45.791248,-121.931959,354,-1.371,2014-01-20
NEON.D16.MCRA.DP1.20002,44.259598,-122.165554,880,-1.674,2014-01-20
NEON.D16.WREF.DP1.00033,45.82049,-121.95191,368,-1.432,2014-01-20
NEON.D17.BIGC.DP1.20002,37.059719,-119.257549,1133,-1.424,2014-01-20
NEON.D17.SJER.DP1.00033,37.10878,-119.73228,398,-1.58,2014-01-20
NEON.D17.SOAP.DP1.00033,37.03337,-119.26219,1210,-1.427,2014-01-20
NEON.D17.TEAK.DP1.00033,37.00583,-119.00602,2149,-1.433,2014-01-20
NEON.D17.TECR.DP1.20002,36.955931,-119.027363,2053,-1.438,2014-01-20
NEON.D18.BARR.DP1.00033,71.28241,-156.61936,7,-9999.0,2014-01-20
NEON.D18.OKSR.DP1.20002,68.669753,-149.143018,773,-9999.0,2014-01-20
NEON.D18.TOOK.DP1.20002,68.629562,-149.610509,715,-9999.0,2014-01-20
NEON.D18.TOOL.DP1.00033,68.66109,-149.37047,827,-9999.0,2014-01-20
NEON.D19.BONA.DP1.00033,65.15401,-147.50258,233,-9999.0,2014-01-20
NEON.D19.CARI.DP1.20002,65.15306,-147.50246,229,-9999.0,2014-01-20
NEON.D19.DEJU.DP1.00033,63.88112,-145.75136,504,-9999.0,2014-01-20
NEON.D19.HEAL.DP1.00033,63.87569,-149.21334,409,-9999.0,2014-01-20
NEON.D20.PUUM.DP1.00033,19.55309,-155.31731,1683,-9999.0,2014-01-20
nevcansnk3a,39.0099,-114.3095,3063,-0.059,2014-01-20
nevcanspg1a,38.9253,-114.4082,1792,0.098,2014-01-20
nevcanspg2a,38.8921,-114.3521,2203,-0.05,2014-01-20
nevcanspg3a,38.8898,-114.3314,2820,-0.194,2014-01-20
nevcanspg4a,38.9061,-114.3089,3360,-0.194,2014-01-20
ninemileprairie,40.86801886,-96.82208066,381,-0.787,2014-01-20
nist,39.139,-77.2125,100,0.328,2014-01-20
niwot3,40.03286358,-105.5469702,3050,-0.126,2014-01-20
niwot5,40.03286358,-105.5469702,2993,-0.126,2014-01-20
northattleboroma,41.98369,-71.31056,60,-0.301,2014-01-20
northinletsaltmarsh,33.3455,-79.1957,1,0.15,2014-01-20
oakville,47.899334,-97.316139,268,-0.7,2014-01-20
oregonMP,44.4523,-121.5574,1253,-1.496,2014-01-20
oregonYP,44.32384,-121.605993,977,-1.376,2014-01-20
oregonYPbud,44.3238,-121.606,977,-1.376,2014-01-20
othshardwood,44.934805,-68.6655,41,0.559,2014-01-20
othssoftwood,44.934527,-68.664888,41,0.559,2014-01-20
pace,37.9229,-78.2739,100,0.734,2014-01-20
parkschoolbuffalo,42.9637,-78.7834,205,1.21,2014-01-20
piedmontalpasture2,33.8875,-85.6935,238,1.075,2014-01-20
portal,31.9385,-109.0823,1330,-0.553,2014-01-20
proctor,44.525,-72.866,403,0.264,2014-01-20
readingma,42.5304,-71.1272,100,-0.534,2014-01-20
robinson,37.4671,-83.1576,483,1.378,2014-01-20
robinson2,37.4671,-83.1576,483,1.378,2014-01-20
rosemountcons,44.6946,-93.0578,283,-0.591,2014-01-20
rosemountconv,44.691,-93.0576,283,-0.591,2014-01-20
rosemountnprs,44.6781,-93.0723,274,-0.572,2014-01-20
russellsage,32.456961,-91.974322,20,-0.163,2014-01-20
sagehen,39.4315,-120.2398,1934,-1.48,2014-01-20
sagehen2,39.4307,-120.2407,1937,-1.48,2014-01-20
sagehen3,39.4311,-120.2405,1935,-1.48,2014-01-20
sanford,42.726777,-84.464482,268,0.666,2014-01-20
santacruz1,36.9741,-122.0308,11,-1.697,2014-01-20
santacruz2,36.9741,-122.0308,11,-1.697,2014-01-20
santaluciapreserve1,36.5265,-121.8682,500,-1.385,2014-01-20
santaluciapreserve2,36.5265,-121.8682,500,-1.385,2014-01-20
segaarboretum10,35.16209,-111.73151,2170,-0.425,2014-01-20
segaarboretum2,35.16209,-111.73151,2170,-0.425,2014-01-20
segaarboretum3,35.16209,-111.73151,2170,-0.425,2014-01-20
segaarboretum4,35.16214,-111.73153,2170,-0.425,2014-01-20
segaarboretum6,35.16209,-111.73151,2170,-0.425,2014-01-20
segaarboretum9,35.16222,-111.73158,2170,-0.425,2014-01-20
segaarboretumforest,35.1613,-111.7359,2173,-0.425,2014-01-20
segaarboretummeadow,35.1621,-111.7316,2157,-0.425,2014-01-20
segablackpoint,35.6814,-111.4754,1566,0.38,2014-01-20
segabluechute,35.5876,-111.9716,1930,-0.529,2014-01-20
segabluechute1,35.58759,-111.97115,1931,-0.529,2014-01-20
segabluechute2,35.58759,-111.97115,1931,-0.529,2014-01-20
segabluechute4,35.58759,-111.9716,1931,-0.529,2014-01-20
segabluechute6,35.58759,-111.97115,1931,-0.529,2014-01-20
segabluechute7,35.58759,-111.97115,1931,-0.529,2014-01-20
segabluechute8,35.58759,-111.97115,1931,-0.529,2014-01-20
segabradshaw,34.9109,-111.9285,1402,-0.384,2014-01-20
segahartprairie,35.3536,-111.7324,2585,-0.531,2014-01-20
segalcr,35.7231,-111.321,1275,0.274,2014-01-20
segalcr2,35.7069,-111.36,1495,0.322,2014-01-20
segalittlemountain,36.5865,-112.3634,2276,-0.45,2014-01-20
segasoapcreek,36.751,-111.716,1233,0.631,2014-01-20
segawhitepockets,36.6081,-112.4082,2057,-0.416,2014-01-20
sevilletagrass,34.360444,-106.700186,1600,-0.418,2014-01-20
sevilletanewgrass,34.358,-106.6799,1603,-0.448,2014-01-20
sevilletashrub,34.334956,-106.744469,1603,-0.417,2014-01-20
sevMRME10L,34.3438,-106.7269,1604,-0.399,2014-01-20
sevMRME11C,34.3438,-106.7268,1604,-0.399,2014-01-20
sevMRME1S,34.3442,-106.7272,1604,-0.399,2014-01-20
sevpjrm12,34.38615,-106.52621,1905,-0.5,2014-01-20
sevpjrm13,34.38631,-106.52791,1914,-0.5,2014-01-20
shalehillsczo,40.6658,-77.9041,310,-0.431,2014-01-20
shenandoah,38.6167,-78.35,1037,0.091,2014-01-20
silverton,44.9986,-122.6948,347,-1.855,2014-01-20
siwetland,38.0369,-121.7546,-5,-1.713,2014-01-20
slatefloodplain,38.9094,-107.0282,2725,-0.128,2014-01-20
snodgrass1,38.92619636,-106.9714376,3023,-0.033,2014-01-20
snodgrass2,38.92619636,-106.9714376,3023,-0.033,2014-01-20
snodgrass3,38.92839978,-106.9781196,3141,-0.033,2014-01-20
snodgrass4,38.92839978,-106.9781196,3141,-0.033,2014-01-20
snodgrass5,38.92744789,-106.9785209,3152,-0.033,2014-01-20
snodgrass6,38.92744789,-106.9785209,3152,-0.033,2014-01-20
snodgrass7,38.93142134,-106.9852388,3363,-0.033,2014-01-20
snodgrass8,38.93142134,-106.9852388,3363,-0.033,2014-01-20
southerngreatplains,36.6058,-97.4888,314,-0.664,2014-01-20
springfieldma,42.135162,-72.585972,56,0.145,2014-01-20
spruceA0EMI,47.5049,-93.4541,413,0.082,2014-01-20
spruceA0EMT,47.5049,-93.4541,418,0.082,2014-01-20
spruceA0P07,47.50493,-93.45314,413,0.082,2014-01-20
spruceA0P07SH,47.50493,-93.45314,413,0.082,2014-01-20
spruceA0P21,47.50625,-93.45275,413,0.082,2014-01-20
spruceA0P21SH,47.50625,-93.45275,413,0.082,2014-01-20
srg,31.7894,-110.8276,1281,-0.488,2014-01-20
srm,31.8214,-110.8661,1116,-0.176,2014-01-20
statenrice1,38.1235,-121.549,-5,-1.701,2014-01-20
stjones,39.088222,-75.43725,2,0.112,2014-01-20
sweetbriar,37.57341,-79.08482,242,0.823,2014-01-20
sweetbriarclearcut,37.5753,-79.0872,242,0.823,2014-01-20
sweetbriargrass,37.5605,-79.0884,240,0.823,2014-01-20
sylvania,46.242,-89.348,540,0.603,2014-01-20
templefieldstation1,40.1667,-75.1894,105,0.071,2014-01-20
tfforest,43.1086,-70.9505,23,-0.762,2014-01-20
tidmarshplymouth,41.9157,-70.5754,9,0.031,2014-01-20
tonzi,38.43091667,-120.9658861,177,-1.784,2014-01-20
townsenddemeadow,39.3917,-75.6281,11,0.112,2014-01-20
tsubiology,36.1671,-86.8295,164,0.219,2014-01-20
tsubiology2,36.1171,-86.8295,100,0.135,2014-01-20
tuckerprairie,38.9491,-91.9952,274,-0.527,2014-01-20
twodafo,29.1658,-95.829,16,-0.215,2014-01-20
tworfaa,31.4777,-96.8882,167,0.326,2014-01-20
tworfpr,31.4802,-96.8826,162,0.221,2014-01-20
tworfta,31.4693,-96.8864,173,0.326,2014-01-20
twosfpr,30.6176,-97.2938,157,0.364,2014-01-20
ucnrsanzaborrego,33.2401,-116.3886,214,-0.834,2014-01-20
ufona,27.3836,-81.950856,25,-1.049,2014-01-20
uiefmaize2,40.0628,-88.1961,224,-0.56,2014-01-20
uiefmiscanthus2,40.0628,-88.1984,221,-0.56,2014-01-20
uiefprairie2,40.0637,-88.1973,224,-0.56,2014-01-20
uiefsorghum,40.0065,-88.2032,224,-0.625,2014-01-20
uiefswitchgrass2,40.0637,-88.1973,224,-0.56,2014-01-20
umichbiological,45.55984,-84.71382,230,1.875,2014-01-20
umichbiological2,45.5625,-84.6976,240,1.813,2014-01-20
unca,35.5951,-82.5515,650,0.977,2014-01-20
usgseros,43.7343,-96.6234,448,-0.06,2014-01-20
usmpj,34.43845,-106.2543606,2126,-0.341,2014-01-20
usof5,35.7297,-90.0406,70,-0.347,2014-01-20
usof6,35.7333,-90.0403,70,-0.347,2014-01-20
uwmfieldsta,43.38709,-88.0229,265,-0.092,2014-01-20
vaira,38.41328056,-120.9506361,129,-1.784,2014-01-20
vallesburnedconifer,35.8884,-106.5321,3043,-0.504,2014-01-20
vallesmixedconifer,35.9192,-106.6142,2752,-0.442,2014-01-20
vallesponderosapine,35.864,-106.5964,2501,-0.358,2014-01-20
waahila,21.3017,-157.8152,55,-9999.0,2014-01-20
warrenwilson,35.6069,-82.4421,2198,0.966,2014-01-20
willamettepoplar,44.1368,-123.1823,112,-1.934,2014-01-20
willowcreek,45.805986,-90.07912,521,0.387,2014-01-20
windriver,45.8212833,-121.9520833,371,-1.432,2014-01-20
windriverunderstory,45.8212833,-121.9520833,371,-1.432,2014-01-20
wolfesneckfarm,43.8305,-70.0715,16,0.043,2014-01-20
worcester,42.2697,-71.8428,185,-0.386,2014-01-20
alligatorriver,35.7879,-75.9038,1,1.07,2014-01-27
arbutuslake,43.98207,-74.23322,535,0.139,2014-01-27
arbutuslakeinlet,43.99336,-74.24527,527,0.139,2014-01-27
archboldavir,27.176064,-81.21958,8,-1.045,2014-01-27
archboldavirx,27.166627,-81.219828,8,-1.045,2014-01-27
archboldbahia,27.1656,-81.216112,8,-1.045,2014-01-27
archboldpnot,27.187948,-81.200345,9,-1.045,2014-01-27
archboldpnotx,27.180677,-81.20068,9,-1.045,2014-01-27
arkansascornsoy,34.416,-91.6723,61,0.235,2014-01-27
arsbrooks10,41.9749,-93.6905,312,-0.673,2014-01-27
arsbrooks11,41.9744,-93.6937,313,-0.673,2014-01-27
arscolesnorth,42.4884,-93.5225,356,-0.485,2014-01-27
arscolessouth,42.4816,-93.5235,352,-0.485,2014-01-27
arsgacp1,31.5109,-83.6179,96,-0.137,2014-01-27
arsgacp3,31.7563,-83.7516,139,-0.101,2014-01-27
arsgacp4,31.7093,-83.7287,127,-0.139,2014-01-27
arsgreatbasinltar098,43.1675,-116.7132,1426,-1.208,2014-01-27
arsgreatbasinltar117,43.1432,-116.7357,1625,-1.371,2014-01-27
arsgreatbasinltar177,43.0645,-116.7484,2114,-1.392,2014-01-27
arsltarmdcr,39.0587,-75.8513,17,0.691,2014-01-27
arsltarmdcrnatw,39.0575,-75.7531,16,0.635,2014-01-27
arsltarmdcrprcw,39.0667,-75.7609,17,0.635,2014-01-27
arsltarmdcrresw,39.0549,-75.7532,16,0.635,2014-01-27
arsltarucbec1,40.7537,-78.0057,400,-0.257,2014-01-27
arsltarucbec2,40.7558,-77.9999,396,-0.257,2014-01-27
arsmnswanlake1,45.684508,-95.799703,370,-0.91,2014-01-27
arsmorris1,45.6167,-96.1269,341,-0.805,2014-01-27
arsmorris2,45.627,-96.127,338,-0.805,2014-01-27
arsmorris3,45.6091,-96.1265,342,-0.805,2014-01-27
arsope3ltar,39.0309,-76.8442,41,0.611,2014-01-27
ashburnham,42.6029,-71.926,292,-0.269,2014-01-27
asuhighlands,36.2076,-81.7032,1016,0.406,2014-01-27
austincary,29.738,-82.2188,44,1.545,2014-01-27
barrow,71.28007453,-156.6091492,5,-9999.0,2014-01-27
bartlettir,44.0646,-71.2881,268,0.5,2014-01-27
bigtraillake,64.9194,-147.822,190,-9999.0,2014-01-27
bitterbrush001,48.154,-119.9456,667,-1.977,2014-01-27
blackrockforest,41.3974,-74.0239,427,-0.288,2014-01-27
bnzblackspruce,64.6963,-148.3235,102,-9999.0,2014-01-27
bnzrichfen,64.70134,-148.31195,97,-9999.0,2014-01-27
bnzthermokarstbog,64.6955,-148.3208,104,-9999.0,2014-01-27
boglakepeatland,47.5051,-93.4893,416,0.263,2014-01-27
bostoncommon,42.355912,-71.064145,10,0.048,2014-01-27
bostonu,42.35041,-71.10438,10,0.031,2014-01-27
bouldinalfalfa,38.0985,-121.4993,-5,-1.79,2014-01-27
bouldincorn,38.109,-121.535,-5,-1.796,2014-01-27
bozeman,45.783056,-110.777778,2332,0.027,2014-01-27
brackishimpoundment,33.2015,-79.2973,1,-0.136,2014-01-27
bullshoals,36.562833,-93.06663,260,-0.523,2014-01-27
burnssagebrush,43.4712,-119.6909,1398,-1.03,2014-01-27
butte,45.95304,-112.47964,1682,-0.586,2014-01-27
butterice,39.5793,-121.858,33,-2.026,2014-01-27
cafboydnorthltar01,46.755104,-117.126052,795,-1.139,2014-01-27
cafboydsouthltar01,46.751809,-117.128502,795,-1.139,2014-01-27
cafcookeastltar01,46.78152,-117.0821,794,-1.213,2014-01-27
cafcookwestltar01,46.784037,-117.09083,807,-1.213,2014-01-27
caryinstitute,41.7839,-73.7341,127,-0.012,2014-01-27
centralredwoods1,38.632272,-123.301511,200,-1.701,2014-01-27
centralredwoods2,38.632272,-123.301511,200,-1.701,2014-01-27
cperagm,40.8402,-104.7672,1644,-0.432,2014-01-27
cperheavy,40.8153,-104.7386,1652,-0.447,2014-01-27
cpertgm,40.833,-104.76,1644,-0.42,2014-01-27
cperuvb,40.8055764,-104.7558542,1641,-0.42,2014-01-27
cuny,40.8162,-73.9507,42,0.196,2014-01-27
doverdesaltmarsh,39.0888,-75.4368,0,0.482,2014-01-27
downerwoods,43.07938,-87.88076,213,-0.233,2014-01-27
dukehw,35.973583,-79.100371,400,0.414,2014-01-27
ecb1,41.5348,-84.8068,275,-0.315,2014-01-27
ecb2,41.5321,-84.808,275,-0.315,2014-01-27
ecb4,41.1796,-83.0604,240,0.114,2014-01-27
elverde,18.320654,-65.8199,312,-9999.0,2014-01-27
flagstaff,35.17961521,-111.6049032,6983,-0.433,2014-01-27
flagstaff2,35.179225,-111.604506,6983,-0.433,2014-01-27
flagstaffchimneysprings,35.257296,-111.678542,2250,-0.589,2014-01-27
forbes,39.232,-121.2972,360,-1.957,2014-01-27
fortpaynealpasture1,34.3824,-85.6428,405,0.371,2014-01-27
fortpaynealpasture2,34.3824,-85.6447,403,0.371,2014-01-27
gcesapelo,31.4440444,-81.283528,0,0.779,2014-01-27
gilberttract,38.0015,-121.6691,6,-1.795,2014-01-27
glees,41.3644,-106.2394,3150,0.409,2014-01-27
glennorganicrice,39.6805,-122.0026,2,-2.11,2014-01-27
glennrice,39.5944,-122.0253,36,-2.095,2014-01-27
goodnow,43.96018,-74.20994,820,0.086,2014-01-27
goodwater,39.22848,-92.11936,264,-0.819,2014-01-27
goodwaterbau,39.23115,-92.15216,274,-0.836,2014-01-27
grandteton,43.915017,-110.578036,2054,-0.634,2014-01-27
grca1pj,36.0241,-112.2211,1978,-0.625,2014-01-27
greenridge1,39.6905,-78.4067,285,-0.262,2014-01-27
harvard,42.5378,-72.1715,340,-0.083,2014-01-27
harvardbarn,42.53532,-72.1899,350,-0.036,2014-01-27
harvardbarn2,42.53532,-72.1899,350,-0.036,2014-01-27
harvardems2,42.5378,-72.1715,340,-0.083,2014-01-27
harvardfarmnorth,42.520465,-72.182242,355,-0.036,2014-01-27
harvardfarmsouth,42.522466,-72.182339,355,-0.036,2014-01-27
harvardgarden,42.5291,-72.1863,335,-0.036,2014-01-27
harvardhemlock,42.539,-72.18,355,-0.036,2014-01-27
harvardhemlock2,42.539407,-72.177976,355,-0.083,2014-01-27
harvardlph,42.542,-72.185,380,-0.036,2014-01-27
hawbeckereddy,40.6608,-77.848849,310,-0.382,2014-01-27
hobcawclearcutlongleaf,33.3486,-79.232,4,-0.049,2014-01-27
hobcawmaturelongleaf,33.3242,-79.2439,8,-0.049,2014-01-27
homesteadsprings,37.2009,-92.9937,452,-0.758,2014-01-27
howland1,45.2041,-68.7403,80,0.702,2014-01-27
howland2,45.2128,-68.7418,79,0.702,2014-01-27
hubbardbrook,43.9438,-71.701,253,0.305,2014-01-27
humnokericea,34.585192,-91.751684,61,0.309,2014-01-27
humnokericec,34.588853,-91.7516729,70,0.309,2014-01-27
huyckpreserveny,42.5266,-74.1587,478,-0.121,2014-01-27
hwmo1,20.0212,-155.7331,585,-9999.0,2014-01-27
hwmo2,19.9766,-155.8298,12,-9999.0,2014-01-27
hwmo5,20.1117,-155.8151,635,-9999.0,2014-01-27
ibp,32.589,-106.847,1325,-0.527,2014-01-27
imcrkfen,68.60583,-149.31101,900,-9999.0,2014-01-27
imcrkridge0,68.60681,-149.2958,951,-9999.0,2014-01-27
imcrkridge1,68.60681,-149.2958,951,-9999.0,2014-01-27
imcrktussock,68.60633,-149.30408,918,-9999.0,2014-01-27
jasperridge,37.402028,-122.22104,197,-1.899,2014-01-27
jerbajada,32.57992,-106.633793,1402,-0.59,2014-01-27
jergrassland,32.5833,-106.8333,1331,-0.527,2014-01-27
jernort,32.619,-106.788,1328,-0.543,2014-01-27
jernovel,32.6335,-106.8334,1324,-0.513,2014-01-27
jernwern,32.6271,-106.7387,1325,-0.576,2014-01-27
jersand,32.515,-106.798,1363,-0.574,2014-01-27
jershrubland,32.6502,-106.8334,1328,-0.471,2014-01-27
junipersavannah,34.4254,-105.8615,1931,-0.282,2014-01-27
kamuela,20.015008,-155.661326,850,-9999.0,2014-01-27
kamuela2,20.014959,-155.661139,830,-9999.0,2014-01-27
kansas,39.0561,-95.1907,333,-1.206,2014-01-27
kelloggcorn,42.437536,-85.3225472,288,-0.246,2014-01-27
kempnrs,45.83992,-89.67755,539,0.551,2014-01-27
kendall,31.73652,-109.94185,1529,-0.494,2014-01-27
konza,39.0824,-96.5603,443,-1.003,2014-01-27
laupahoehoe,19.9322,-155.2912,1145,-9999.0,2014-01-27
ldeocam,41.0039,-73.9053,121,0.304,2014-01-27
lostcreek,46.0827,-89.9792,480,0.507,2014-01-27
luckyhills,31.743896,-110.052023,1366,-0.514,2014-01-27
macleish,42.4484,-72.6804,251,-0.019,2014-01-27
macordway,44.8106,-93.0272,264,-0.537,2014-01-27
mandanh5,46.775423,-100.95109,593,-0.15,2014-01-27
mandani2,46.7614,-100.9257,590,-0.183,2014-01-27
manilacotton,35.8872,-90.1371,73,-0.322,2014-01-27
marena,36.06434,-97.21271,327,-1.039,2014-01-27
mead1,41.1651,-96.4766,361,-1.188,2014-01-27
mead2,41.1649,-96.4701,362,-1.188,2014-01-27
mead3,41.1797,-96.4397,363,-1.171,2014-01-27
meadpasture,41.1447,-96.4616,356,-1.159,2014-01-27
meadpasturese,41.1447,-96.4616,356,-1.159,2014-01-27
meadpasturesw,41.1447,-96.4616,356,-1.159,2014-01-27
missouriozarks,38.7441,-92.2,219,-1.065,2014-01-27
morganmonroe,39.3231,-86.4131,275,0.928,2014-01-27
morganmonroe2,39.3231,-86.4131,275,0.928,2014-01-27
nahuku,19.415187,-155.238383,1202,-9999.0,2014-01-27
nationalelkrefuge,43.488931,-110.737824,1899,-1.109,2014-01-27
ncssm,36.018446,-78.92075,175,0.341,2014-01-27
NEON.D01.BART.DP1.00033,44.063869,-71.287375,285,0.5,2014-01-27
NEON.D01.HARV.DP1.00033,42.536911,-72.17265,359,-0.083,2014-01-27
NEON.D01.HOPB.DP1.20002,42.471786,-72.329627,203,-0.236,2014-01-27
NEON.D02.BLAN.DP1.00033,39.033698,-78.041788,162,0.555,2014-01-27
NEON.D02.LEWI.DP1.20002,39.09564,-77.98322,152,0.544,2014-01-27
NEON.D02.POSE.DP1.20002,38.89332,-78.14678,293,0.379,2014-01-27
NEON.D02.SCBI.DP1.00033,38.892925,-78.139494,364,0.401,2014-01-27
NEON.D02.SERC.DP1.00033,38.89008,-76.56001,30,0.839,2014-01-27
NEON.D03.BARC.DP1.20002,29.676473,-82.009089,35,1.562,2014-01-27
NEON.D03.DSNY.DP1.00033,28.12505,-81.43619,22,-0.556,2014-01-27
NEON.D03.FLNT.DP1.20002,31.185424,-84.437403,27,-0.151,2014-01-27
NEON.D03.JERC.DP1.00033,31.194839,-84.468623,58,-0.184,2014-01-27
NEON.D03.OSBS.DP1.00033,29.689282,-81.993431,56,1.497,2014-01-27
NEON.D03.SUGG.DP1.20002,29.687054,-82.016171,28,1.497,2014-01-27
NEON.D04.CUPE.DP1.20002,18.11352,-66.98676,164,-9999.0,2014-01-27
NEON.D04.GUAN.DP1.00033,17.96955,-66.8687,136,-9999.0,2014-01-27
NEON.D04.GUIL.DP1.20002,18.1741,-66.79851,564,-9999.0,2014-01-27
NEON.D04.LAJA.DP1.00033,18.021261,-67.076889,22,-9999.0,2014-01-27
NEON.D05.CRAM.DP1.20002,46.21111,-89.47825,518,0.669,2014-01-27
NEON.D05.LIRO.DP1.20002,45.998269,-89.704767,495,0.509,2014-01-27
NEON.D05.STEI.DP1.00033,45.50894,-89.58637,476,0.449,2014-01-27
NEON.D05.TREE.DP1.00033,45.49373,-89.58572,474,0.449,2014-01-27
NEON.D05.UNDE.DP1.00033,46.23391,-89.537254,529,0.637,2014-01-27
NEON.D06.KING.DP1.20002,39.10506,-96.60336,339,-1.026,2014-01-27
NEON.D06.KONA.DP1.00033,39.110446,-96.612935,443,-1.026,2014-01-27
NEON.D06.KONZ.DP1.00033,39.10077,-96.56309,415,-1.003,2014-01-27
NEON.D06.MCDI.DP1.20002,38.94428,-96.44197,376,-1.033,2014-01-27
NEON.D06.UKFS.DP1.00033,39.040431,-95.19215,330,-1.206,2014-01-27
NEON.D07.GRSM.DP1.00033,35.68896,-83.50195,589,0.946,2014-01-27
NEON.D07.LECO.DP1.20002,35.69043,-83.50379,578,0.946,2014-01-27
NEON.D07.MLBS.DP1.00033,37.378314,-80.524847,1177,0.41,2014-01-27
NEON.D07.ORNL.DP1.00033,35.964128,-84.282588,351,0.41,2014-01-27
NEON.D07.WALK.DP1.20002,35.95947,-84.28041,274,0.419,2014-01-27
NEON.D08.BLWA.DP1.20002,32.541529,-87.798151,23,0.35,2014-01-27
NEON.D08.DELA.DP1.00033,32.541727,-87.803877,36,0.35,2014-01-27
NEON.D08.LENO.DP1.00033,31.85388,-88.16122,10,-0.324,2014-01-27
NEON.D08.MAYF.DP1.20002,32.959657,-87.408128,93,0.245,2014-01-27
NEON.D08.TALL.DP1.00033,32.95047,-87.393259,167,0.245,2014-01-27
NEON.D08.TOMB.DP1.20002,31.853431,-88.158872,10,-0.324,2014-01-27
NEON.D09.DCFS.DP1.00033,47.161647,-99.106556,574,-0.307,2014-01-27
NEON.D09.NOGP.DP1.00033,46.76972,-100.91535,589,-0.183,2014-01-27
NEON.D09.PRLA.DP1.20002,47.15909,-99.11388,563,-0.296,2014-01-27
NEON.D09.PRPO.DP1.20002,47.12999,-99.250551,587,-0.213,2014-01-27
NEON.D09.WOOD.DP1.00033,47.1282,-99.241334,585,-0.213,2014-01-27
NEON.D10.ARIK.DP1.20002,39.758246,-102.447103,1188,-0.808,2014-01-27
NEON.D10.CPER.DP1.00033,40.81553,-104.7456,1600,-0.42,2014-01-27
NEON.D10.HQTW.DP1.00033,40.016704,-105.245612,1601,-0.889,2014-01-27
NEON.D10.RMNP.DP1.00033,40.275903,-105.545955,2751,-0.549,2014-01-27
NEON.D10.STER.DP1.00033,40.461894,-103.02929,1366,-0.418,2014-01-27
NEON.D11.BLUE.DP1.20002,34.444218,-96.624201,288,-0.361,2014-01-27
NEON.D11.CLBJ.DP1.00033,33.40123,-97.57,279,-0.227,2014-01-27
NEON.D11.OAES.DP1.00033,35.41059,-99.05879,520,-0.971,2014-01-27
NEON.D11.PRIN.DP1.20002,33.37859,-97.78226,255,-0.289,2014-01-27
NEON.D12.BLDE.DP1.20002,44.95011,-110.58715,2035,-0.347,2014-01-27
NEON.D12.YELL.DP1.00033,44.95348,-110.53914,2130,-0.206,2014-01-27
NEON.D13.COMO.DP1.20002,40.03496,-105.54487,3036,-0.578,2014-01-27
NEON.D13.MOAB.DP1.00033,38.24833,-109.38827,1803,0.33,2014-01-27
NEON.D13.NIWO.DP1.00033,40.05425,-105.58237,3493,-0.05,2014-01-27
NEON.D13.WLOU.DP1.20002,39.891366,-105.915395,2920,0.053,2014-01-27
NEON.D14.JORN.DP1.00033,32.59068,-106.84254,1321,-0.527,2014-01-27
NEON.D14.SRER.DP1.00033,31.91068,-110.83549,999,-0.223,2014-01-27
NEON.D14.SYCA.DP1.20002,33.749057,-111.506903,644,-0.498,2014-01-27
NEON.D15.ONAQ.DP1.00033,40.177599,-112.452452,1655,0.123,2014-01-27
NEON.D15.REDB.DP1.20002,40.783934,-111.797887,1696,-0.923,2014-01-27
NEON.D16.ABBY.DP1.00033,45.76243,-122.33033,390,-1.505,2014-01-27
NEON.D16.MART.DP1.20002,45.791248,-121.931959,354,-1.348,2014-01-27
NEON.D16.MCRA.DP1.20002,44.259598,-122.165554,880,-1.661,2014-01-27
NEON.D16.WREF.DP1.00033,45.82049,-121.95191,368,-1.41,2014-01-27
NEON.D17.BIGC.DP1.20002,37.059719,-119.257549,1133,-1.628,2014-01-27
NEON.D17.SJER.DP1.00033,37.10878,-119.73228,398,-1.826,2014-01-27
NEON.D17.SOAP.DP1.00033,37.03337,-119.26219,1210,-1.642,2014-01-27
NEON.D17.TEAK.DP1.00033,37.00583,-119.00602,2149,-1.613,2014-01-27
NEON.D17.TECR.DP1.20002,36.955931,-119.027363,2053,-1.642,2014-01-27
NEON.D18.BARR.DP1.00033,71.28241,-156.61936,7,-9999.0,2014-01-27
NEON.D18.OKSR.DP1.20002,68.669753,-149.143018,773,-9999.0,2014-01-27
NEON.D18.TOOK.DP1.20002,68.629562,-149.610509,715,-9999.0,2014-01-27
NEON.D18.TOOL.DP1.00033,68.66109,-149.37047,827,-9999.0,2014-01-27
NEON.D19.BONA.DP1.00033,65.15401,-147.50258,233,-9999.0,2014-01-27
NEON.D19.CARI.DP1.20002,65.15306,-147.50246,229,-9999.0,2014-01-27
NEON.D19.DEJU.DP1.00033,63.88112,-145.75136,504,-9999.0,2014-01-27
NEON.D19.HEAL.DP1.00033,63.87569,-149.21334,409,-9999.0,2014-01-27
NEON.D20.PUUM.DP1.00033,19.55309,-155.31731,1683,-9999.0,2014-01-27
nevcansnk3a,39.0099,-114.3095,3063,-0.488,2014-01-27
nevcanspg1a,38.9253,-114.4082,1792,-0.171,2014-01-27
nevcanspg2a,38.8921,-114.3521,2203,-0.405,2014-01-27
nevcanspg3a,38.8898,-114.3314,2820,-0.634,2014-01-27
nevcanspg4a,38.9061,-114.3089,3360,-0.634,2014-01-27
ninemileprairie,40.86801886,-96.82208066,381,-1.025,2014-01-27
nist,39.139,-77.2125,100,0.705,2014-01-27
niwot3,40.03286358,-105.5469702,3050,-0.578,2014-01-27
niwot5,40.03286358,-105.5469702,2993,-0.578,2014-01-27
northattleboroma,41.98369,-71.31056,60,0.123,2014-01-27
northinletsaltmarsh,33.3455,-79.1957,1,-0.011,2014-01-27
oakville,47.899334,-97.316139,268,-0.694,2014-01-27
oregonMP,44.4523,-121.5574,1253,-1.548,2014-01-27
oregonYP,44.32384,-121.605993,977,-1.441,2014-01-27
oregonYPbud,44.3238,-121.606,977,-1.441,2014-01-27
othshardwood,44.934805,-68.6655,41,0.543,2014-01-27
othssoftwood,44.934527,-68.664888,41,0.543,2014-01-27
pace,37.9229,-78.2739,100,0.881,2014-01-27
parkschoolbuffalo,42.9637,-78.7834,205,0.589,2014-01-27
piedmontalpasture2,33.8875,-85.6935,238,0.925,2014-01-27
portal,31.9385,-109.0823,1330,-0.583,2014-01-27
proctor,44.525,-72.866,403,0.361,2014-01-27
readingma,42.5304,-71.1272,100,-0.203,2014-01-27
robinson,37.4671,-83.1576,483,0.898,2014-01-27
robinson2,37.4671,-83.1576,483,0.898,2014-01-27
rosemountcons,44.6946,-93.0578,283,-0.595,2014-01-27
rosemountconv,44.691,-93.0576,283,-0.595,2014-01-27
rosemountnprs,44.6781,-93.0723,274,-0.559,2014-01-27
russellsage,32.456961,-91.974322,20,-0.984,2014-01-27
sagehen,39.4315,-120.2398,1934,-1.643,2014-01-27
sagehen2,39.4307,-120.2407,1937,-1.643,2014-01-27
sagehen3,39.4311,-120.2405,1935,-1.643,2014-01-27
sanford,42.726777,-84.464482,268,0.109,2014-01-27
santacruz1,36.9741,-122.0308,11,-1.812,2014-01-27
santacruz2,36.9741,-122.0308,11,-1.812,2014-01-27
santaluciapreserve1,36.5265,-121.8682,500,-1.603,2014-01-27
santaluciapreserve2,36.5265,-121.8682,500,-1.603,2014-01-27
segaarboretum10,35.16209,-111.73151,2170,-0.526,2014-01-27
segaarboretum2,35.16209,-111.73151,2170,-0.526,2014-01-27
segaarboretum3,35.16209,-111.73151,2170,-0.526,2014-01-27
segaarboretum4,35.16214,-111.73153,2170,-0.526,2014-01-27
segaarboretum6,35.16209,-111.73151,2170,-0.526,2014-01-27
segaarboretum9,35.16222,-111.73158,2170,-0.526,2014-01-27
segaarboretumforest,35.1613,-111.7359,2173,-0.526,2014-01-27
segaarboretummeadow,35.1621,-111.7316,2157,-0.526,2014-01-27
segablackpoint,35.6814,-111.4754,1566,0.477,2014-01-27
segabluechute,35.5876,-111.9716,1930,-0.649,2014-01-27
segabluechute1,35.58759,-111.97115,1931,-0.649,2014-01-27
segabluechute2,35.58759,-111.97115,1931,-0.649,2014-01-27
segabluechute4,35.58759,-111.9716,1931,-0.649,2014-01-27
segabluechute6,35.58759,-111.97115,1931,-0.649,2014-01-27
segabluechute7,35.58759,-111.97115,1931,-0.649,2014-01-27
segabluechute8,35.58759,-111.97115,1931,-0.649,2014-01-27
segabradshaw,34.9109,-111.9285,1402,-0.463,2014-01-27
segahartprairie,35.3536,-111.7324,2585,-0.643,2014-01-27
segalcr,35.7231,-111.321,1275,0.345,2014-01-27
segalcr2,35.7069,-111.36,1495,0.393,2014-01-27
segalittlemountain,36.5865,-112.3634,2276,-0.762,2014-01-27
segasoapcreek,36.751,-111.716,1233,0.627,2014-01-27
segawhitepockets,36.6081,-112.4082,2057,-0.707,2014-01-27
sevilletagrass,34.360444,-106.700186,1600,-0.359,2014-01-27
sevilletanewgrass,34.358,-106.6799,1603,-0.393,2014-01-27
sevilletashrub,34.334956,-106.744469,1603,-0.344,2014-01-27
sevMRME10L,34.3438,-106.7269,1604,-0.334,2014-01-27
sevMRME11C,34.3438,-106.7268,1604,-0.334,2014-01-27
sevMRME1S,34.3442,-106.7272,1604,-0.334,2014-01-27
sevpjrm12,34.38615,-106.52621,1905,-0.471,2014-01-27
sevpjrm13,34.38631,-106.52791,1914,-0.471,2014-01-27
shalehillsczo,40.6658,-77.9041,310,-0.394,2014-01-27
shenandoah,38.6167,-78.35,1037,0.241,2014-01-27
silverton,44.9986,-122.6948,347,-1.814,2014-01-27
siwetland,38.0369,-121.7546,-5,-1.824,2014-01-27
slatefloodplain,38.9094,-107.0282,2725,-0.513,2014-01-27
snodgrass1,38.92619636,-106.9714376,3023,-0.436,2014-01-27
snodgrass2,38.92619636,-106.9714376,3023,-0.436,2014-01-27
snodgrass3,38.92839978,-106.9781196,3141,-0.436,2014-01-27
snodgrass4,38.92839978,-106.9781196,3141,-0.436,2014-01-27
snodgrass5,38.92744789,-106.9785209,3152,-0.436,2014-01-27
snodgrass6,38.92744789,-106.9785209,3152,-0.436,2014-01-27
snodgrass7,38.93142134,-106.9852388,3363,-0.432,2014-01-27
snodgrass8,38.93142134,-106.9852388,3363,-0.432,2014-01-27
southerngreatplains,36.6058,-97.4888,314,-0.92,2014-01-27
springfieldma,42.135162,-72.585972,56,0.324,2014-01-27
spruceA0EMI,47.5049,-93.4541,413,0.297,2014-01-27
spruceA0EMT,47.5049,-93.4541,418,0.297,2014-01-27
spruceA0P07,47.50493,-93.45314,413,0.297,2014-01-27
spruceA0P07SH,47.50493,-93.45314,413,0.297,2014-01-27
spruceA0P21,47.50625,-93.45275,413,0.297,2014-01-27
spruceA0P21SH,47.50625,-93.45275,413,0.297,2014-01-27
srg,31.7894,-110.8276,1281,-0.573,2014-01-27
srm,31.8214,-110.8661,1116,-0.262,2014-01-27
statenrice1,38.1235,-121.549,-5,-1.805,2014-01-27
stjones,39.088222,-75.43725,2,0.482,2014-01-27
sweetbriar,37.57341,-79.08482,242,0.917,2014-01-27
sweetbriarclearcut,37.5753,-79.0872,242,0.917,2014-01-27
sweetbriargrass,37.5605,-79.0884,240,0.917,2014-01-27
sylvania,46.242,-89.348,540,0.677,2014-01-27
templefieldstation1,40.1667,-75.1894,105,0.386,2014-01-27
tfforest,43.1086,-70.9505,23,-0.351,2014-01-27
tidmarshplymouth,41.9157,-70.5754,9,0.434,2014-01-27
tonzi,38.43091667,-120.9658861,177,-1.876,2014-01-27
townsenddemeadow,39.3917,-75.6281,11,0.521,2014-01-27
tsubiology,36.1671,-86.8295,164,-0.116,2014-01-27
tsubiology2,36.1171,-86.8295,100,-0.221,2014-01-27
tuckerprairie,38.9491,-91.9952,274,-1.018,2014-01-27
twodafo,29.1658,-95.829,16,-0.9,2014-01-27
tworfaa,31.4777,-96.8882,167,-0.631,2014-01-27
tworfpr,31.4802,-96.8826,162,-0.63,2014-01-27
tworfta,31.4693,-96.8864,173,-0.631,2014-01-27
twosfpr,30.6176,-97.2938,157,-0.386,2014-01-27
ucnrsanzaborrego,33.2401,-116.3886,214,-0.956,2014-01-27
ufona,27.3836,-81.950856,25,-0.929,2014-01-27
uiefmaize2,40.0628,-88.1961,224,-0.887,2014-01-27
uiefmiscanthus2,40.0628,-88.1984,221,-0.887,2014-01-27
uiefprairie2,40.0637,-88.1973,224,-0.887,2014-01-27
uiefsorghum,40.0065,-88.2032,224,-0.927,2014-01-27
uiefswitchgrass2,40.0637,-88.1973,224,-0.887,2014-01-27
umichbiological,45.55984,-84.71382,230,1.523,2014-01-27
umichbiological2,45.5625,-84.6976,240,1.471,2014-01-27
unca,35.5951,-82.5515,650,0.801,2014-01-27
usgseros,43.7343,-96.6234,448,-0.328,2014-01-27
usmpj,34.43845,-106.2543606,2126,-0.382,2014-01-27
usof5,35.7297,-90.0406,70,-0.498,2014-01-27
usof6,35.7333,-90.0403,70,-0.498,2014-01-27
uwmfieldsta,43.38709,-88.0229,265,-0.499,2014-01-27
vaira,38.41328056,-120.9506361,129,-1.876,2014-01-27
vallesburnedconifer,35.8884,-106.5321,3043,-0.804,2014-01-27
vallesmixedconifer,35.9192,-106.6142,2752,-0.745,2014-01-27
vallesponderosapine,35.864,-106.5964,2501,-0.654,2014-01-27
waahila,21.3017,-157.8152,55,-9999.0,2014-01-27
warrenwilson,35.6069,-82.4421,2198,0.802,2014-01-27
willamettepoplar,44.1368,-123.1823,112,-1.91,2014-01-27
willowcreek,45.805986,-90.07912,521,0.534,2014-01-27
windriver,45.8212833,-121.9520833,371,-1.41,2014-01-27
windriverunderstory,45.8212833,-121.9520833,371,-1.41,2014-01-27
wolfesneckfarm,43.8305,-70.0715,16,0.296,2014-01-27
worcester,42.2697,-71.8428,185,-0.12,2014-01-27
alligatorriver,35.7879,-75.9038,1,1.234,2014-02-03
arbutuslake,43.98207,-74.23322,535,-0.255,2014-02-03
arbutuslakeinlet,43.99336,-74.24527,527,-0.255,2014-02-03
archboldavir,27.176064,-81.21958,8,-0.285,2014-02-03
archboldavirx,27.166627,-81.219828,8,-0.285,2014-02-03
archboldbahia,27.1656,-81.216112,8,-0.285,2014-02-03
archboldpnot,27.187948,-81.200345,9,-0.285,2014-02-03
archboldpnotx,27.180677,-81.20068,9,-0.285,2014-02-03
arkansascornsoy,34.416,-91.6723,61,0.092,2014-02-03
arsbrooks10,41.9749,-93.6905,312,-0.979,2014-02-03
arsbrooks11,41.9744,-93.6937,313,-0.979,2014-02-03
arscolesnorth,42.4884,-93.5225,356,-0.919,2014-02-03
arscolessouth,42.4816,-93.5235,352,-0.919,2014-02-03
arsgacp1,31.5109,-83.6179,96,-0.17,2014-02-03
arsgacp3,31.7563,-83.7516,139,-0.041,2014-02-03
arsgacp4,31.7093,-83.7287,127,-0.109,2014-02-03
arsgreatbasinltar098,43.1675,-116.7132,1426,-1.058,2014-02-03
arsgreatbasinltar117,43.1432,-116.7357,1625,-1.248,2014-02-03
arsgreatbasinltar177,43.0645,-116.7484,2114,-1.321,2014-02-03
arsltarmdcr,39.0587,-75.8513,17,0.803,2014-02-03
arsltarmdcrnatw,39.0575,-75.7531,16,0.698,2014-02-03
arsltarmdcrprcw,39.0667,-75.7609,17,0.698,2014-02-03
arsltarmdcrresw,39.0549,-75.7532,16,0.698,2014-02-03
arsltarucbec1,40.7537,-78.0057,400,-0.401,2014-02-03
arsltarucbec2,40.7558,-77.9999,396,-0.401,2014-02-03
arsmnswanlake1,45.684508,-95.799703,370,-0.672,2014-02-03
arsmorris1,45.6167,-96.1269,341,-0.609,2014-02-03
arsmorris2,45.627,-96.127,338,-0.609,2014-02-03
arsmorris3,45.6091,-96.1265,342,-0.609,2014-02-03
arsope3ltar,39.0309,-76.8442,41,0.734,2014-02-03
ashburnham,42.6029,-71.926,292,-0.354,2014-02-03
asuhighlands,36.2076,-81.7032,1016,0.349,2014-02-03
austincary,29.738,-82.2188,44,1.327,2014-02-03
barrow,71.28007453,-156.6091492,5,-9999.0,2014-02-03
bartlettir,44.0646,-71.2881,268,0.375,2014-02-03
bigtraillake,64.9194,-147.822,190,-9999.0,2014-02-03
bitterbrush001,48.154,-119.9456,667,-2.014,2014-02-03
blackrockforest,41.3974,-74.0239,427,-0.266,2014-02-03
bnzblackspruce,64.6963,-148.3235,102,-9999.0,2014-02-03
bnzrichfen,64.70134,-148.31195,97,-9999.0,2014-02-03
bnzthermokarstbog,64.6955,-148.3208,104,-9999.0,2014-02-03
boglakepeatland,47.5051,-93.4893,416,0.517,2014-02-03
bostoncommon,42.355912,-71.064145,10,-0.028,2014-02-03
bostonu,42.35041,-71.10438,10,-0.046,2014-02-03
bouldinalfalfa,38.0985,-121.4993,-5,-1.791,2014-02-03
bouldincorn,38.109,-121.535,-5,-1.794,2014-02-03
bozeman,45.783056,-110.777778,2332,0.24,2014-02-03
brackishimpoundment,33.2015,-79.2973,1,-0.368,2014-02-03
bullshoals,36.562833,-93.06663,260,-0.99,2014-02-03
burnssagebrush,43.4712,-119.6909,1398,-1.096,2014-02-03
butte,45.95304,-112.47964,1682,-0.568,2014-02-03
butterice,39.5793,-121.858,33,-1.946,2014-02-03
cafboydnorthltar01,46.755104,-117.126052,795,-1.027,2014-02-03
cafboydsouthltar01,46.751809,-117.128502,795,-1.027,2014-02-03
cafcookeastltar01,46.78152,-117.0821,794,-1.096,2014-02-03
cafcookwestltar01,46.784037,-117.09083,807,-1.096,2014-02-03
caryinstitute,41.7839,-73.7341,127,-0.123,2014-02-03
centralredwoods1,38.632272,-123.301511,200,-1.678,2014-02-03
centralredwoods2,38.632272,-123.301511,200,-1.678,2014-02-03
cperagm,40.8402,-104.7672,1644,0.197,2014-02-03
cperheavy,40.8153,-104.7386,1652,0.138,2014-02-03
cpertgm,40.833,-104.76,1644,0.212,2014-02-03
cperuvb,40.8055764,-104.7558542,1641,0.212,2014-02-03
cuny,40.8162,-73.9507,42,0.134,2014-02-03
doverdesaltmarsh,39.0888,-75.4368,0,0.561,2014-02-03
downerwoods,43.07938,-87.88076,213,0.032,2014-02-03
dukehw,35.973583,-79.100371,400,0.422,2014-02-03
ecb1,41.5348,-84.8068,275,-0.237,2014-02-03
ecb2,41.5321,-84.808,275,-0.237,2014-02-03
ecb4,41.1796,-83.0604,240,0.0,2014-02-03
elverde,18.320654,-65.8199,312,-9999.0,2014-02-03
flagstaff,35.17961521,-111.6049032,6983,-0.454,2014-02-03
flagstaff2,35.179225,-111.604506,6983,-0.454,2014-02-03
flagstaffchimneysprings,35.257296,-111.678542,2250,-0.593,2014-02-03
forbes,39.232,-121.2972,360,-1.844,2014-02-03
fortpaynealpasture1,34.3824,-85.6428,405,0.433,2014-02-03
fortpaynealpasture2,34.3824,-85.6447,403,0.433,2014-02-03
gcesapelo,31.4440444,-81.283528,0,0.733,2014-02-03
gilberttract,38.0015,-121.6691,6,-1.775,2014-02-03
glees,41.3644,-106.2394,3150,0.69,2014-02-03
glennorganicrice,39.6805,-122.0026,2,-2.054,2014-02-03
glennrice,39.5944,-122.0253,36,-2.036,2014-02-03
goodnow,43.96018,-74.20994,820,-0.296,2014-02-03
goodwater,39.22848,-92.11936,264,-1.2,2014-02-03
goodwaterbau,39.23115,-92.15216,274,-1.217,2014-02-03
grandteton,43.915017,-110.578036,2054,-0.69,2014-02-03
grca1pj,36.0241,-112.2211,1978,-0.66,2014-02-03
greenridge1,39.6905,-78.4067,285,-0.22,2014-02-03
harvard,42.5378,-72.1715,340,-0.166,2014-02-03
harvardbarn,42.53532,-72.1899,350,-0.132,2014-02-03
harvardbarn2,42.53532,-72.1899,350,-0.132,2014-02-03
harvardems2,42.5378,-72.1715,340,-0.166,2014-02-03
harvardfarmnorth,42.520465,-72.182242,355,-0.132,2014-02-03
harvardfarmsouth,42.522466,-72.182339,355,-0.132,2014-02-03
harvardgarden,42.5291,-72.1863,335,-0.132,2014-02-03
harvardhemlock,42.539,-72.18,355,-0.132,2014-02-03
harvardhemlock2,42.539407,-72.177976,355,-0.166,2014-02-03
harvardlph,42.542,-72.185,380,-0.132,2014-02-03
hawbeckereddy,40.6608,-77.848849,310,-0.499,2014-02-03
hobcawclearcutlongleaf,33.3486,-79.232,4,-0.29,2014-02-03
hobcawmaturelongleaf,33.3242,-79.2439,8,-0.29,2014-02-03
homesteadsprings,37.2009,-92.9937,452,-1.176,2014-02-03
howland1,45.2041,-68.7403,80,0.778,2014-02-03
howland2,45.2128,-68.7418,79,0.778,2014-02-03
hubbardbrook,43.9438,-71.701,253,0.181,2014-02-03
humnokericea,34.585192,-91.751684,61,0.179,2014-02-03
humnokericec,34.588853,-91.7516729,70,0.179,2014-02-03
huyckpreserveny,42.5266,-74.1587,478,-0.335,2014-02-03
hwmo1,20.0212,-155.7331,585,-9999.0,2014-02-03
hwmo2,19.9766,-155.8298,12,-9999.0,2014-02-03
hwmo5,20.1117,-155.8151,635,-9999.0,2014-02-03
ibp,32.589,-106.847,1325,-0.558,2014-02-03
imcrkfen,68.60583,-149.31101,900,-9999.0,2014-02-03
imcrkridge0,68.60681,-149.2958,951,-9999.0,2014-02-03
imcrkridge1,68.60681,-149.2958,951,-9999.0,2014-02-03
imcrktussock,68.60633,-149.30408,918,-9999.0,2014-02-03
jasperridge,37.402028,-122.22104,197,-1.888,2014-02-03
jerbajada,32.57992,-106.633793,1402,-0.617,2014-02-03
jergrassland,32.5833,-106.8333,1331,-0.558,2014-02-03
jernort,32.619,-106.788,1328,-0.582,2014-02-03
jernovel,32.6335,-106.8334,1324,-0.55,2014-02-03
jernwern,32.6271,-106.7387,1325,-0.597,2014-02-03
jersand,32.515,-106.798,1363,-0.583,2014-02-03
jershrubland,32.6502,-106.8334,1328,-0.507,2014-02-03
junipersavannah,34.4254,-105.8615,1931,-0.518,2014-02-03
kamuela,20.015008,-155.661326,850,-9999.0,2014-02-03
kamuela2,20.014959,-155.661139,830,-9999.0,2014-02-03
kansas,39.0561,-95.1907,333,-1.414,2014-02-03
kelloggcorn,42.437536,-85.3225472,288,-0.353,2014-02-03
kempnrs,45.83992,-89.67755,539,0.562,2014-02-03
kendall,31.73652,-109.94185,1529,-0.557,2014-02-03
konza,39.0824,-96.5603,443,-1.117,2014-02-03
laupahoehoe,19.9322,-155.2912,1145,-9999.0,2014-02-03
ldeocam,41.0039,-73.9053,121,0.254,2014-02-03
lostcreek,46.0827,-89.9792,480,0.55,2014-02-03
luckyhills,31.743896,-110.052023,1366,-0.566,2014-02-03
macleish,42.4484,-72.6804,251,-0.11,2014-02-03
macordway,44.8106,-93.0272,264,-0.294,2014-02-03
mandanh5,46.775423,-100.95109,593,0.052,2014-02-03
mandani2,46.7614,-100.9257,590,0.044,2014-02-03
manilacotton,35.8872,-90.1371,73,-0.518,2014-02-03
marena,36.06434,-97.21271,327,-1.336,2014-02-03
mead1,41.1651,-96.4766,361,-1.59,2014-02-03
mead2,41.1649,-96.4701,362,-1.59,2014-02-03
mead3,41.1797,-96.4397,363,-1.585,2014-02-03
meadpasture,41.1447,-96.4616,356,-1.579,2014-02-03
meadpasturese,41.1447,-96.4616,356,-1.579,2014-02-03
meadpasturesw,41.1447,-96.4616,356,-1.579,2014-02-03
missouriozarks,38.7441,-92.2,219,-1.382,2014-02-03
morganmonroe,39.3231,-86.4131,275,0.658,2014-02-03
morganmonroe2,39.3231,-86.4131,275,0.658,2014-02-03
nahuku,19.415187,-155.238383,1202,-9999.0,2014-02-03
nationalelkrefuge,43.488931,-110.737824,1899,-1.057,2014-02-03
ncssm,36.018446,-78.92075,175,0.281,2014-02-03
NEON.D01.BART.DP1.00033,44.063869,-71.287375,285,0.375,2014-02-03
NEON.D01.HARV.DP1.00033,42.536911,-72.17265,359,-0.166,2014-02-03
NEON.D01.HOPB.DP1.20002,42.471786,-72.329627,203,-0.333,2014-02-03
NEON.D02.BLAN.DP1.00033,39.033698,-78.041788,162,0.648,2014-02-03
NEON.D02.LEWI.DP1.20002,39.09564,-77.98322,152,0.638,2014-02-03
NEON.D02.POSE.DP1.20002,38.89332,-78.14678,293,0.513,2014-02-03
NEON.D02.SCBI.DP1.00033,38.892925,-78.139494,364,0.546,2014-02-03
NEON.D02.SERC.DP1.00033,38.89008,-76.56001,30,0.999,2014-02-03
NEON.D03.BARC.DP1.20002,29.676473,-82.009089,35,1.342,2014-02-03
NEON.D03.DSNY.DP1.00033,28.12505,-81.43619,22,-0.115,2014-02-03
NEON.D03.FLNT.DP1.20002,31.185424,-84.437403,27,-0.211,2014-02-03
NEON.D03.JERC.DP1.00033,31.194839,-84.468623,58,-0.237,2014-02-03
NEON.D03.OSBS.DP1.00033,29.689282,-81.993431,56,1.298,2014-02-03
NEON.D03.SUGG.DP1.20002,29.687054,-82.016171,28,1.298,2014-02-03
NEON.D04.CUPE.DP1.20002,18.11352,-66.98676,164,-9999.0,2014-02-03
NEON.D04.GUAN.DP1.00033,17.96955,-66.8687,136,-9999.0,2014-02-03
NEON.D04.GUIL.DP1.20002,18.1741,-66.79851,564,-9999.0,2014-02-03
NEON.D04.LAJA.DP1.00033,18.021261,-67.076889,22,-9999.0,2014-02-03
NEON.D05.CRAM.DP1.20002,46.21111,-89.47825,518,0.696,2014-02-03
NEON.D05.LIRO.DP1.20002,45.998269,-89.704767,495,0.532,2014-02-03
NEON.D05.STEI.DP1.00033,45.50894,-89.58637,476,0.379,2014-02-03
NEON.D05.TREE.DP1.00033,45.49373,-89.58572,474,0.379,2014-02-03
NEON.D05.UNDE.DP1.00033,46.23391,-89.537254,529,0.628,2014-02-03
NEON.D06.KING.DP1.20002,39.10506,-96.60336,339,-1.146,2014-02-03
NEON.D06.KONA.DP1.00033,39.110446,-96.612935,443,-1.146,2014-02-03
NEON.D06.KONZ.DP1.00033,39.10077,-96.56309,415,-1.117,2014-02-03
NEON.D06.MCDI.DP1.20002,38.94428,-96.44197,376,-1.2,2014-02-03
NEON.D06.UKFS.DP1.00033,39.040431,-95.19215,330,-1.414,2014-02-03
NEON.D07.GRSM.DP1.00033,35.68896,-83.50195,589,0.777,2014-02-03
NEON.D07.LECO.DP1.20002,35.69043,-83.50379,578,0.777,2014-02-03
NEON.D07.MLBS.DP1.00033,37.378314,-80.524847,1177,0.498,2014-02-03
NEON.D07.ORNL.DP1.00033,35.964128,-84.282588,351,0.319,2014-02-03
NEON.D07.WALK.DP1.20002,35.95947,-84.28041,274,0.34,2014-02-03
NEON.D08.BLWA.DP1.20002,32.541529,-87.798151,23,0.278,2014-02-03
NEON.D08.DELA.DP1.00033,32.541727,-87.803877,36,0.278,2014-02-03
NEON.D08.LENO.DP1.00033,31.85388,-88.16122,10,-0.459,2014-02-03
NEON.D08.MAYF.DP1.20002,32.959657,-87.408128,93,0.104,2014-02-03
NEON.D08.TALL.DP1.00033,32.95047,-87.393259,167,0.104,2014-02-03
NEON.D08.TOMB.DP1.20002,31.853431,-88.158872,10,-0.459,2014-02-03
NEON.D09.DCFS.DP1.00033,47.161647,-99.106556,574,-0.04,2014-02-03
NEON.D09.NOGP.DP1.00033,46.76972,-100.91535,589,0.044,2014-02-03
NEON.D09.PRLA.DP1.20002,47.15909,-99.11388,563,-0.04,2014-02-03
NEON.D09.PRPO.DP1.20002,47.12999,-99.250551,587,-0.003,2014-02-03
NEON.D09.WOOD.DP1.00033,47.1282,-99.241334,585,-0.003,2014-02-03
NEON.D10.ARIK.DP1.20002,39.758246,-102.447103,1188,-0.616,2014-02-03
NEON.D10.CPER.DP1.00033,40.81553,-104.7456,1600,0.212,2014-02-03
NEON.D10.HQTW.DP1.00033,40.016704,-105.245612,1601,-0.439,2014-02-03
NEON.D10.RMNP.DP1.00033,40.275903,-105.545955,2751,0.362,2014-02-03
NEON.D10.STER.DP1.00033,40.461894,-103.02929,1366,-0.292,2014-02-03
NEON.D11.BLUE.DP1.20002,34.444218,-96.624201,288,-0.754,2014-02-03
NEON.D11.CLBJ.DP1.00033,33.40123,-97.57,279,-0.568,2014-02-03
NEON.D11.OAES.DP1.00033,35.41059,-99.05879,520,-1.276,2014-02-03
NEON.D11.PRIN.DP1.20002,33.37859,-97.78226,255,-0.583,2014-02-03
NEON.D12.BLDE.DP1.20002,44.95011,-110.58715,2035,-0.406,2014-02-03
NEON.D12.YELL.DP1.00033,44.95348,-110.53914,2130,-0.251,2014-02-03
NEON.D13.COMO.DP1.20002,40.03496,-105.54487,3036,0.406,2014-02-03
NEON.D13.MOAB.DP1.00033,38.24833,-109.38827,1803,0.479,2014-02-03
NEON.D13.NIWO.DP1.00033,40.05425,-105.58237,3493,0.757,2014-02-03
NEON.D13.WLOU.DP1.20002,39.891366,-105.915395,2920,0.956,2014-02-03
NEON.D14.JORN.DP1.00033,32.59068,-106.84254,1321,-0.558,2014-02-03
NEON.D14.SRER.DP1.00033,31.91068,-110.83549,999,-0.204,2014-02-03
NEON.D14.SYCA.DP1.20002,33.749057,-111.506903,644,-0.52,2014-02-03
NEON.D15.ONAQ.DP1.00033,40.177599,-112.452452,1655,0.42,2014-02-03
NEON.D15.REDB.DP1.20002,40.783934,-111.797887,1696,-0.758,2014-02-03
NEON.D16.ABBY.DP1.00033,45.76243,-122.33033,390,-1.556,2014-02-03
NEON.D16.MART.DP1.20002,45.791248,-121.931959,354,-1.454,2014-02-03
NEON.D16.MCRA.DP1.20002,44.259598,-122.165554,880,-1.66,2014-02-03
NEON.D16.WREF.DP1.00033,45.82049,-121.95191,368,-1.506,2014-02-03
NEON.D17.BIGC.DP1.20002,37.059719,-119.257549,1133,-1.478,2014-02-03
NEON.D17.SJER.DP1.00033,37.10878,-119.73228,398,-1.637,2014-02-03
NEON.D17.SOAP.DP1.00033,37.03337,-119.26219,1210,-1.5,2014-02-03
NEON.D17.TEAK.DP1.00033,37.00583,-119.00602,2149,-1.48,2014-02-03
NEON.D17.TECR.DP1.20002,36.955931,-119.027363,2053,-1.496,2014-02-03
NEON.D18.BARR.DP1.00033,71.28241,-156.61936,7,-9999.0,2014-02-03
NEON.D18.OKSR.DP1.20002,68.669753,-149.143018,773,-9999.0,2014-02-03
NEON.D18.TOOK.DP1.20002,68.629562,-149.610509,715,-9999.0,2014-02-03
NEON.D18.TOOL.DP1.00033,68.66109,-149.37047,827,-9999.0,2014-02-03
NEON.D19.BONA.DP1.00033,65.15401,-147.50258,233,-9999.0,2014-02-03
NEON.D19.CARI.DP1.20002,65.15306,-147.50246,229,-9999.0,2014-02-03
NEON.D19.DEJU.DP1.00033,63.88112,-145.75136,504,-9999.0,2014-02-03
NEON.D19.HEAL.DP1.00033,63.87569,-149.21334,409,-9999.0,2014-02-03
NEON.D20.PUUM.DP1.00033,19.55309,-155.31731,1683,-9999.0,2014-02-03
nevcansnk3a,39.0099,-114.3095,3063,-0.162,2014-02-03
nevcanspg1a,38.9253,-114.4082,1792,0.124,2014-02-03
nevcanspg2a,38.8921,-114.3521,2203,-0.104,2014-02-03
nevcanspg3a,38.8898,-114.3314,2820,-0.332,2014-02-03
nevcanspg4a,38.9061,-114.3089,3360,-0.332,2014-02-03
ninemileprairie,40.86801886,-96.82208066,381,-1.479,2014-02-03
nist,39.139,-77.2125,100,0.837,2014-02-03
niwot3,40.03286358,-105.5469702,3050,0.406,2014-02-03
niwot5,40.03286358,-105.5469702,2993,0.406,2014-02-03
northattleboroma,41.98369,-71.31056,60,0.03,2014-02-03
northinletsaltmarsh,33.3455,-79.1957,1,-0.242,2014-02-03
oakville,47.899334,-97.316139,268,-0.372,2014-02-03
oregonMP,44.4523,-121.5574,1253,-1.534,2014-02-03
oregonYP,44.32384,-121.605993,977,-1.392,2014-02-03
oregonYPbud,44.3238,-121.606,977,-1.392,2014-02-03
othshardwood,44.934805,-68.6655,41,0.618,2014-02-03
othssoftwood,44.934527,-68.664888,41,0.618,2014-02-03
pace,37.9229,-78.2739,100,1.049,2014-02-03
parkschoolbuffalo,42.9637,-78.7834,205,0.51,2014-02-03
piedmontalpasture2,33.8875,-85.6935,238,1.092,2014-02-03
portal,31.9385,-109.0823,1330,-0.691,2014-02-03
proctor,44.525,-72.866,403,0.163,2014-02-03
readingma,42.5304,-71.1272,100,-0.244,2014-02-03
robinson,37.4671,-83.1576,483,0.7,2014-02-03
robinson2,37.4671,-83.1576,483,0.7,2014-02-03
rosemountcons,44.6946,-93.0578,283,-0.313,2014-02-03
rosemountconv,44.691,-93.0576,283,-0.313,2014-02-03
rosemountnprs,44.6781,-93.0723,274,-0.291,2014-02-03
russellsage,32.456961,-91.974322,20,-1.217,2014-02-03
sagehen,39.4315,-120.2398,1934,-1.444,2014-02-03
sagehen2,39.4307,-120.2407,1937,-1.444,2014-02-03
sagehen3,39.4311,-120.2405,1935,-1.444,2014-02-03
sanford,42.726777,-84.464482,268,0.2,2014-02-03
santacruz1,36.9741,-122.0308,11,-1.801,2014-02-03
santacruz2,36.9741,-122.0308,11,-1.801,2014-02-03
santaluciapreserve1,36.5265,-121.8682,500,-1.622,2014-02-03
