site,lat,lon,elev,values,date
alligatorriver,35.7879,-75.9038,1,-0.51,2008-01-07
arbutuslake,43.98207,-74.23322,535,1.76,2008-01-07
arbutuslakeinlet,43.99336,-74.24527,527,1.76,2008-01-07
archboldavir,27.176064,-81.21958,8,-0.62,2008-01-07
archboldavirx,27.166627,-81.219828,8,-0.62,2008-01-07
archboldbahia,27.1656,-81.216112,8,-0.62,2008-01-07
archboldpnot,27.187948,-81.200345,9,-0.62,2008-01-07
archboldpnotx,27.180677,-81.20068,9,-0.62,2008-01-07
arkansascornsoy,34.416,-91.6723,61,-0.164,2008-01-07
arsbrooks10,41.9749,-93.6905,312,0.202,2008-01-07
arsbrooks11,41.9744,-93.6937,313,0.202,2008-01-07
arscolesnorth,42.4884,-93.5225,356,-0.016,2008-01-07
arscolessouth,42.4816,-93.5235,352,-0.016,2008-01-07
arsgacp1,31.5109,-83.6179,96,-0.086,2008-01-07
arsgacp3,31.7563,-83.7516,139,-0.264,2008-01-07
arsgacp4,31.7093,-83.7287,127,-0.359,2008-01-07
arsgreatbasinltar098,43.1675,-116.7132,1426,-0.527,2008-01-07
arsgreatbasinltar117,43.1432,-116.7357,1625,-0.319,2008-01-07
arsgreatbasinltar177,43.0645,-116.7484,2114,-0.148,2008-01-07
arsltarmdcr,39.0587,-75.8513,17,0.417,2008-01-07
arsltarmdcrnatw,39.0575,-75.7531,16,0.442,2008-01-07
arsltarmdcrprcw,39.0667,-75.7609,17,0.442,2008-01-07
arsltarmdcrresw,39.0549,-75.7532,16,0.442,2008-01-07
arsltarucbec1,40.7537,-78.0057,400,0.704,2008-01-07
arsltarucbec2,40.7558,-77.9999,396,0.704,2008-01-07
arsmnswanlake1,45.684508,-95.799703,370,-0.041,2008-01-07
arsmorris1,45.6167,-96.1269,341,0.124,2008-01-07
arsmorris2,45.627,-96.127,338,0.124,2008-01-07
arsmorris3,45.6091,-96.1265,342,0.124,2008-01-07
arsope3ltar,39.0309,-76.8442,41,0.479,2008-01-07
ashburnham,42.6029,-71.926,292,-0.017,2008-01-07
asuhighlands,36.2076,-81.7032,1016,-0.391,2008-01-07
austincary,29.738,-82.2188,44,-0.698,2008-01-07
barrow,71.28007453,-156.6091492,5,-9999.0,2008-01-07
bartlettir,44.0646,-71.2881,268,0.868,2008-01-07
bigtraillake,64.9194,-147.822,190,-9999.0,2008-01-07
bitterbrush001,48.154,-119.9456,667,-0.522,2008-01-07
blackrockforest,41.3974,-74.0239,427,0.844,2008-01-07
bnzblackspruce,64.6963,-148.3235,102,-9999.0,2008-01-07
bnzrichfen,64.70134,-148.31195,97,-9999.0,2008-01-07
bnzthermokarstbog,64.6955,-148.3208,104,-9999.0,2008-01-07
boglakepeatland,47.5051,-93.4893,416,0.196,2008-01-07
bostoncommon,42.355912,-71.064145,10,-0.24,2008-01-07
bostonu,42.35041,-71.10438,10,-0.227,2008-01-07
bouldinalfalfa,38.0985,-121.4993,-5,-0.647,2008-01-07
bouldincorn,38.109,-121.535,-5,-0.621,2008-01-07
bozeman,45.783056,-110.777778,2332,-0.151,2008-01-07
brackishimpoundment,33.2015,-79.2973,1,-1.134,2008-01-07
bullshoals,36.562833,-93.06663,260,-0.99,2008-01-07
burnssagebrush,43.4712,-119.6909,1398,-0.166,2008-01-07
butte,45.95304,-112.47964,1682,-0.789,2008-01-07
butterice,39.5793,-121.858,33,-0.833,2008-01-07
cafboydnorthltar01,46.755104,-117.126052,795,-0.058,2008-01-07
cafboydsouthltar01,46.751809,-117.128502,795,-0.058,2008-01-07
cafcookeastltar01,46.78152,-117.0821,794,0.006,2008-01-07
cafcookwestltar01,46.784037,-117.09083,807,0.006,2008-01-07
caryinstitute,41.7839,-73.7341,127,0.913,2008-01-07
centralredwoods1,38.632272,-123.301511,200,-0.335,2008-01-07
centralredwoods2,38.632272,-123.301511,200,-0.335,2008-01-07
cperagm,40.8402,-104.7672,1644,0.736,2008-01-07
cperheavy,40.8153,-104.7386,1652,0.626,2008-01-07
cpertgm,40.833,-104.76,1644,0.724,2008-01-07
cperuvb,40.8055764,-104.7558542,1641,0.724,2008-01-07
cuny,40.8162,-73.9507,42,-0.112,2008-01-07
doverdesaltmarsh,39.0888,-75.4368,0,0.575,2008-01-07
downerwoods,43.07938,-87.88076,213,-0.423,2008-01-07
dukehw,35.973583,-79.100371,400,-0.495,2008-01-07
ecb1,41.5348,-84.8068,275,0.667,2008-01-07
ecb2,41.5321,-84.808,275,0.667,2008-01-07
ecb4,41.1796,-83.0604,240,0.458,2008-01-07
elverde,18.320654,-65.8199,312,-9999.0,2008-01-07
flagstaff,35.17961521,-111.6049032,6983,-0.448,2008-01-07
flagstaff2,35.179225,-111.604506,6983,-0.448,2008-01-07
flagstaffchimneysprings,35.257296,-111.678542,2250,-0.571,2008-01-07
forbes,39.232,-121.2972,360,-0.419,2008-01-07
fortpaynealpasture1,34.3824,-85.6428,405,-1.218,2008-01-07
fortpaynealpasture2,34.3824,-85.6447,403,-1.218,2008-01-07
gcesapelo,31.4440444,-81.283528,0,-0.828,2008-01-07
gilberttract,38.0015,-121.6691,6,-0.54,2008-01-07
glees,41.3644,-106.2394,3150,-0.195,2008-01-07
glennorganicrice,39.6805,-122.0026,2,-0.993,2008-01-07
glennrice,39.5944,-122.0253,36,-0.982,2008-01-07
goodnow,43.96018,-74.20994,820,1.761,2008-01-07
goodwater,39.22848,-92.11936,264,-0.184,2008-01-07
goodwaterbau,39.23115,-92.15216,274,-0.186,2008-01-07
grandteton,43.915017,-110.578036,2054,0.348,2008-01-07
grca1pj,36.0241,-112.2211,1978,-0.998,2008-01-07
greenridge1,39.6905,-78.4067,285,0.557,2008-01-07
harvard,42.5378,-72.1715,340,0.249,2008-01-07
harvardbarn,42.53532,-72.1899,350,0.256,2008-01-07
harvardbarn2,42.53532,-72.1899,350,0.256,2008-01-07
harvardems2,42.5378,-72.1715,340,0.249,2008-01-07
harvardfarmnorth,42.520465,-72.182242,355,0.256,2008-01-07
harvardfarmsouth,42.522466,-72.182339,355,0.256,2008-01-07
harvardgarden,42.5291,-72.1863,335,0.256,2008-01-07
harvardhemlock,42.539,-72.18,355,0.256,2008-01-07
harvardhemlock2,42.539407,-72.177976,355,0.249,2008-01-07
harvardlph,42.542,-72.185,380,0.256,2008-01-07
hawbeckereddy,40.6608,-77.848849,310,0.677,2008-01-07
hobcawclearcutlongleaf,33.3486,-79.232,4,-1.164,2008-01-07
hobcawmaturelongleaf,33.3242,-79.2439,8,-1.164,2008-01-07
homesteadsprings,37.2009,-92.9937,452,-1.048,2008-01-07
howland1,45.2041,-68.7403,80,1.522,2008-01-07
howland2,45.2128,-68.7418,79,1.522,2008-01-07
hubbardbrook,43.9438,-71.701,253,0.492,2008-01-07
humnokericea,34.585192,-91.751684,61,0.148,2008-01-07
humnokericec,34.588853,-91.7516729,70,0.148,2008-01-07
huyckpreserveny,42.5266,-74.1587,478,0.784,2008-01-07
hwmo1,20.0212,-155.7331,585,-9999.0,2008-01-07
hwmo2,19.9766,-155.8298,12,-9999.0,2008-01-07
hwmo5,20.1117,-155.8151,635,-9999.0,2008-01-07
ibp,32.589,-106.847,1325,-1.104,2008-01-07
imcrkfen,68.60583,-149.31101,900,-9999.0,2008-01-07
imcrkridge0,68.60681,-149.2958,951,-9999.0,2008-01-07
imcrkridge1,68.60681,-149.2958,951,-9999.0,2008-01-07
imcrktussock,68.60633,-149.30408,918,-9999.0,2008-01-07
jasperridge,37.402028,-122.22104,197,-0.841,2008-01-07
jerbajada,32.57992,-106.633793,1402,-1.075,2008-01-07
jergrassland,32.5833,-106.8333,1331,-1.104,2008-01-07
jernort,32.619,-106.788,1328,-1.116,2008-01-07
jernovel,32.6335,-106.8334,1324,-1.115,2008-01-07
jernwern,32.6271,-106.7387,1325,-1.14,2008-01-07
jersand,32.515,-106.798,1363,-1.145,2008-01-07
jershrubland,32.6502,-106.8334,1328,-1.122,2008-01-07
junipersavannah,34.4254,-105.8615,1931,-1.069,2008-01-07
kamuela,20.015008,-155.661326,850,-9999.0,2008-01-07
kamuela2,20.014959,-155.661139,830,-9999.0,2008-01-07
kansas,39.0561,-95.1907,333,1.1,2008-01-07
kelloggcorn,42.437536,-85.3225472,288,-0.375,2008-01-07
kempnrs,45.83992,-89.67755,539,-0.302,2008-01-07
kendall,31.73652,-109.94185,1529,-0.796,2008-01-07
konza,39.0824,-96.5603,443,0.906,2008-01-07
laupahoehoe,19.9322,-155.2912,1145,-9999.0,2008-01-07
ldeocam,41.0039,-73.9053,121,0.054,2008-01-07
lostcreek,46.0827,-89.9792,480,-0.074,2008-01-07
luckyhills,31.743896,-110.052023,1366,-0.839,2008-01-07
macleish,42.4484,-72.6804,251,0.225,2008-01-07
macordway,44.8106,-93.0272,264,-0.734,2008-01-07
mandanh5,46.775423,-100.95109,593,-1.246,2008-01-07
mandani2,46.7614,-100.9257,590,-1.254,2008-01-07
manilacotton,35.8872,-90.1371,73,0.812,2008-01-07
marena,36.06434,-97.21271,327,-0.01,2008-01-07
mead1,41.1651,-96.4766,361,0.37,2008-01-07
mead2,41.1649,-96.4701,362,0.37,2008-01-07
mead3,41.1797,-96.4397,363,0.356,2008-01-07
meadpasture,41.1447,-96.4616,356,0.356,2008-01-07
meadpasturese,41.1447,-96.4616,356,0.356,2008-01-07
meadpasturesw,41.1447,-96.4616,356,0.356,2008-01-07
missouriozarks,38.7441,-92.2,219,-0.489,2008-01-07
morganmonroe,39.3231,-86.4131,275,-0.019,2008-01-07
morganmonroe2,39.3231,-86.4131,275,-0.019,2008-01-07
nahuku,19.415187,-155.238383,1202,-9999.0,2008-01-07
nationalelkrefuge,43.488931,-110.737824,1899,-0.35,2008-01-07
ncssm,36.018446,-78.92075,175,-0.197,2008-01-07
NEON.D01.BART.DP1.00033,44.063869,-71.287375,285,0.868,2008-01-07
NEON.D01.HARV.DP1.00033,42.536911,-72.17265,359,0.249,2008-01-07
NEON.D01.HOPB.DP1.20002,42.471786,-72.329627,203,0.061,2008-01-07
NEON.D02.BLAN.DP1.00033,39.033698,-78.041788,162,-0.008,2008-01-07
NEON.D02.LEWI.DP1.20002,39.09564,-77.98322,152,0.07,2008-01-07
NEON.D02.POSE.DP1.20002,38.89332,-78.14678,293,-0.181,2008-01-07
NEON.D02.SCBI.DP1.00033,38.892925,-78.139494,364,-0.222,2008-01-07
NEON.D02.SERC.DP1.00033,38.89008,-76.56001,30,0.417,2008-01-07
NEON.D03.BARC.DP1.20002,29.676473,-82.009089,35,-0.71,2008-01-07
NEON.D03.DSNY.DP1.00033,28.12505,-81.43619,22,-0.954,2008-01-07
NEON.D03.FLNT.DP1.20002,31.185424,-84.437403,27,0.146,2008-01-07
NEON.D03.JERC.DP1.00033,31.194839,-84.468623,58,0.175,2008-01-07
NEON.D03.OSBS.DP1.00033,29.689282,-81.993431,56,-0.692,2008-01-07
NEON.D03.SUGG.DP1.20002,29.687054,-82.016171,28,-0.692,2008-01-07
NEON.D04.CUPE.DP1.20002,18.11352,-66.98676,164,-9999.0,2008-01-07
NEON.D04.GUAN.DP1.00033,17.96955,-66.8687,136,-9999.0,2008-01-07
NEON.D04.GUIL.DP1.20002,18.1741,-66.79851,564,-9999.0,2008-01-07
NEON.D04.LAJA.DP1.00033,18.021261,-67.076889,22,-9999.0,2008-01-07
NEON.D05.CRAM.DP1.20002,46.21111,-89.47825,518,-0.112,2008-01-07
NEON.D05.LIRO.DP1.20002,45.998269,-89.704767,495,-0.468,2008-01-07
NEON.D05.STEI.DP1.00033,45.50894,-89.58637,476,-0.412,2008-01-07
NEON.D05.TREE.DP1.00033,45.49373,-89.58572,474,-0.412,2008-01-07
NEON.D05.UNDE.DP1.00033,46.23391,-89.537254,529,-0.125,2008-01-07
NEON.D06.KING.DP1.20002,39.10506,-96.60336,339,0.892,2008-01-07
NEON.D06.KONA.DP1.00033,39.110446,-96.612935,443,0.892,2008-01-07
NEON.D06.KONZ.DP1.00033,39.10077,-96.56309,415,0.906,2008-01-07
NEON.D06.MCDI.DP1.20002,38.94428,-96.44197,376,1.037,2008-01-07
NEON.D06.UKFS.DP1.00033,39.040431,-95.19215,330,1.1,2008-01-07
NEON.D07.GRSM.DP1.00033,35.68896,-83.50195,589,-1.142,2008-01-07
NEON.D07.LECO.DP1.20002,35.69043,-83.50379,578,-1.142,2008-01-07
NEON.D07.MLBS.DP1.00033,37.378314,-80.524847,1177,-0.044,2008-01-07
NEON.D07.ORNL.DP1.00033,35.964128,-84.282588,351,-0.872,2008-01-07
NEON.D07.WALK.DP1.20002,35.95947,-84.28041,274,-0.845,2008-01-07
NEON.D08.BLWA.DP1.20002,32.541529,-87.798151,23,-1.191,2008-01-07
NEON.D08.DELA.DP1.00033,32.541727,-87.803877,36,-1.191,2008-01-07
NEON.D08.LENO.DP1.00033,31.85388,-88.16122,10,-0.882,2008-01-07
NEON.D08.MAYF.DP1.20002,32.959657,-87.408128,93,-1.519,2008-01-07
NEON.D08.TALL.DP1.00033,32.95047,-87.393259,167,-1.519,2008-01-07
NEON.D08.TOMB.DP1.20002,31.853431,-88.158872,10,-0.882,2008-01-07
NEON.D09.DCFS.DP1.00033,47.161647,-99.106556,574,-1.246,2008-01-07
NEON.D09.NOGP.DP1.00033,46.76972,-100.91535,589,-1.254,2008-01-07
NEON.D09.PRLA.DP1.20002,47.15909,-99.11388,563,-1.24,2008-01-07
NEON.D09.PRPO.DP1.20002,47.12999,-99.250551,587,-1.269,2008-01-07
NEON.D09.WOOD.DP1.00033,47.1282,-99.241334,585,-1.269,2008-01-07
NEON.D10.ARIK.DP1.20002,39.758246,-102.447103,1188,-0.208,2008-01-07
NEON.D10.CPER.DP1.00033,40.81553,-104.7456,1600,0.724,2008-01-07
NEON.D10.HQTW.DP1.00033,40.016704,-105.245612,1601,-0.199,2008-01-07
NEON.D10.RMNP.DP1.00033,40.275903,-105.545955,2751,-0.847,2008-01-07
NEON.D10.STER.DP1.00033,40.461894,-103.02929,1366,-0.054,2008-01-07
NEON.D11.BLUE.DP1.20002,34.444218,-96.624201,288,-0.846,2008-01-07
NEON.D11.CLBJ.DP1.00033,33.40123,-97.57,279,-0.988,2008-01-07
NEON.D11.OAES.DP1.00033,35.41059,-99.05879,520,-0.342,2008-01-07
NEON.D11.PRIN.DP1.20002,33.37859,-97.78226,255,-0.974,2008-01-07
NEON.D12.BLDE.DP1.20002,44.95011,-110.58715,2035,-0.534,2008-01-07
NEON.D12.YELL.DP1.00033,44.95348,-110.53914,2130,-0.289,2008-01-07
NEON.D13.COMO.DP1.20002,40.03496,-105.54487,3036,-0.812,2008-01-07
NEON.D13.MOAB.DP1.00033,38.24833,-109.38827,1803,-0.627,2008-01-07
NEON.D13.NIWO.DP1.00033,40.05425,-105.58237,3493,-0.988,2008-01-07
NEON.D13.WLOU.DP1.20002,39.891366,-105.915395,2920,-0.221,2008-01-07
NEON.D14.JORN.DP1.00033,32.59068,-106.84254,1321,-1.104,2008-01-07
NEON.D14.SRER.DP1.00033,31.91068,-110.83549,999,-0.755,2008-01-07
NEON.D14.SYCA.DP1.20002,33.749057,-111.506903,644,-0.196,2008-01-07
NEON.D15.ONAQ.DP1.00033,40.177599,-112.452452,1655,0.045,2008-01-07
NEON.D15.REDB.DP1.20002,40.783934,-111.797887,1696,-0.248,2008-01-07
NEON.D16.ABBY.DP1.00033,45.76243,-122.33033,390,0.115,2008-01-07
NEON.D16.MART.DP1.20002,45.791248,-121.931959,354,0.274,2008-01-07
NEON.D16.MCRA.DP1.20002,44.259598,-122.165554,880,0.458,2008-01-07
NEON.D16.WREF.DP1.00033,45.82049,-121.95191,368,0.232,2008-01-07
NEON.D17.BIGC.DP1.20002,37.059719,-119.257549,1133,-0.612,2008-01-07
NEON.D17.SJER.DP1.00033,37.10878,-119.73228,398,-0.507,2008-01-07
NEON.D17.SOAP.DP1.00033,37.03337,-119.26219,1210,-0.487,2008-01-07
NEON.D17.TEAK.DP1.00033,37.00583,-119.00602,2149,-0.556,2008-01-07
NEON.D17.TECR.DP1.20002,36.955931,-119.027363,2053,-0.667,2008-01-07
NEON.D18.BARR.DP1.00033,71.28241,-156.61936,7,-9999.0,2008-01-07
NEON.D18.OKSR.DP1.20002,68.669753,-149.143018,773,-9999.0,2008-01-07
NEON.D18.TOOK.DP1.20002,68.629562,-149.610509,715,-9999.0,2008-01-07
NEON.D18.TOOL.DP1.00033,68.66109,-149.37047,827,-9999.0,2008-01-07
NEON.D19.BONA.DP1.00033,65.15401,-147.50258,233,-9999.0,2008-01-07
NEON.D19.CARI.DP1.20002,65.15306,-147.50246,229,-9999.0,2008-01-07
NEON.D19.DEJU.DP1.00033,63.88112,-145.75136,504,-9999.0,2008-01-07
NEON.D19.HEAL.DP1.00033,63.87569,-149.21334,409,-9999.0,2008-01-07
NEON.D20.PUUM.DP1.00033,19.55309,-155.31731,1683,-9999.0,2008-01-07
nevcansnk3a,39.0099,-114.3095,3063,-0.732,2008-01-07
nevcanspg1a,38.9253,-114.4082,1792,-0.345,2008-01-07
nevcanspg2a,38.8921,-114.3521,2203,-0.56,2008-01-07
nevcanspg3a,38.8898,-114.3314,2820,-0.776,2008-01-07
nevcanspg4a,38.9061,-114.3089,3360,-0.776,2008-01-07
ninemileprairie,40.86801886,-96.82208066,381,0.101,2008-01-07
nist,39.139,-77.2125,100,-0.11,2008-01-07
niwot3,40.03286358,-105.5469702,3050,-0.812,2008-01-07
niwot5,40.03286358,-105.5469702,2993,-0.812,2008-01-07
northattleboroma,41.98369,-71.31056,60,-0.33,2008-01-07
northinletsaltmarsh,33.3455,-79.1957,1,-1.185,2008-01-07
oakville,47.899334,-97.316139,268,-0.429,2008-01-07
oregonMP,44.4523,-121.5574,1253,0.741,2008-01-07
oregonYP,44.32384,-121.605993,977,0.63,2008-01-07
oregonYPbud,44.3238,-121.606,977,0.63,2008-01-07
othshardwood,44.934805,-68.6655,41,1.227,2008-01-07
othssoftwood,44.934527,-68.664888,41,1.227,2008-01-07
pace,37.9229,-78.2739,100,-0.269,2008-01-07
parkschoolbuffalo,42.9637,-78.7834,205,0.812,2008-01-07
piedmontalpasture2,33.8875,-85.6935,238,-1.242,2008-01-07
portal,31.9385,-109.0823,1330,-0.704,2008-01-07
proctor,44.525,-72.866,403,1.314,2008-01-07
readingma,42.5304,-71.1272,100,-0.132,2008-01-07
robinson,37.4671,-83.1576,483,0.319,2008-01-07
robinson2,37.4671,-83.1576,483,0.319,2008-01-07
rosemountcons,44.6946,-93.0578,283,-0.736,2008-01-07
rosemountconv,44.691,-93.0576,283,-0.736,2008-01-07
rosemountnprs,44.6781,-93.0723,274,-0.855,2008-01-07
russellsage,32.456961,-91.974322,20,-1.121,2008-01-07
sagehen,39.4315,-120.2398,1934,-0.71,2008-01-07
sagehen2,39.4307,-120.2407,1937,-0.71,2008-01-07
sagehen3,39.4311,-120.2405,1935,-0.71,2008-01-07
sanford,42.726777,-84.464482,268,-0.544,2008-01-07
santacruz1,36.9741,-122.0308,11,-0.723,2008-01-07
santacruz2,36.9741,-122.0308,11,-0.723,2008-01-07
santaluciapreserve1,36.5265,-121.8682,500,-0.985,2008-01-07
santaluciapreserve2,36.5265,-121.8682,500,-0.985,2008-01-07
segaarboretum10,35.16209,-111.73151,2170,-0.512,2008-01-07
segaarboretum2,35.16209,-111.73151,2170,-0.512,2008-01-07
segaarboretum3,35.16209,-111.73151,2170,-0.512,2008-01-07
segaarboretum4,35.16214,-111.73153,2170,-0.512,2008-01-07
segaarboretum6,35.16209,-111.73151,2170,-0.512,2008-01-07
segaarboretum9,35.16222,-111.73158,2170,-0.512,2008-01-07
segaarboretumforest,35.1613,-111.7359,2173,-0.512,2008-01-07
segaarboretummeadow,35.1621,-111.7316,2157,-0.512,2008-01-07
segablackpoint,35.6814,-111.4754,1566,-0.89,2008-01-07
segabluechute,35.5876,-111.9716,1930,-0.635,2008-01-07
segabluechute1,35.58759,-111.97115,1931,-0.635,2008-01-07
segabluechute2,35.58759,-111.97115,1931,-0.635,2008-01-07
segabluechute4,35.58759,-111.9716,1931,-0.635,2008-01-07
segabluechute6,35.58759,-111.97115,1931,-0.635,2008-01-07
segabluechute7,35.58759,-111.97115,1931,-0.635,2008-01-07
segabluechute8,35.58759,-111.97115,1931,-0.635,2008-01-07
segabradshaw,34.9109,-111.9285,1402,-0.407,2008-01-07
segahartprairie,35.3536,-111.7324,2585,-0.561,2008-01-07
segalcr,35.7231,-111.321,1275,-0.924,2008-01-07
segalcr2,35.7069,-111.36,1495,-0.873,2008-01-07
segalittlemountain,36.5865,-112.3634,2276,-0.77,2008-01-07
segasoapcreek,36.751,-111.716,1233,-0.792,2008-01-07
segawhitepockets,36.6081,-112.4082,2057,-0.746,2008-01-07
sevilletagrass,34.360444,-106.700186,1600,-0.91,2008-01-07
sevilletanewgrass,34.358,-106.6799,1603,-0.961,2008-01-07
sevilletashrub,34.334956,-106.744469,1603,-0.897,2008-01-07
sevMRME10L,34.3438,-106.7269,1604,-0.932,2008-01-07
sevMRME11C,34.3438,-106.7268,1604,-0.932,2008-01-07
sevMRME1S,34.3442,-106.7272,1604,-0.932,2008-01-07
sevpjrm12,34.38615,-106.52621,1905,-1.155,2008-01-07
sevpjrm13,34.38631,-106.52791,1914,-1.155,2008-01-07
shalehillsczo,40.6658,-77.9041,310,0.693,2008-01-07
shenandoah,38.6167,-78.35,1037,-0.415,2008-01-07
silverton,44.9986,-122.6948,347,0.398,2008-01-07
siwetland,38.0369,-121.7546,-5,-0.557,2008-01-07
slatefloodplain,38.9094,-107.0282,2725,0.061,2008-01-07
snodgrass1,38.92619636,-106.9714376,3023,0.07,2008-01-07
snodgrass2,38.92619636,-106.9714376,3023,0.07,2008-01-07
snodgrass3,38.92839978,-106.9781196,3141,0.07,2008-01-07
snodgrass4,38.92839978,-106.9781196,3141,0.07,2008-01-07
snodgrass5,38.92744789,-106.9785209,3152,0.07,2008-01-07
snodgrass6,38.92744789,-106.9785209,3152,0.07,2008-01-07
snodgrass7,38.93142134,-106.9852388,3363,0.024,2008-01-07
snodgrass8,38.93142134,-106.9852388,3363,0.024,2008-01-07
southerngreatplains,36.6058,-97.4888,314,0.507,2008-01-07
springfieldma,42.135162,-72.585972,56,0.15,2008-01-07
spruceA0EMI,47.5049,-93.4541,413,0.212,2008-01-07
spruceA0EMT,47.5049,-93.4541,418,0.212,2008-01-07
spruceA0P07,47.50493,-93.45314,413,0.212,2008-01-07
spruceA0P07SH,47.50493,-93.45314,413,0.212,2008-01-07
spruceA0P21,47.50625,-93.45275,413,0.212,2008-01-07
spruceA0P21SH,47.50625,-93.45275,413,0.212,2008-01-07
srg,31.7894,-110.8276,1281,-0.648,2008-01-07
srm,31.8214,-110.8661,1116,-0.711,2008-01-07
statenrice1,38.1235,-121.549,-5,-0.563,2008-01-07
stjones,39.088222,-75.43725,2,0.575,2008-01-07
sweetbriar,37.57341,-79.08482,242,-0.167,2008-01-07
sweetbriarclearcut,37.5753,-79.0872,242,-0.167,2008-01-07
sweetbriargrass,37.5605,-79.0884,240,-0.167,2008-01-07
sylvania,46.242,-89.348,540,-0.121,2008-01-07
templefieldstation1,40.1667,-75.1894,105,0.725,2008-01-07
tfforest,43.1086,-70.9505,23,0.204,2008-01-07
tidmarshplymouth,41.9157,-70.5754,9,-0.295,2008-01-07
tonzi,38.43091667,-120.9658861,177,-0.592,2008-01-07
townsenddemeadow,39.3917,-75.6281,11,0.503,2008-01-07
tsubiology,36.1671,-86.8295,164,0.381,2008-01-07
tsubiology2,36.1171,-86.8295,100,0.245,2008-01-07
tuckerprairie,38.9491,-91.9952,274,-0.418,2008-01-07
twodafo,29.1658,-95.829,16,-0.951,2008-01-07
tworfaa,31.4777,-96.8882,167,-0.911,2008-01-07
tworfpr,31.4802,-96.8826,162,-0.934,2008-01-07
tworfta,31.4693,-96.8864,173,-0.911,2008-01-07
twosfpr,30.6176,-97.2938,157,-0.872,2008-01-07
ucnrsanzaborrego,33.2401,-116.3886,214,-0.438,2008-01-07
ufona,27.3836,-81.950856,25,-1.071,2008-01-07
uiefmaize2,40.0628,-88.1961,224,-0.053,2008-01-07
uiefmiscanthus2,40.0628,-88.1984,221,-0.053,2008-01-07
uiefprairie2,40.0637,-88.1973,224,-0.053,2008-01-07
uiefsorghum,40.0065,-88.2032,224,-0.1,2008-01-07
uiefswitchgrass2,40.0637,-88.1973,224,-0.053,2008-01-07
umichbiological,45.55984,-84.71382,230,-0.426,2008-01-07
umichbiological2,45.5625,-84.6976,240,-0.35,2008-01-07
unca,35.5951,-82.5515,650,-0.912,2008-01-07
usgseros,43.7343,-96.6234,448,0.573,2008-01-07
usmpj,34.43845,-106.2543606,2126,-1.215,2008-01-07
usof5,35.7297,-90.0406,70,0.824,2008-01-07
usof6,35.7333,-90.0403,70,0.824,2008-01-07
uwmfieldsta,43.38709,-88.0229,265,-0.25,2008-01-07
vaira,38.41328056,-120.9506361,129,-0.592,2008-01-07
vallesburnedconifer,35.8884,-106.5321,3043,-0.315,2008-01-07
vallesmixedconifer,35.9192,-106.6142,2752,-0.356,2008-01-07
vallesponderosapine,35.864,-106.5964,2501,-0.407,2008-01-07
waahila,21.3017,-157.8152,55,-9999.0,2008-01-07
warrenwilson,35.6069,-82.4421,2198,-0.927,2008-01-07
willamettepoplar,44.1368,-123.1823,112,-0.248,2008-01-07
willowcreek,45.805986,-90.07912,521,-0.153,2008-01-07
windriver,45.8212833,-121.9520833,371,0.232,2008-01-07
windriverunderstory,45.8212833,-121.9520833,371,0.232,2008-01-07
wolfesneckfarm,43.8305,-70.0715,16,0.426,2008-01-07
worcester,42.2697,-71.8428,185,-0.17,2008-01-07
alligatorriver,35.7879,-75.9038,1,-0.669,2008-01-14
arbutuslake,43.98207,-74.23322,535,1.86,2008-01-14
arbutuslakeinlet,43.99336,-74.24527,527,1.86,2008-01-14
archboldavir,27.176064,-81.21958,8,-0.722,2008-01-14
archboldavirx,27.166627,-81.219828,8,-0.722,2008-01-14
archboldbahia,27.1656,-81.216112,8,-0.722,2008-01-14
archboldpnot,27.187948,-81.200345,9,-0.722,2008-01-14
archboldpnotx,27.180677,-81.20068,9,-0.722,2008-01-14
arkansascornsoy,34.416,-91.6723,61,-0.747,2008-01-14
arsbrooks10,41.9749,-93.6905,312,-0.941,2008-01-14
arsbrooks11,41.9744,-93.6937,313,-0.941,2008-01-14
arscolesnorth,42.4884,-93.5225,356,-0.91,2008-01-14
arscolessouth,42.4816,-93.5235,352,-0.91,2008-01-14
arsgacp1,31.5109,-83.6179,96,-0.49,2008-01-14
arsgacp3,31.7563,-83.7516,139,-0.533,2008-01-14
arsgacp4,31.7093,-83.7287,127,-0.639,2008-01-14
arsgreatbasinltar098,43.1675,-116.7132,1426,-0.749,2008-01-14
arsgreatbasinltar117,43.1432,-116.7357,1625,-0.496,2008-01-14
arsgreatbasinltar177,43.0645,-116.7484,2114,-0.31,2008-01-14
arsltarmdcr,39.0587,-75.8513,17,0.456,2008-01-14
arsltarmdcrnatw,39.0575,-75.7531,16,0.457,2008-01-14
arsltarmdcrprcw,39.0667,-75.7609,17,0.457,2008-01-14
arsltarmdcrresw,39.0549,-75.7532,16,0.457,2008-01-14
arsltarucbec1,40.7537,-78.0057,400,0.968,2008-01-14
arsltarucbec2,40.7558,-77.9999,396,0.968,2008-01-14
arsmnswanlake1,45.684508,-95.799703,370,-0.896,2008-01-14
arsmorris1,45.6167,-96.1269,341,-0.842,2008-01-14
arsmorris2,45.627,-96.127,338,-0.842,2008-01-14
arsmorris3,45.6091,-96.1265,342,-0.842,2008-01-14
arsope3ltar,39.0309,-76.8442,41,0.582,2008-01-14
ashburnham,42.6029,-71.926,292,-0.041,2008-01-14
asuhighlands,36.2076,-81.7032,1016,-0.589,2008-01-14
austincary,29.738,-82.2188,44,-0.895,2008-01-14
barrow,71.28007453,-156.6091492,5,-9999.0,2008-01-14
bartlettir,44.0646,-71.2881,268,0.92,2008-01-14
bigtraillake,64.9194,-147.822,190,-9999.0,2008-01-14
bitterbrush001,48.154,-119.9456,667,-0.413,2008-01-14
blackrockforest,41.3974,-74.0239,427,0.802,2008-01-14
bnzblackspruce,64.6963,-148.3235,102,-9999.0,2008-01-14
bnzrichfen,64.70134,-148.31195,97,-9999.0,2008-01-14
bnzthermokarstbog,64.6955,-148.3208,104,-9999.0,2008-01-14
boglakepeatland,47.5051,-93.4893,416,-0.976,2008-01-14
bostoncommon,42.355912,-71.064145,10,-0.175,2008-01-14
bostonu,42.35041,-71.10438,10,-0.163,2008-01-14
bouldinalfalfa,38.0985,-121.4993,-5,-0.514,2008-01-14
bouldincorn,38.109,-121.535,-5,-0.509,2008-01-14
bozeman,45.783056,-110.777778,2332,-0.366,2008-01-14
brackishimpoundment,33.2015,-79.2973,1,-1.104,2008-01-14
bullshoals,36.562833,-93.06663,260,-0.99,2008-01-14
burnssagebrush,43.4712,-119.6909,1398,-0.344,2008-01-14
butte,45.95304,-112.47964,1682,-1.07,2008-01-14
butterice,39.5793,-121.858,33,-0.817,2008-01-14
cafboydnorthltar01,46.755104,-117.126052,795,-0.199,2008-01-14
cafboydsouthltar01,46.751809,-117.128502,795,-0.199,2008-01-14
cafcookeastltar01,46.78152,-117.0821,794,-0.135,2008-01-14
cafcookwestltar01,46.784037,-117.09083,807,-0.135,2008-01-14
caryinstitute,41.7839,-73.7341,127,0.846,2008-01-14
centralredwoods1,38.632272,-123.301511,200,-0.341,2008-01-14
centralredwoods2,38.632272,-123.301511,200,-0.341,2008-01-14
cperagm,40.8402,-104.7672,1644,-0.088,2008-01-14
cperheavy,40.8153,-104.7386,1652,-0.111,2008-01-14
cpertgm,40.833,-104.76,1644,-0.117,2008-01-14
cperuvb,40.8055764,-104.7558542,1641,-0.117,2008-01-14
cuny,40.8162,-73.9507,42,-0.015,2008-01-14
doverdesaltmarsh,39.0888,-75.4368,0,0.613,2008-01-14
downerwoods,43.07938,-87.88076,213,-0.565,2008-01-14
dukehw,35.973583,-79.100371,400,-0.587,2008-01-14
ecb1,41.5348,-84.8068,275,1.373,2008-01-14
ecb2,41.5321,-84.808,275,1.373,2008-01-14
ecb4,41.1796,-83.0604,240,1.16,2008-01-14
elverde,18.320654,-65.8199,312,-9999.0,2008-01-14
flagstaff,35.17961521,-111.6049032,6983,0.089,2008-01-14
flagstaff2,35.179225,-111.604506,6983,0.089,2008-01-14
flagstaffchimneysprings,35.257296,-111.678542,2250,0.19,2008-01-14
forbes,39.232,-121.2972,360,-0.467,2008-01-14
fortpaynealpasture1,34.3824,-85.6428,405,-0.917,2008-01-14
fortpaynealpasture2,34.3824,-85.6447,403,-0.917,2008-01-14
gcesapelo,31.4440444,-81.283528,0,-0.927,2008-01-14
gilberttract,38.0015,-121.6691,6,-0.522,2008-01-14
glees,41.3644,-106.2394,3150,-0.175,2008-01-14
glennorganicrice,39.6805,-122.0026,2,-1.006,2008-01-14
glennrice,39.5944,-122.0253,36,-0.99,2008-01-14
goodnow,43.96018,-74.20994,820,1.877,2008-01-14
goodwater,39.22848,-92.11936,264,-0.079,2008-01-14
goodwaterbau,39.23115,-92.15216,274,-0.101,2008-01-14
grandteton,43.915017,-110.578036,2054,0.329,2008-01-14
grca1pj,36.0241,-112.2211,1978,-0.598,2008-01-14
greenridge1,39.6905,-78.4067,285,0.843,2008-01-14
harvard,42.5378,-72.1715,340,0.239,2008-01-14
harvardbarn,42.53532,-72.1899,350,0.236,2008-01-14
harvardbarn2,42.53532,-72.1899,350,0.236,2008-01-14
harvardems2,42.5378,-72.1715,340,0.239,2008-01-14
harvardfarmnorth,42.520465,-72.182242,355,0.236,2008-01-14
harvardfarmsouth,42.522466,-72.182339,355,0.236,2008-01-14
harvardgarden,42.5291,-72.1863,335,0.236,2008-01-14
harvardhemlock,42.539,-72.18,355,0.236,2008-01-14
harvardhemlock2,42.539407,-72.177976,355,0.239,2008-01-14
harvardlph,42.542,-72.185,380,0.236,2008-01-14
hawbeckereddy,40.6608,-77.848849,310,0.954,2008-01-14
hobcawclearcutlongleaf,33.3486,-79.232,4,-1.109,2008-01-14
hobcawmaturelongleaf,33.3242,-79.2439,8,-1.109,2008-01-14
homesteadsprings,37.2009,-92.9937,452,-0.435,2008-01-14
howland1,45.2041,-68.7403,80,1.512,2008-01-14
howland2,45.2128,-68.7418,79,1.512,2008-01-14
hubbardbrook,43.9438,-71.701,253,0.493,2008-01-14
humnokericea,34.585192,-91.751684,61,-0.687,2008-01-14
humnokericec,34.588853,-91.7516729,70,-0.687,2008-01-14
huyckpreserveny,42.5266,-74.1587,478,0.794,2008-01-14
hwmo1,20.0212,-155.7331,585,-9999.0,2008-01-14
hwmo2,19.9766,-155.8298,12,-9999.0,2008-01-14
hwmo5,20.1117,-155.8151,635,-9999.0,2008-01-14
ibp,32.589,-106.847,1325,-0.902,2008-01-14
imcrkfen,68.60583,-149.31101,900,-9999.0,2008-01-14
imcrkridge0,68.60681,-149.2958,951,-9999.0,2008-01-14
imcrkridge1,68.60681,-149.2958,951,-9999.0,2008-01-14
imcrktussock,68.60633,-149.30408,918,-9999.0,2008-01-14
jasperridge,37.402028,-122.22104,197,-0.76,2008-01-14
jerbajada,32.57992,-106.633793,1402,-0.883,2008-01-14
jergrassland,32.5833,-106.8333,1331,-0.902,2008-01-14
jernort,32.619,-106.788,1328,-0.915,2008-01-14
jernovel,32.6335,-106.8334,1324,-0.924,2008-01-14
jernwern,32.6271,-106.7387,1325,-0.95,2008-01-14
jersand,32.515,-106.798,1363,-0.957,2008-01-14
jershrubland,32.6502,-106.8334,1328,-0.94,2008-01-14
junipersavannah,34.4254,-105.8615,1931,-0.817,2008-01-14
kamuela,20.015008,-155.661326,850,-9999.0,2008-01-14
kamuela2,20.014959,-155.661139,830,-9999.0,2008-01-14
kansas,39.0561,-95.1907,333,-0.18,2008-01-14
kelloggcorn,42.437536,-85.3225472,288,-0.278,2008-01-14
kempnrs,45.83992,-89.67755,539,-0.846,2008-01-14
kendall,31.73652,-109.94185,1529,-0.702,2008-01-14
konza,39.0824,-96.5603,443,-0.014,2008-01-14
laupahoehoe,19.9322,-155.2912,1145,-9999.0,2008-01-14
ldeocam,41.0039,-73.9053,121,0.09,2008-01-14
lostcreek,46.0827,-89.9792,480,-0.667,2008-01-14
luckyhills,31.743896,-110.052023,1366,-0.745,2008-01-14
macleish,42.4484,-72.6804,251,0.189,2008-01-14
macordway,44.8106,-93.0272,264,-1.191,2008-01-14
mandanh5,46.775423,-100.95109,593,-1.546,2008-01-14
mandani2,46.7614,-100.9257,590,-1.537,2008-01-14
manilacotton,35.8872,-90.1371,73,0.154,2008-01-14
marena,36.06434,-97.21271,327,-0.156,2008-01-14
mead1,41.1651,-96.4766,361,-0.464,2008-01-14
mead2,41.1649,-96.4701,362,-0.464,2008-01-14
mead3,41.1797,-96.4397,363,-0.483,2008-01-14
meadpasture,41.1447,-96.4616,356,-0.448,2008-01-14
meadpasturese,41.1447,-96.4616,356,-0.448,2008-01-14
meadpasturesw,41.1447,-96.4616,356,-0.448,2008-01-14
missouriozarks,38.7441,-92.2,219,-0.391,2008-01-14
morganmonroe,39.3231,-86.4131,275,0.343,2008-01-14
morganmonroe2,39.3231,-86.4131,275,0.343,2008-01-14
nahuku,19.415187,-155.238383,1202,-9999.0,2008-01-14
nationalelkrefuge,43.488931,-110.737824,1899,-0.474,2008-01-14
ncssm,36.018446,-78.92075,175,-0.322,2008-01-14
NEON.D01.BART.DP1.00033,44.063869,-71.287375,285,0.92,2008-01-14
NEON.D01.HARV.DP1.00033,42.536911,-72.17265,359,0.239,2008-01-14
NEON.D01.HOPB.DP1.20002,42.471786,-72.329627,203,0.017,2008-01-14
NEON.D02.BLAN.DP1.00033,39.033698,-78.041788,162,0.005,2008-01-14
NEON.D02.LEWI.DP1.20002,39.09564,-77.98322,152,0.108,2008-01-14
NEON.D02.POSE.DP1.20002,38.89332,-78.14678,293,-0.164,2008-01-14
NEON.D02.SCBI.DP1.00033,38.892925,-78.139494,364,-0.211,2008-01-14
NEON.D02.SERC.DP1.00033,38.89008,-76.56001,30,0.502,2008-01-14
NEON.D03.BARC.DP1.20002,29.676473,-82.009089,35,-0.885,2008-01-14
NEON.D03.DSNY.DP1.00033,28.12505,-81.43619,22,-1.028,2008-01-14
NEON.D03.FLNT.DP1.20002,31.185424,-84.437403,27,-0.459,2008-01-14
NEON.D03.JERC.DP1.00033,31.194839,-84.468623,58,-0.438,2008-01-14
NEON.D03.OSBS.DP1.00033,29.689282,-81.993431,56,-0.876,2008-01-14
NEON.D03.SUGG.DP1.20002,29.687054,-82.016171,28,-0.876,2008-01-14
NEON.D04.CUPE.DP1.20002,18.11352,-66.98676,164,-9999.0,2008-01-14
NEON.D04.GUAN.DP1.00033,17.96955,-66.8687,136,-9999.0,2008-01-14
NEON.D04.GUIL.DP1.20002,18.1741,-66.79851,564,-9999.0,2008-01-14
NEON.D04.LAJA.DP1.00033,18.021261,-67.076889,22,-9999.0,2008-01-14
NEON.D05.CRAM.DP1.20002,46.21111,-89.47825,518,-0.575,2008-01-14
NEON.D05.LIRO.DP1.20002,45.998269,-89.704767,495,-0.909,2008-01-14
NEON.D05.STEI.DP1.00033,45.50894,-89.58637,476,-1.008,2008-01-14
NEON.D05.TREE.DP1.00033,45.49373,-89.58572,474,-1.008,2008-01-14
NEON.D05.UNDE.DP1.00033,46.23391,-89.537254,529,-0.592,2008-01-14
NEON.D06.KING.DP1.20002,39.10506,-96.60336,339,-0.008,2008-01-14
NEON.D06.KONA.DP1.00033,39.110446,-96.612935,443,-0.008,2008-01-14
NEON.D06.KONZ.DP1.00033,39.10077,-96.56309,415,-0.014,2008-01-14
NEON.D06.MCDI.DP1.20002,38.94428,-96.44197,376,0.093,2008-01-14
NEON.D06.UKFS.DP1.00033,39.040431,-95.19215,330,-0.18,2008-01-14
NEON.D07.GRSM.DP1.00033,35.68896,-83.50195,589,-0.941,2008-01-14
NEON.D07.LECO.DP1.20002,35.69043,-83.50379,578,-0.941,2008-01-14
NEON.D07.MLBS.DP1.00033,37.378314,-80.524847,1177,0.187,2008-01-14
NEON.D07.ORNL.DP1.00033,35.964128,-84.282588,351,-0.548,2008-01-14
NEON.D07.WALK.DP1.20002,35.95947,-84.28041,274,-0.512,2008-01-14
NEON.D08.BLWA.DP1.20002,32.541529,-87.798151,23,-1.083,2008-01-14
NEON.D08.DELA.DP1.00033,32.541727,-87.803877,36,-1.083,2008-01-14
NEON.D08.LENO.DP1.00033,31.85388,-88.16122,10,-0.788,2008-01-14
NEON.D08.MAYF.DP1.20002,32.959657,-87.408128,93,-1.368,2008-01-14
NEON.D08.TALL.DP1.00033,32.95047,-87.393259,167,-1.368,2008-01-14
NEON.D08.TOMB.DP1.20002,31.853431,-88.158872,10,-0.788,2008-01-14
NEON.D09.DCFS.DP1.00033,47.161647,-99.106556,574,-1.418,2008-01-14
NEON.D09.NOGP.DP1.00033,46.76972,-100.91535,589,-1.537,2008-01-14
NEON.D09.PRLA.DP1.20002,47.15909,-99.11388,563,-1.43,2008-01-14
NEON.D09.PRPO.DP1.20002,47.12999,-99.250551,587,-1.452,2008-01-14
NEON.D09.WOOD.DP1.00033,47.1282,-99.241334,585,-1.452,2008-01-14
NEON.D10.ARIK.DP1.20002,39.758246,-102.447103,1188,-0.234,2008-01-14
NEON.D10.CPER.DP1.00033,40.81553,-104.7456,1600,-0.117,2008-01-14
NEON.D10.HQTW.DP1.00033,40.016704,-105.245612,1601,-0.573,2008-01-14
NEON.D10.RMNP.DP1.00033,40.275903,-105.545955,2751,-0.981,2008-01-14
NEON.D10.STER.DP1.00033,40.461894,-103.02929,1366,-0.048,2008-01-14
NEON.D11.BLUE.DP1.20002,34.444218,-96.624201,288,-0.919,2008-01-14
NEON.D11.CLBJ.DP1.00033,33.40123,-97.57,279,-1.004,2008-01-14
NEON.D11.OAES.DP1.00033,35.41059,-99.05879,520,-0.401,2008-01-14
NEON.D11.PRIN.DP1.20002,33.37859,-97.78226,255,-0.963,2008-01-14
NEON.D12.BLDE.DP1.20002,44.95011,-110.58715,2035,-0.635,2008-01-14
NEON.D12.YELL.DP1.00033,44.95348,-110.53914,2130,-0.492,2008-01-14
NEON.D13.COMO.DP1.20002,40.03496,-105.54487,3036,-0.974,2008-01-14
NEON.D13.MOAB.DP1.00033,38.24833,-109.38827,1803,-0.197,2008-01-14
NEON.D13.NIWO.DP1.00033,40.05425,-105.58237,3493,-1.084,2008-01-14
NEON.D13.WLOU.DP1.20002,39.891366,-105.915395,2920,-0.271,2008-01-14
NEON.D14.JORN.DP1.00033,32.59068,-106.84254,1321,-0.902,2008-01-14
NEON.D14.SRER.DP1.00033,31.91068,-110.83549,999,-0.638,2008-01-14
NEON.D14.SYCA.DP1.20002,33.749057,-111.506903,644,0.14,2008-01-14
NEON.D15.ONAQ.DP1.00033,40.177599,-112.452452,1655,0.085,2008-01-14
NEON.D15.REDB.DP1.20002,40.783934,-111.797887,1696,-0.226,2008-01-14
NEON.D16.ABBY.DP1.00033,45.76243,-122.33033,390,0.067,2008-01-14
NEON.D16.MART.DP1.20002,45.791248,-121.931959,354,0.319,2008-01-14
NEON.D16.MCRA.DP1.20002,44.259598,-122.165554,880,0.402,2008-01-14
NEON.D16.WREF.DP1.00033,45.82049,-121.95191,368,0.274,2008-01-14
NEON.D17.BIGC.DP1.20002,37.059719,-119.257549,1133,-0.27,2008-01-14
NEON.D17.SJER.DP1.00033,37.10878,-119.73228,398,-0.273,2008-01-14
NEON.D17.SOAP.DP1.00033,37.03337,-119.26219,1210,-0.137,2008-01-14
NEON.D17.TEAK.DP1.00033,37.00583,-119.00602,2149,-0.233,2008-01-14
NEON.D17.TECR.DP1.20002,36.955931,-119.027363,2053,-0.332,2008-01-14
NEON.D18.BARR.DP1.00033,71.28241,-156.61936,7,-9999.0,2008-01-14
NEON.D18.OKSR.DP1.20002,68.669753,-149.143018,773,-9999.0,2008-01-14
NEON.D18.TOOK.DP1.20002,68.629562,-149.610509,715,-9999.0,2008-01-14
NEON.D18.TOOL.DP1.00033,68.66109,-149.37047,827,-9999.0,2008-01-14
NEON.D19.BONA.DP1.00033,65.15401,-147.50258,233,-9999.0,2008-01-14
NEON.D19.CARI.DP1.20002,65.15306,-147.50246,229,-9999.0,2008-01-14
NEON.D19.DEJU.DP1.00033,63.88112,-145.75136,504,-9999.0,2008-01-14
NEON.D19.HEAL.DP1.00033,63.87569,-149.21334,409,-9999.0,2008-01-14
NEON.D20.PUUM.DP1.00033,19.55309,-155.31731,1683,-9999.0,2008-01-14
nevcansnk3a,39.0099,-114.3095,3063,-0.444,2008-01-14
nevcanspg1a,38.9253,-114.4082,1792,-0.179,2008-01-14
nevcanspg2a,38.8921,-114.3521,2203,-0.319,2008-01-14
nevcanspg3a,38.8898,-114.3314,2820,-0.467,2008-01-14
nevcanspg4a,38.9061,-114.3089,3360,-0.467,2008-01-14
ninemileprairie,40.86801886,-96.82208066,381,-0.61,2008-01-14
nist,39.139,-77.2125,100,-0.034,2008-01-14
niwot3,40.03286358,-105.5469702,3050,-0.974,2008-01-14
niwot5,40.03286358,-105.5469702,2993,-0.974,2008-01-14
northattleboroma,41.98369,-71.31056,60,-0.281,2008-01-14
northinletsaltmarsh,33.3455,-79.1957,1,-1.119,2008-01-14
oakville,47.899334,-97.316139,268,-1.062,2008-01-14
oregonMP,44.4523,-121.5574,1253,0.313,2008-01-14
oregonYP,44.32384,-121.605993,977,0.273,2008-01-14
oregonYPbud,44.3238,-121.606,977,0.273,2008-01-14
othshardwood,44.934805,-68.6655,41,1.171,2008-01-14
othssoftwood,44.934527,-68.664888,41,1.171,2008-01-14
pace,37.9229,-78.2739,100,-0.284,2008-01-14
parkschoolbuffalo,42.9637,-78.7834,205,1.09,2008-01-14
piedmontalpasture2,33.8875,-85.6935,238,-1.142,2008-01-14
portal,31.9385,-109.0823,1330,-0.587,2008-01-14
proctor,44.525,-72.866,403,1.395,2008-01-14
readingma,42.5304,-71.1272,100,-0.098,2008-01-14
robinson,37.4671,-83.1576,483,0.453,2008-01-14
robinson2,37.4671,-83.1576,483,0.453,2008-01-14
rosemountcons,44.6946,-93.0578,283,-1.225,2008-01-14
rosemountconv,44.691,-93.0576,283,-1.225,2008-01-14
rosemountnprs,44.6781,-93.0723,274,-1.306,2008-01-14
russellsage,32.456961,-91.974322,20,-1.324,2008-01-14
sagehen,39.4315,-120.2398,1934,-0.503,2008-01-14
sagehen2,39.4307,-120.2407,1937,-0.503,2008-01-14
sagehen3,39.4311,-120.2405,1935,-0.503,2008-01-14
sanford,42.726777,-84.464482,268,-0.488,2008-01-14
santacruz1,36.9741,-122.0308,11,-0.563,2008-01-14
santacruz2,36.9741,-122.0308,11,-0.563,2008-01-14
santaluciapreserve1,36.5265,-121.8682,500,-0.808,2008-01-14
santaluciapreserve2,36.5265,-121.8682,500,-0.808,2008-01-14
segaarboretum10,35.16209,-111.73151,2170,0.03,2008-01-14
segaarboretum2,35.16209,-111.73151,2170,0.03,2008-01-14
segaarboretum3,35.16209,-111.73151,2170,0.03,2008-01-14
segaarboretum4,35.16214,-111.73153,2170,0.03,2008-01-14
segaarboretum6,35.16209,-111.73151,2170,0.03,2008-01-14
segaarboretum9,35.16222,-111.73158,2170,0.03,2008-01-14
segaarboretumforest,35.1613,-111.7359,2173,0.03,2008-01-14
segaarboretummeadow,35.1621,-111.7316,2157,0.03,2008-01-14
segablackpoint,35.6814,-111.4754,1566,-0.446,2008-01-14
segabluechute,35.5876,-111.9716,1930,-0.128,2008-01-14
segabluechute1,35.58759,-111.97115,1931,-0.128,2008-01-14
segabluechute2,35.58759,-111.97115,1931,-0.128,2008-01-14
segabluechute4,35.58759,-111.9716,1931,-0.128,2008-01-14
segabluechute6,35.58759,-111.97115,1931,-0.128,2008-01-14
segabluechute7,35.58759,-111.97115,1931,-0.128,2008-01-14
segabluechute8,35.58759,-111.97115,1931,-0.128,2008-01-14
segabradshaw,34.9109,-111.9285,1402,0.068,2008-01-14
segahartprairie,35.3536,-111.7324,2585,0.311,2008-01-14
segalcr,35.7231,-111.321,1275,-0.52,2008-01-14
segalcr2,35.7069,-111.36,1495,-0.415,2008-01-14
segalittlemountain,36.5865,-112.3634,2276,-0.079,2008-01-14
segasoapcreek,36.751,-111.716,1233,-0.442,2008-01-14
segawhitepockets,36.6081,-112.4082,2057,-0.132,2008-01-14
sevilletagrass,34.360444,-106.700186,1600,-0.606,2008-01-14
sevilletanewgrass,34.358,-106.6799,1603,-0.673,2008-01-14
sevilletashrub,34.334956,-106.744469,1603,-0.609,2008-01-14
sevMRME10L,34.3438,-106.7269,1604,-0.651,2008-01-14
sevMRME11C,34.3438,-106.7268,1604,-0.651,2008-01-14
sevMRME1S,34.3442,-106.7272,1604,-0.651,2008-01-14
sevpjrm12,34.38615,-106.52621,1905,-0.908,2008-01-14
sevpjrm13,34.38631,-106.52791,1914,-0.908,2008-01-14
shalehillsczo,40.6658,-77.9041,310,0.945,2008-01-14
shenandoah,38.6167,-78.35,1037,-0.402,2008-01-14
silverton,44.9986,-122.6948,347,0.36,2008-01-14
siwetland,38.0369,-121.7546,-5,-0.598,2008-01-14
slatefloodplain,38.9094,-107.0282,2725,0.753,2008-01-14
snodgrass1,38.92619636,-106.9714376,3023,0.749,2008-01-14
snodgrass2,38.92619636,-106.9714376,3023,0.749,2008-01-14
snodgrass3,38.92839978,-106.9781196,3141,0.749,2008-01-14
snodgrass4,38.92839978,-106.9781196,3141,0.749,2008-01-14
snodgrass5,38.92744789,-106.9785209,3152,0.749,2008-01-14
snodgrass6,38.92744789,-106.9785209,3152,0.749,2008-01-14
snodgrass7,38.93142134,-106.9852388,3363,0.694,2008-01-14
snodgrass8,38.93142134,-106.9852388,3363,0.694,2008-01-14
southerngreatplains,36.6058,-97.4888,314,-0.182,2008-01-14
springfieldma,42.135162,-72.585972,56,0.1,2008-01-14
spruceA0EMI,47.5049,-93.4541,413,-0.962,2008-01-14
spruceA0EMT,47.5049,-93.4541,418,-0.962,2008-01-14
spruceA0P07,47.50493,-93.45314,413,-0.962,2008-01-14
spruceA0P07SH,47.50493,-93.45314,413,-0.962,2008-01-14
spruceA0P21,47.50625,-93.45275,413,-0.962,2008-01-14
spruceA0P21SH,47.50625,-93.45275,413,-0.962,2008-01-14
srg,31.7894,-110.8276,1281,-0.568,2008-01-14
srm,31.8214,-110.8661,1116,-0.615,2008-01-14
statenrice1,38.1235,-121.549,-5,-0.475,2008-01-14
stjones,39.088222,-75.43725,2,0.613,2008-01-14
sweetbriar,37.57341,-79.08482,242,-0.216,2008-01-14
sweetbriarclearcut,37.5753,-79.0872,242,-0.216,2008-01-14
sweetbriargrass,37.5605,-79.0884,240,-0.216,2008-01-14
sylvania,46.242,-89.348,540,-0.566,2008-01-14
templefieldstation1,40.1667,-75.1894,105,0.672,2008-01-14
tfforest,43.1086,-70.9505,23,0.257,2008-01-14
tidmarshplymouth,41.9157,-70.5754,9,-0.303,2008-01-14
tonzi,38.43091667,-120.9658861,177,-0.454,2008-01-14
townsenddemeadow,39.3917,-75.6281,11,0.54,2008-01-14
tsubiology,36.1671,-86.8295,164,0.475,2008-01-14
tsubiology2,36.1171,-86.8295,100,0.41,2008-01-14
tuckerprairie,38.9491,-91.9952,274,-0.348,2008-01-14
twodafo,29.1658,-95.829,16,-1.225,2008-01-14
tworfaa,31.4777,-96.8882,167,-1.018,2008-01-14
tworfpr,31.4802,-96.8826,162,-1.023,2008-01-14
tworfta,31.4693,-96.8864,173,-1.018,2008-01-14
twosfpr,30.6176,-97.2938,157,-0.993,2008-01-14
ucnrsanzaborrego,33.2401,-116.3886,214,-0.237,2008-01-14
ufona,27.3836,-81.950856,25,-1.164,2008-01-14
uiefmaize2,40.0628,-88.1961,224,0.192,2008-01-14
uiefmiscanthus2,40.0628,-88.1984,221,0.192,2008-01-14
uiefprairie2,40.0637,-88.1973,224,0.192,2008-01-14
uiefsorghum,40.0065,-88.2032,224,0.13,2008-01-14
uiefswitchgrass2,40.0637,-88.1973,224,0.192,2008-01-14
umichbiological,45.55984,-84.71382,230,-0.269,2008-01-14
umichbiological2,45.5625,-84.6976,240,-0.21,2008-01-14
unca,35.5951,-82.5515,650,-0.936,2008-01-14
usgseros,43.7343,-96.6234,448,-0.974,2008-01-14
usmpj,34.43845,-106.2543606,2126,-1.011,2008-01-14
usof5,35.7297,-90.0406,70,0.352,2008-01-14
usof6,35.7333,-90.0403,70,0.352,2008-01-14
uwmfieldsta,43.38709,-88.0229,265,-0.27,2008-01-14
vaira,38.41328056,-120.9506361,129,-0.454,2008-01-14
vallesburnedconifer,35.8884,-106.5321,3043,0.133,2008-01-14
vallesmixedconifer,35.9192,-106.6142,2752,0.112,2008-01-14
vallesponderosapine,35.864,-106.5964,2501,0.076,2008-01-14
waahila,21.3017,-157.8152,55,-9999.0,2008-01-14
warrenwilson,35.6069,-82.4421,2198,-0.94,2008-01-14
willamettepoplar,44.1368,-123.1823,112,-0.4,2008-01-14
willowcreek,45.805986,-90.07912,521,-0.798,2008-01-14
windriver,45.8212833,-121.9520833,371,0.274,2008-01-14
windriverunderstory,45.8212833,-121.9520833,371,0.274,2008-01-14
wolfesneckfarm,43.8305,-70.0715,16,0.256,2008-01-14
worcester,42.2697,-71.8428,185,-0.164,2008-01-14
alligatorriver,35.7879,-75.9038,1,-0.966,2008-01-21
arbutuslake,43.98207,-74.23322,535,1.53,2008-01-21
arbutuslakeinlet,43.99336,-74.24527,527,1.53,2008-01-21
archboldavir,27.176064,-81.21958,8,-0.851,2008-01-21
archboldavirx,27.166627,-81.219828,8,-0.851,2008-01-21
archboldbahia,27.1656,-81.216112,8,-0.851,2008-01-21
archboldpnot,27.187948,-81.200345,9,-0.851,2008-01-21
archboldpnotx,27.180677,-81.20068,9,-0.851,2008-01-21
arkansascornsoy,34.416,-91.6723,61,-1.027,2008-01-21
arsbrooks10,41.9749,-93.6905,312,-0.721,2008-01-21
arsbrooks11,41.9744,-93.6937,313,-0.721,2008-01-21
arscolesnorth,42.4884,-93.5225,356,-0.711,2008-01-21
arscolessouth,42.4816,-93.5235,352,-0.711,2008-01-21
arsgacp1,31.5109,-83.6179,96,-0.524,2008-01-21
arsgacp3,31.7563,-83.7516,139,-0.521,2008-01-21
arsgacp4,31.7093,-83.7287,127,-0.636,2008-01-21
arsgreatbasinltar098,43.1675,-116.7132,1426,-0.922,2008-01-21
arsgreatbasinltar117,43.1432,-116.7357,1625,-0.711,2008-01-21
arsgreatbasinltar177,43.0645,-116.7484,2114,-0.523,2008-01-21
arsltarmdcr,39.0587,-75.8513,17,0.1,2008-01-21
arsltarmdcrnatw,39.0575,-75.7531,16,0.139,2008-01-21
arsltarmdcrprcw,39.0667,-75.7609,17,0.139,2008-01-21
arsltarmdcrresw,39.0549,-75.7532,16,0.139,2008-01-21
arsltarucbec1,40.7537,-78.0057,400,0.749,2008-01-21
arsltarucbec2,40.7558,-77.9999,396,0.749,2008-01-21
arsmnswanlake1,45.684508,-95.799703,370,-0.924,2008-01-21
arsmorris1,45.6167,-96.1269,341,-0.898,2008-01-21
arsmorris2,45.627,-96.127,338,-0.898,2008-01-21
arsmorris3,45.6091,-96.1265,342,-0.898,2008-01-21
arsope3ltar,39.0309,-76.8442,41,0.167,2008-01-21
ashburnham,42.6029,-71.926,292,0.233,2008-01-21
asuhighlands,36.2076,-81.7032,1016,-1.465,2008-01-21
austincary,29.738,-82.2188,44,-1.034,2008-01-21
barrow,71.28007453,-156.6091492,5,-9999.0,2008-01-21
bartlettir,44.0646,-71.2881,268,1.209,2008-01-21
bigtraillake,64.9194,-147.822,190,-9999.0,2008-01-21
bitterbrush001,48.154,-119.9456,667,-0.315,2008-01-21
blackrockforest,41.3974,-74.0239,427,0.945,2008-01-21
bnzblackspruce,64.6963,-148.3235,102,-9999.0,2008-01-21
bnzrichfen,64.70134,-148.31195,97,-9999.0,2008-01-21
bnzthermokarstbog,64.6955,-148.3208,104,-9999.0,2008-01-21
boglakepeatland,47.5051,-93.4893,416,-0.995,2008-01-21
bostoncommon,42.355912,-71.064145,10,0.177,2008-01-21
bostonu,42.35041,-71.10438,10,0.184,2008-01-21
bouldinalfalfa,38.0985,-121.4993,-5,-0.625,2008-01-21
bouldincorn,38.109,-121.535,-5,-0.615,2008-01-21
bozeman,45.783056,-110.777778,2332,-0.317,2008-01-21
brackishimpoundment,33.2015,-79.2973,1,-1.204,2008-01-21
bullshoals,36.562833,-93.06663,260,-1.198,2008-01-21
burnssagebrush,43.4712,-119.6909,1398,-0.307,2008-01-21
butte,45.95304,-112.47964,1682,-1.145,2008-01-21
butterice,39.5793,-121.858,33,-0.913,2008-01-21
cafboydnorthltar01,46.755104,-117.126052,795,0.007,2008-01-21
cafboydsouthltar01,46.751809,-117.128502,795,0.007,2008-01-21
cafcookeastltar01,46.78152,-117.0821,794,0.073,2008-01-21
cafcookwestltar01,46.784037,-117.09083,807,0.073,2008-01-21
caryinstitute,41.7839,-73.7341,127,1.015,2008-01-21
centralredwoods1,38.632272,-123.301511,200,-0.441,2008-01-21
centralredwoods2,38.632272,-123.301511,200,-0.441,2008-01-21
cperagm,40.8402,-104.7672,1644,0.045,2008-01-21
cperheavy,40.8153,-104.7386,1652,0.027,2008-01-21
cpertgm,40.833,-104.76,1644,0.038,2008-01-21
cperuvb,40.8055764,-104.7558542,1641,0.038,2008-01-21
cuny,40.8162,-73.9507,42,0.209,2008-01-21
doverdesaltmarsh,39.0888,-75.4368,0,0.233,2008-01-21
downerwoods,43.07938,-87.88076,213,-0.509,2008-01-21
dukehw,35.973583,-79.100371,400,-1.177,2008-01-21
ecb1,41.5348,-84.8068,275,1.351,2008-01-21
ecb2,41.5321,-84.808,275,1.351,2008-01-21
ecb4,41.1796,-83.0604,240,0.834,2008-01-21
elverde,18.320654,-65.8199,312,-9999.0,2008-01-21
flagstaff,35.17961521,-111.6049032,6983,0.217,2008-01-21
flagstaff2,35.179225,-111.604506,6983,0.217,2008-01-21
flagstaffchimneysprings,35.257296,-111.678542,2250,0.291,2008-01-21
forbes,39.232,-121.2972,360,-0.618,2008-01-21
fortpaynealpasture1,34.3824,-85.6428,405,-1.337,2008-01-21
fortpaynealpasture2,34.3824,-85.6447,403,-1.337,2008-01-21
gcesapelo,31.4440444,-81.283528,0,-1.085,2008-01-21
gilberttract,38.0015,-121.6691,6,-0.602,2008-01-21
glees,41.3644,-106.2394,3150,-0.322,2008-01-21
glennorganicrice,39.6805,-122.0026,2,-1.054,2008-01-21
glennrice,39.5944,-122.0253,36,-1.038,2008-01-21
goodnow,43.96018,-74.20994,820,1.562,2008-01-21
goodwater,39.22848,-92.11936,264,-0.119,2008-01-21
goodwaterbau,39.23115,-92.15216,274,-0.138,2008-01-21
grandteton,43.915017,-110.578036,2054,-0.285,2008-01-21
grca1pj,36.0241,-112.2211,1978,-0.409,2008-01-21
greenridge1,39.6905,-78.4067,285,0.307,2008-01-21
harvard,42.5378,-72.1715,340,0.5,2008-01-21
harvardbarn,42.53532,-72.1899,350,0.488,2008-01-21
harvardbarn2,42.53532,-72.1899,350,0.488,2008-01-21
harvardems2,42.5378,-72.1715,340,0.5,2008-01-21
harvardfarmnorth,42.520465,-72.182242,355,0.488,2008-01-21
harvardfarmsouth,42.522466,-72.182339,355,0.488,2008-01-21
harvardgarden,42.5291,-72.1863,335,0.488,2008-01-21
harvardhemlock,42.539,-72.18,355,0.488,2008-01-21
harvardhemlock2,42.539407,-72.177976,355,0.5,2008-01-21
harvardlph,42.542,-72.185,380,0.488,2008-01-21
hawbeckereddy,40.6608,-77.848849,310,0.747,2008-01-21
hobcawclearcutlongleaf,33.3486,-79.232,4,-1.26,2008-01-21
hobcawmaturelongleaf,33.3242,-79.2439,8,-1.26,2008-01-21
homesteadsprings,37.2009,-92.9937,452,-0.584,2008-01-21
howland1,45.2041,-68.7403,80,1.825,2008-01-21
howland2,45.2128,-68.7418,79,1.825,2008-01-21
hubbardbrook,43.9438,-71.701,253,0.685,2008-01-21
humnokericea,34.585192,-91.751684,61,-1.0,2008-01-21
humnokericec,34.588853,-91.7516729,70,-1.0,2008-01-21
huyckpreserveny,42.5266,-74.1587,478,0.735,2008-01-21
hwmo1,20.0212,-155.7331,585,-9999.0,2008-01-21
hwmo2,19.9766,-155.8298,12,-9999.0,2008-01-21
hwmo5,20.1117,-155.8151,635,-9999.0,2008-01-21
ibp,32.589,-106.847,1325,-0.78,2008-01-21
imcrkfen,68.60583,-149.31101,900,-9999.0,2008-01-21
imcrkridge0,68.60681,-149.2958,951,-9999.0,2008-01-21
imcrkridge1,68.60681,-149.2958,951,-9999.0,2008-01-21
imcrktussock,68.60633,-149.30408,918,-9999.0,2008-01-21
jasperridge,37.402028,-122.22104,197,-0.829,2008-01-21
jerbajada,32.57992,-106.633793,1402,-0.762,2008-01-21
jergrassland,32.5833,-106.8333,1331,-0.78,2008-01-21
jernort,32.619,-106.788,1328,-0.798,2008-01-21
jernovel,32.6335,-106.8334,1324,-0.791,2008-01-21
jernwern,32.6271,-106.7387,1325,-0.811,2008-01-21
jersand,32.515,-106.798,1363,-0.838,2008-01-21
jershrubland,32.6502,-106.8334,1328,-0.804,2008-01-21
junipersavannah,34.4254,-105.8615,1931,-0.609,2008-01-21
kamuela,20.015008,-155.661326,850,-9999.0,2008-01-21
kamuela2,20.014959,-155.661139,830,-9999.0,2008-01-21
kansas,39.0561,-95.1907,333,-0.245,2008-01-21
kelloggcorn,42.437536,-85.3225472,288,-0.184,2008-01-21
kempnrs,45.83992,-89.67755,539,-0.64,2008-01-21
kendall,31.73652,-109.94185,1529,-0.49,2008-01-21
konza,39.0824,-96.5603,443,0.129,2008-01-21
laupahoehoe,19.9322,-155.2912,1145,-9999.0,2008-01-21
ldeocam,41.0039,-73.9053,121,0.309,2008-01-21
lostcreek,46.0827,-89.9792,480,-0.373,2008-01-21
luckyhills,31.743896,-110.052023,1366,-0.506,2008-01-21
macleish,42.4484,-72.6804,251,0.373,2008-01-21
macordway,44.8106,-93.0272,264,-1.14,2008-01-21
mandanh5,46.775423,-100.95109,593,-1.465,2008-01-21
mandani2,46.7614,-100.9257,590,-1.458,2008-01-21
manilacotton,35.8872,-90.1371,73,-0.591,2008-01-21
marena,36.06434,-97.21271,327,-0.747,2008-01-21
mead1,41.1651,-96.4766,361,-0.287,2008-01-21
mead2,41.1649,-96.4701,362,-0.287,2008-01-21
mead3,41.1797,-96.4397,363,-0.304,2008-01-21
meadpasture,41.1447,-96.4616,356,-0.271,2008-01-21
meadpasturese,41.1447,-96.4616,356,-0.271,2008-01-21
meadpasturesw,41.1447,-96.4616,356,-0.271,2008-01-21
missouriozarks,38.7441,-92.2,219,-0.441,2008-01-21
morganmonroe,39.3231,-86.4131,275,-0.061,2008-01-21
morganmonroe2,39.3231,-86.4131,275,-0.061,2008-01-21
nahuku,19.415187,-155.238383,1202,-9999.0,2008-01-21
nationalelkrefuge,43.488931,-110.737824,1899,-0.941,2008-01-21
ncssm,36.018446,-78.92075,175,-1.152,2008-01-21
NEON.D01.BART.DP1.00033,44.063869,-71.287375,285,1.209,2008-01-21
NEON.D01.HARV.DP1.00033,42.536911,-72.17265,359,0.5,2008-01-21
NEON.D01.HOPB.DP1.20002,42.471786,-72.329627,203,0.26,2008-01-21
NEON.D02.BLAN.DP1.00033,39.033698,-78.041788,162,-0.409,2008-01-21
NEON.D02.LEWI.DP1.20002,39.09564,-77.98322,152,-0.323,2008-01-21
NEON.D02.POSE.DP1.20002,38.89332,-78.14678,293,-0.654,2008-01-21
NEON.D02.SCBI.DP1.00033,38.892925,-78.139494,364,-0.687,2008-01-21
NEON.D02.SERC.DP1.00033,38.89008,-76.56001,30,-0.015,2008-01-21
NEON.D03.BARC.DP1.20002,29.676473,-82.009089,35,-1.118,2008-01-21
NEON.D03.DSNY.DP1.00033,28.12505,-81.43619,22,-1.025,2008-01-21
NEON.D03.FLNT.DP1.20002,31.185424,-84.437403,27,-0.565,2008-01-21
NEON.D03.JERC.DP1.00033,31.194839,-84.468623,58,-0.543,2008-01-21
NEON.D03.OSBS.DP1.00033,29.689282,-81.993431,56,-1.104,2008-01-21
NEON.D03.SUGG.DP1.20002,29.687054,-82.016171,28,-1.104,2008-01-21
NEON.D04.CUPE.DP1.20002,18.11352,-66.98676,164,-9999.0,2008-01-21
NEON.D04.GUAN.DP1.00033,17.96955,-66.8687,136,-9999.0,2008-01-21
NEON.D04.GUIL.DP1.20002,18.1741,-66.79851,564,-9999.0,2008-01-21
NEON.D04.LAJA.DP1.00033,18.021261,-67.076889,22,-9999.0,2008-01-21
NEON.D05.CRAM.DP1.20002,46.21111,-89.47825,518,-0.321,2008-01-21
NEON.D05.LIRO.DP1.20002,45.998269,-89.704767,495,-0.718,2008-01-21
NEON.D05.STEI.DP1.00033,45.50894,-89.58637,476,-0.787,2008-01-21
NEON.D05.TREE.DP1.00033,45.49373,-89.58572,474,-0.787,2008-01-21
NEON.D05.UNDE.DP1.00033,46.23391,-89.537254,529,-0.343,2008-01-21
NEON.D06.KING.DP1.20002,39.10506,-96.60336,339,0.132,2008-01-21
NEON.D06.KONA.DP1.00033,39.110446,-96.612935,443,0.132,2008-01-21
NEON.D06.KONZ.DP1.00033,39.10077,-96.56309,415,0.129,2008-01-21
NEON.D06.MCDI.DP1.20002,38.94428,-96.44197,376,0.183,2008-01-21
NEON.D06.UKFS.DP1.00033,39.040431,-95.19215,330,-0.245,2008-01-21
NEON.D07.GRSM.DP1.00033,35.68896,-83.50195,589,-1.167,2008-01-21
NEON.D07.LECO.DP1.20002,35.69043,-83.50379,578,-1.167,2008-01-21
NEON.D07.MLBS.DP1.00033,37.378314,-80.524847,1177,-1.132,2008-01-21
NEON.D07.ORNL.DP1.00033,35.964128,-84.282588,351,-0.98,2008-01-21
NEON.D07.WALK.DP1.20002,35.95947,-84.28041,274,-0.93,2008-01-21
NEON.D08.BLWA.DP1.20002,32.541529,-87.798151,23,-1.346,2008-01-21
NEON.D08.DELA.DP1.00033,32.541727,-87.803877,36,-1.346,2008-01-21
NEON.D08.LENO.DP1.00033,31.85388,-88.16122,10,-1.242,2008-01-21
NEON.D08.MAYF.DP1.20002,32.959657,-87.408128,93,-1.588,2008-01-21
NEON.D08.TALL.DP1.00033,32.95047,-87.393259,167,-1.588,2008-01-21
NEON.D08.TOMB.DP1.20002,31.853431,-88.158872,10,-1.242,2008-01-21
NEON.D09.DCFS.DP1.00033,47.161647,-99.106556,574,-1.345,2008-01-21
NEON.D09.NOGP.DP1.00033,46.76972,-100.91535,589,-1.458,2008-01-21
NEON.D09.PRLA.DP1.20002,47.15909,-99.11388,563,-1.345,2008-01-21
NEON.D09.PRPO.DP1.20002,47.12999,-99.250551,587,-1.361,2008-01-21
NEON.D09.WOOD.DP1.00033,47.1282,-99.241334,585,-1.361,2008-01-21
NEON.D10.ARIK.DP1.20002,39.758246,-102.447103,1188,-0.122,2008-01-21
NEON.D10.CPER.DP1.00033,40.81553,-104.7456,1600,0.038,2008-01-21
NEON.D10.HQTW.DP1.00033,40.016704,-105.245612,1601,-0.486,2008-01-21
NEON.D10.RMNP.DP1.00033,40.275903,-105.545955,2751,-0.939,2008-01-21
NEON.D10.STER.DP1.00033,40.461894,-103.02929,1366,0.073,2008-01-21
NEON.D11.BLUE.DP1.20002,34.444218,-96.624201,288,-1.103,2008-01-21
NEON.D11.CLBJ.DP1.00033,33.40123,-97.57,279,-1.143,2008-01-21
NEON.D11.OAES.DP1.00033,35.41059,-99.05879,520,-0.368,2008-01-21
NEON.D11.PRIN.DP1.20002,33.37859,-97.78226,255,-1.101,2008-01-21
NEON.D12.BLDE.DP1.20002,44.95011,-110.58715,2035,-0.781,2008-01-21
NEON.D12.YELL.DP1.00033,44.95348,-110.53914,2130,-0.619,2008-01-21
NEON.D13.COMO.DP1.20002,40.03496,-105.54487,3036,-0.834,2008-01-21
NEON.D13.MOAB.DP1.00033,38.24833,-109.38827,1803,0.03,2008-01-21
NEON.D13.NIWO.DP1.00033,40.05425,-105.58237,3493,-0.931,2008-01-21
NEON.D13.WLOU.DP1.20002,39.891366,-105.915395,2920,-0.355,2008-01-21
NEON.D14.JORN.DP1.00033,32.59068,-106.84254,1321,-0.78,2008-01-21
NEON.D14.SRER.DP1.00033,31.91068,-110.83549,999,-0.415,2008-01-21
NEON.D14.SYCA.DP1.20002,33.749057,-111.506903,644,0.217,2008-01-21
NEON.D15.ONAQ.DP1.00033,40.177599,-112.452452,1655,0.08,2008-01-21
NEON.D15.REDB.DP1.20002,40.783934,-111.797887,1696,-0.342,2008-01-21
NEON.D16.ABBY.DP1.00033,45.76243,-122.33033,390,-0.058,2008-01-21
NEON.D16.MART.DP1.20002,45.791248,-121.931959,354,0.202,2008-01-21
NEON.D16.MCRA.DP1.20002,44.259598,-122.165554,880,0.267,2008-01-21
NEON.D16.WREF.DP1.00033,45.82049,-121.95191,368,0.156,2008-01-21
NEON.D17.BIGC.DP1.20002,37.059719,-119.257549,1133,-0.382,2008-01-21
NEON.D17.SJER.DP1.00033,37.10878,-119.73228,398,-0.375,2008-01-21
NEON.D17.SOAP.DP1.00033,37.03337,-119.26219,1210,-0.267,2008-01-21
NEON.D17.TEAK.DP1.00033,37.00583,-119.00602,2149,-0.329,2008-01-21
NEON.D17.TECR.DP1.20002,36.955931,-119.027363,2053,-0.433,2008-01-21
NEON.D18.BARR.DP1.00033,71.28241,-156.61936,7,-9999.0,2008-01-21
NEON.D18.OKSR.DP1.20002,68.669753,-149.143018,773,-9999.0,2008-01-21
NEON.D18.TOOK.DP1.20002,68.629562,-149.610509,715,-9999.0,2008-01-21
NEON.D18.TOOL.DP1.00033,68.66109,-149.37047,827,-9999.0,2008-01-21
NEON.D19.BONA.DP1.00033,65.15401,-147.50258,233,-9999.0,2008-01-21
NEON.D19.CARI.DP1.20002,65.15306,-147.50246,229,-9999.0,2008-01-21
NEON.D19.DEJU.DP1.00033,63.88112,-145.75136,504,-9999.0,2008-01-21
NEON.D19.HEAL.DP1.00033,63.87569,-149.21334,409,-9999.0,2008-01-21
NEON.D20.PUUM.DP1.00033,19.55309,-155.31731,1683,-9999.0,2008-01-21
nevcansnk3a,39.0099,-114.3095,3063,-0.469,2008-01-21
nevcanspg1a,38.9253,-114.4082,1792,-0.089,2008-01-21
nevcanspg2a,38.8921,-114.3521,2203,-0.283,2008-01-21
nevcanspg3a,38.8898,-114.3314,2820,-0.485,2008-01-21
nevcanspg4a,38.9061,-114.3089,3360,-0.485,2008-01-21
ninemileprairie,40.86801886,-96.82208066,381,-0.423,2008-01-21
nist,39.139,-77.2125,100,-0.425,2008-01-21
niwot3,40.03286358,-105.5469702,3050,-0.834,2008-01-21
niwot5,40.03286358,-105.5469702,2993,-0.834,2008-01-21
northattleboroma,41.98369,-71.31056,60,-0.018,2008-01-21
northinletsaltmarsh,33.3455,-79.1957,1,-1.24,2008-01-21
oakville,47.899334,-97.316139,268,-0.961,2008-01-21
oregonMP,44.4523,-121.5574,1253,0.207,2008-01-21
oregonYP,44.32384,-121.605993,977,0.17,2008-01-21
oregonYPbud,44.3238,-121.606,977,0.17,2008-01-21
othshardwood,44.934805,-68.6655,41,1.473,2008-01-21
othssoftwood,44.934527,-68.664888,41,1.473,2008-01-21
pace,37.9229,-78.2739,100,-1.021,2008-01-21
parkschoolbuffalo,42.9637,-78.7834,205,0.864,2008-01-21
piedmontalpasture2,33.8875,-85.6935,238,-1.332,2008-01-21
portal,31.9385,-109.0823,1330,-0.354,2008-01-21
proctor,44.525,-72.866,403,1.325,2008-01-21
readingma,42.5304,-71.1272,100,0.31,2008-01-21
robinson,37.4671,-83.1576,483,-0.144,2008-01-21
robinson2,37.4671,-83.1576,483,-0.144,2008-01-21
rosemountcons,44.6946,-93.0578,283,-1.173,2008-01-21
rosemountconv,44.691,-93.0576,283,-1.173,2008-01-21
rosemountnprs,44.6781,-93.0723,274,-1.272,2008-01-21
russellsage,32.456961,-91.974322,20,-1.424,2008-01-21
sagehen,39.4315,-120.2398,1934,-0.585,2008-01-21
sagehen2,39.4307,-120.2407,1937,-0.585,2008-01-21
sagehen3,39.4311,-120.2405,1935,-0.585,2008-01-21
sanford,42.726777,-84.464482,268,-0.467,2008-01-21
santacruz1,36.9741,-122.0308,11,-0.639,2008-01-21
santacruz2,36.9741,-122.0308,11,-0.639,2008-01-21
santaluciapreserve1,36.5265,-121.8682,500,-0.808,2008-01-21
santaluciapreserve2,36.5265,-121.8682,500,-0.808,2008-01-21
segaarboretum10,35.16209,-111.73151,2170,0.155,2008-01-21
segaarboretum2,35.16209,-111.73151,2170,0.155,2008-01-21
segaarboretum3,35.16209,-111.73151,2170,0.155,2008-01-21
segaarboretum4,35.16214,-111.73153,2170,0.155,2008-01-21
segaarboretum6,35.16209,-111.73151,2170,0.155,2008-01-21
segaarboretum9,35.16222,-111.73158,2170,0.155,2008-01-21
segaarboretumforest,35.1613,-111.7359,2173,0.155,2008-01-21
segaarboretummeadow,35.1621,-111.7316,2157,0.155,2008-01-21
segablackpoint,35.6814,-111.4754,1566,-0.104,2008-01-21
segabluechute,35.5876,-111.9716,1930,0.069,2008-01-21
segabluechute1,35.58759,-111.97115,1931,0.069,2008-01-21
segabluechute2,35.58759,-111.97115,1931,0.069,2008-01-21
segabluechute4,35.58759,-111.9716,1931,0.069,2008-01-21
segabluechute6,35.58759,-111.97115,1931,0.069,2008-01-21
segabluechute7,35.58759,-111.97115,1931,0.069,2008-01-21
segabluechute8,35.58759,-111.97115,1931,0.069,2008-01-21
segabradshaw,34.9109,-111.9285,1402,0.195,2008-01-21
segahartprairie,35.3536,-111.7324,2585,0.371,2008-01-21
segalcr,35.7231,-111.321,1275,-0.202,2008-01-21
segalcr2,35.7069,-111.36,1495,-0.088,2008-01-21
segalittlemountain,36.5865,-112.3634,2276,0.054,2008-01-21
segasoapcreek,36.751,-111.716,1233,-0.173,2008-01-21
segawhitepockets,36.6081,-112.4082,2057,0.035,2008-01-21
sevilletagrass,34.360444,-106.700186,1600,-0.399,2008-01-21
sevilletanewgrass,34.358,-106.6799,1603,-0.471,2008-01-21
sevilletashrub,34.334956,-106.744469,1603,-0.416,2008-01-21
sevMRME10L,34.3438,-106.7269,1604,-0.452,2008-01-21
sevMRME11C,34.3438,-106.7268,1604,-0.452,2008-01-21
sevMRME1S,34.3442,-106.7272,1604,-0.452,2008-01-21
sevpjrm12,34.38615,-106.52621,1905,-0.749,2008-01-21
sevpjrm13,34.38631,-106.52791,1914,-0.749,2008-01-21
shalehillsczo,40.6658,-77.9041,310,0.757,2008-01-21
shenandoah,38.6167,-78.35,1037,-0.902,2008-01-21
silverton,44.9986,-122.6948,347,0.203,2008-01-21
siwetland,38.0369,-121.7546,-5,-0.663,2008-01-21
slatefloodplain,38.9094,-107.0282,2725,0.694,2008-01-21
snodgrass1,38.92619636,-106.9714376,3023,0.707,2008-01-21
snodgrass2,38.92619636,-106.9714376,3023,0.707,2008-01-21
snodgrass3,38.92839978,-106.9781196,3141,0.707,2008-01-21
snodgrass4,38.92839978,-106.9781196,3141,0.707,2008-01-21
snodgrass5,38.92744789,-106.9785209,3152,0.707,2008-01-21
snodgrass6,38.92744789,-106.9785209,3152,0.707,2008-01-21
snodgrass7,38.93142134,-106.9852388,3363,0.64,2008-01-21
snodgrass8,38.93142134,-106.9852388,3363,0.64,2008-01-21
southerngreatplains,36.6058,-97.4888,314,-0.364,2008-01-21
springfieldma,42.135162,-72.585972,56,0.276,2008-01-21
spruceA0EMI,47.5049,-93.4541,413,-0.99,2008-01-21
spruceA0EMT,47.5049,-93.4541,418,-0.99,2008-01-21
spruceA0P07,47.50493,-93.45314,413,-0.99,2008-01-21
spruceA0P07SH,47.50493,-93.45314,413,-0.99,2008-01-21
spruceA0P21,47.50625,-93.45275,413,-0.99,2008-01-21
spruceA0P21SH,47.50625,-93.45275,413,-0.99,2008-01-21
srg,31.7894,-110.8276,1281,-0.424,2008-01-21
srm,31.8214,-110.8661,1116,-0.415,2008-01-21
statenrice1,38.1235,-121.549,-5,-0.574,2008-01-21
stjones,39.088222,-75.43725,2,0.233,2008-01-21
sweetbriar,37.57341,-79.08482,242,-1.166,2008-01-21
sweetbriarclearcut,37.5753,-79.0872,242,-1.166,2008-01-21
sweetbriargrass,37.5605,-79.0884,240,-1.166,2008-01-21
sylvania,46.242,-89.348,540,-0.301,2008-01-21
templefieldstation1,40.1667,-75.1894,105,0.602,2008-01-21
tfforest,43.1086,-70.9505,23,0.722,2008-01-21
tidmarshplymouth,41.9157,-70.5754,9,-0.005,2008-01-21
tonzi,38.43091667,-120.9658861,177,-0.6,2008-01-21
townsenddemeadow,39.3917,-75.6281,11,0.396,2008-01-21
tsubiology,36.1671,-86.8295,164,-0.55,2008-01-21
tsubiology2,36.1171,-86.8295,100,-0.626,2008-01-21
tuckerprairie,38.9491,-91.9952,274,-0.421,2008-01-21
twodafo,29.1658,-95.829,16,-0.889,2008-01-21
tworfaa,31.4777,-96.8882,167,-1.089,2008-01-21
tworfpr,31.4802,-96.8826,162,-1.099,2008-01-21
tworfta,31.4693,-96.8864,173,-1.089,2008-01-21
twosfpr,30.6176,-97.2938,157,-1.067,2008-01-21
ucnrsanzaborrego,33.2401,-116.3886,214,-0.102,2008-01-21
ufona,27.3836,-81.950856,25,-1.316,2008-01-21
uiefmaize2,40.0628,-88.1961,224,-0.037,2008-01-21
uiefmiscanthus2,40.0628,-88.1984,221,-0.037,2008-01-21
uiefprairie2,40.0637,-88.1973,224,-0.037,2008-01-21
uiefsorghum,40.0065,-88.2032,224,-0.116,2008-01-21
uiefswitchgrass2,40.0637,-88.1973,224,-0.037,2008-01-21
umichbiological,45.55984,-84.71382,230,-0.184,2008-01-21
umichbiological2,45.5625,-84.6976,240,-0.127,2008-01-21
unca,35.5951,-82.5515,650,-1.356,2008-01-21
usgseros,43.7343,-96.6234,448,-0.931,2008-01-21
usmpj,34.43845,-106.2543606,2126,-0.86,2008-01-21
usof5,35.7297,-90.0406,70,-0.413,2008-01-21
usof6,35.7333,-90.0403,70,-0.413,2008-01-21
uwmfieldsta,43.38709,-88.0229,265,-0.183,2008-01-21
vaira,38.41328056,-120.9506361,129,-0.6,2008-01-21
vallesburnedconifer,35.8884,-106.5321,3043,0.231,2008-01-21
vallesmixedconifer,35.9192,-106.6142,2752,0.214,2008-01-21
vallesponderosapine,35.864,-106.5964,2501,0.198,2008-01-21
waahila,21.3017,-157.8152,55,-9999.0,2008-01-21
warrenwilson,35.6069,-82.4421,2198,-1.379,2008-01-21
willamettepoplar,44.1368,-123.1823,112,-0.475,2008-01-21
willowcreek,45.805986,-90.07912,521,-0.588,2008-01-21
windriver,45.8212833,-121.9520833,371,0.156,2008-01-21
windriverunderstory,45.8212833,-121.9520833,371,0.156,2008-01-21
wolfesneckfarm,43.8305,-70.0715,16,0.656,2008-01-21
worcester,42.2697,-71.8428,185,0.133,2008-01-21
alligatorriver,35.7879,-75.9038,1,-0.869,2008-01-28
arbutuslake,43.98207,-74.23322,535,1.275,2008-01-28
arbutuslakeinlet,43.99336,-74.24527,527,1.275,2008-01-28
archboldavir,27.176064,-81.21958,8,-0.796,2008-01-28
archboldavirx,27.166627,-81.219828,8,-0.796,2008-01-28
archboldbahia,27.1656,-81.216112,8,-0.796,2008-01-28
archboldpnot,27.187948,-81.200345,9,-0.796,2008-01-28
archboldpnotx,27.180677,-81.20068,9,-0.796,2008-01-28
arkansascornsoy,34.416,-91.6723,61,-0.872,2008-01-28
arsbrooks10,41.9749,-93.6905,312,-0.316,2008-01-28
arsbrooks11,41.9744,-93.6937,313,-0.316,2008-01-28
arscolesnorth,42.4884,-93.5225,356,-0.321,2008-01-28
arscolessouth,42.4816,-93.5235,352,-0.321,2008-01-28
arsgacp1,31.5109,-83.6179,96,-0.139,2008-01-28
arsgacp3,31.7563,-83.7516,139,-0.104,2008-01-28
arsgacp4,31.7093,-83.7287,127,-0.229,2008-01-28
arsgreatbasinltar098,43.1675,-116.7132,1426,-0.796,2008-01-28
arsgreatbasinltar117,43.1432,-116.7357,1625,-0.582,2008-01-28
arsgreatbasinltar177,43.0645,-116.7484,2114,-0.409,2008-01-28
arsltarmdcr,39.0587,-75.8513,17,-0.309,2008-01-28
arsltarmdcrnatw,39.0575,-75.7531,16,-0.245,2008-01-28
arsltarmdcrprcw,39.0667,-75.7609,17,-0.245,2008-01-28
arsltarmdcrresw,39.0549,-75.7532,16,-0.245,2008-01-28
arsltarucbec1,40.7537,-78.0057,400,0.566,2008-01-28
arsltarucbec2,40.7558,-77.9999,396,0.566,2008-01-28
arsmnswanlake1,45.684508,-95.799703,370,-0.685,2008-01-28
arsmorris1,45.6167,-96.1269,341,-0.647,2008-01-28
arsmorris2,45.627,-96.127,338,-0.647,2008-01-28
arsmorris3,45.6091,-96.1265,342,-0.647,2008-01-28
arsope3ltar,39.0309,-76.8442,41,-0.632,2008-01-28
ashburnham,42.6029,-71.926,292,0.037,2008-01-28
asuhighlands,36.2076,-81.7032,1016,-1.497,2008-01-28
austincary,29.738,-82.2188,44,-0.629,2008-01-28
barrow,71.28007453,-156.6091492,5,-9999.0,2008-01-28
bartlettir,44.0646,-71.2881,268,1.094,2008-01-28
bigtraillake,64.9194,-147.822,190,-9999.0,2008-01-28
bitterbrush001,48.154,-119.9456,667,-0.249,2008-01-28
blackrockforest,41.3974,-74.0239,427,0.171,2008-01-28
bnzblackspruce,64.6963,-148.3235,102,-9999.0,2008-01-28
bnzrichfen,64.70134,-148.31195,97,-9999.0,2008-01-28
bnzthermokarstbog,64.6955,-148.3208,104,-9999.0,2008-01-28
boglakepeatland,47.5051,-93.4893,416,-0.738,2008-01-28
bostoncommon,42.355912,-71.064145,10,0.151,2008-01-28
bostonu,42.35041,-71.10438,10,0.144,2008-01-28
bouldinalfalfa,38.0985,-121.4993,-5,-0.225,2008-01-28
bouldincorn,38.109,-121.535,-5,-0.23,2008-01-28
bozeman,45.783056,-110.777778,2332,0.302,2008-01-28
brackishimpoundment,33.2015,-79.2973,1,-0.887,2008-01-28
bullshoals,36.562833,-93.06663,260,-1.111,2008-01-28
burnssagebrush,43.4712,-119.6909,1398,-0.196,2008-01-28
butte,45.95304,-112.47964,1682,-0.861,2008-01-28
butterice,39.5793,-121.858,33,-0.706,2008-01-28
cafboydnorthltar01,46.755104,-117.126052,795,0.403,2008-01-28
cafboydsouthltar01,46.751809,-117.128502,795,0.403,2008-01-28
cafcookeastltar01,46.78152,-117.0821,794,0.461,2008-01-28
cafcookwestltar01,46.784037,-117.09083,807,0.461,2008-01-28
caryinstitute,41.7839,-73.7341,127,0.491,2008-01-28
centralredwoods1,38.632272,-123.301511,200,-0.329,2008-01-28
centralredwoods2,38.632272,-123.301511,200,-0.329,2008-01-28
cperagm,40.8402,-104.7672,1644,0.431,2008-01-28
cperheavy,40.8153,-104.7386,1652,0.433,2008-01-28
cpertgm,40.833,-104.76,1644,0.423,2008-01-28
cperuvb,40.8055764,-104.7558542,1641,0.423,2008-01-28
cuny,40.8162,-73.9507,42,-0.206,2008-01-28
doverdesaltmarsh,39.0888,-75.4368,0,-0.076,2008-01-28
downerwoods,43.07938,-87.88076,213,-0.117,2008-01-28
dukehw,35.973583,-79.100371,400,-1.373,2008-01-28
ecb1,41.5348,-84.8068,275,1.592,2008-01-28
ecb2,41.5321,-84.808,275,1.592,2008-01-28
ecb4,41.1796,-83.0604,240,1.053,2008-01-28
elverde,18.320654,-65.8199,312,-9999.0,2008-01-28
flagstaff,35.17961521,-111.6049032,6983,0.382,2008-01-28
flagstaff2,35.179225,-111.604506,6983,0.382,2008-01-28
flagstaffchimneysprings,35.257296,-111.678542,2250,0.454,2008-01-28
forbes,39.232,-121.2972,360,-0.446,2008-01-28
fortpaynealpasture1,34.3824,-85.6428,405,-1.231,2008-01-28
fortpaynealpasture2,34.3824,-85.6447,403,-1.231,2008-01-28
gcesapelo,31.4440444,-81.283528,0,-0.775,2008-01-28
gilberttract,38.0015,-121.6691,6,-0.309,2008-01-28
glees,41.3644,-106.2394,3150,-0.146,2008-01-28
glennorganicrice,39.6805,-122.0026,2,-0.81,2008-01-28
glennrice,39.5944,-122.0253,36,-0.765,2008-01-28
goodnow,43.96018,-74.20994,820,1.326,2008-01-28
goodwater,39.22848,-92.11936,264,0.178,2008-01-28
goodwaterbau,39.23115,-92.15216,274,0.159,2008-01-28
grandteton,43.915017,-110.578036,2054,-0.207,2008-01-28
grca1pj,36.0241,-112.2211,1978,-0.228,2008-01-28
greenridge1,39.6905,-78.4067,285,0.162,2008-01-28
harvard,42.5378,-72.1715,340,0.287,2008-01-28
harvardbarn,42.53532,-72.1899,350,0.274,2008-01-28
harvardbarn2,42.53532,-72.1899,350,0.274,2008-01-28
harvardems2,42.5378,-72.1715,340,0.287,2008-01-28
harvardfarmnorth,42.520465,-72.182242,355,0.274,2008-01-28
harvardfarmsouth,42.522466,-72.182339,355,0.274,2008-01-28
harvardgarden,42.5291,-72.1863,335,0.274,2008-01-28
harvardhemlock,42.539,-72.18,355,0.274,2008-01-28
harvardhemlock2,42.539407,-72.177976,355,0.287,2008-01-28
harvardlph,42.542,-72.185,380,0.274,2008-01-28
hawbeckereddy,40.6608,-77.848849,310,0.578,2008-01-28
hobcawclearcutlongleaf,33.3486,-79.232,4,-0.953,2008-01-28
hobcawmaturelongleaf,33.3242,-79.2439,8,-0.953,2008-01-28
homesteadsprings,37.2009,-92.9937,452,-0.386,2008-01-28
howland1,45.2041,-68.7403,80,1.841,2008-01-28
howland2,45.2128,-68.7418,79,1.841,2008-01-28
hubbardbrook,43.9438,-71.701,253,0.484,2008-01-28
humnokericea,34.585192,-91.751684,61,-0.831,2008-01-28
humnokericec,34.588853,-91.7516729,70,-0.831,2008-01-28
huyckpreserveny,42.5266,-74.1587,478,0.336,2008-01-28
hwmo1,20.0212,-155.7331,585,-9999.0,2008-01-28
hwmo2,19.9766,-155.8298,12,-9999.0,2008-01-28
hwmo5,20.1117,-155.8151,635,-9999.0,2008-01-28
ibp,32.589,-106.847,1325,-0.654,2008-01-28
imcrkfen,68.60583,-149.31101,900,-9999.0,2008-01-28
imcrkridge0,68.60681,-149.2958,951,-9999.0,2008-01-28
imcrkridge1,68.60681,-149.2958,951,-9999.0,2008-01-28
imcrktussock,68.60633,-149.30408,918,-9999.0,2008-01-28
jasperridge,37.402028,-122.22104,197,-0.547,2008-01-28
jerbajada,32.57992,-106.633793,1402,-0.618,2008-01-28
jergrassland,32.5833,-106.8333,1331,-0.654,2008-01-28
jernort,32.619,-106.788,1328,-0.66,2008-01-28
jernovel,32.6335,-106.8334,1324,-0.667,2008-01-28
jernwern,32.6271,-106.7387,1325,-0.686,2008-01-28
jersand,32.515,-106.798,1363,-0.702,2008-01-28
jershrubland,32.6502,-106.8334,1328,-0.683,2008-01-28
junipersavannah,34.4254,-105.8615,1931,-0.423,2008-01-28
kamuela,20.015008,-155.661326,850,-9999.0,2008-01-28
kamuela2,20.014959,-155.661139,830,-9999.0,2008-01-28
kansas,39.0561,-95.1907,333,0.085,2008-01-28
kelloggcorn,42.437536,-85.3225472,288,0.019,2008-01-28
kempnrs,45.83992,-89.67755,539,-0.392,2008-01-28
kendall,31.73652,-109.94185,1529,-0.403,2008-01-28
konza,39.0824,-96.5603,443,0.554,2008-01-28
laupahoehoe,19.9322,-155.2912,1145,-9999.0,2008-01-28
ldeocam,41.0039,-73.9053,121,-0.213,2008-01-28
lostcreek,46.0827,-89.9792,480,-0.138,2008-01-28
luckyhills,31.743896,-110.052023,1366,-0.435,2008-01-28
macleish,42.4484,-72.6804,251,0.092,2008-01-28
macordway,44.8106,-93.0272,264,-0.946,2008-01-28
mandanh5,46.775423,-100.95109,593,-1.138,2008-01-28
mandani2,46.7614,-100.9257,590,-1.146,2008-01-28
manilacotton,35.8872,-90.1371,73,-0.446,2008-01-28
marena,36.06434,-97.21271,327,-0.674,2008-01-28
mead1,41.1651,-96.4766,361,0.133,2008-01-28
mead2,41.1649,-96.4701,362,0.133,2008-01-28
mead3,41.1797,-96.4397,363,0.112,2008-01-28
meadpasture,41.1447,-96.4616,356,0.155,2008-01-28
meadpasturese,41.1447,-96.4616,356,0.155,2008-01-28
meadpasturesw,41.1447,-96.4616,356,0.155,2008-01-28
missouriozarks,38.7441,-92.2,219,-0.228,2008-01-28
morganmonroe,39.3231,-86.4131,275,0.039,2008-01-28
morganmonroe2,39.3231,-86.4131,275,0.039,2008-01-28
nahuku,19.415187,-155.238383,1202,-9999.0,2008-01-28
nationalelkrefuge,43.488931,-110.737824,1899,-0.854,2008-01-28
ncssm,36.018446,-78.92075,175,-1.301,2008-01-28
NEON.D01.BART.DP1.00033,44.063869,-71.287375,285,1.094,2008-01-28
NEON.D01.HARV.DP1.00033,42.536911,-72.17265,359,0.287,2008-01-28
NEON.D01.HOPB.DP1.20002,42.471786,-72.329627,203,-0.009,2008-01-28
NEON.D02.BLAN.DP1.00033,39.033698,-78.041788,162,-0.636,2008-01-28
NEON.D02.LEWI.DP1.20002,39.09564,-77.98322,152,-0.549,2008-01-28
NEON.D02.POSE.DP1.20002,38.89332,-78.14678,293,-0.854,2008-01-28
NEON.D02.SCBI.DP1.00033,38.892925,-78.139494,364,-0.875,2008-01-28
NEON.D02.SERC.DP1.00033,38.89008,-76.56001,30,-0.714,2008-01-28
NEON.D03.BARC.DP1.20002,29.676473,-82.009089,35,-0.652,2008-01-28
NEON.D03.DSNY.DP1.00033,28.12505,-81.43619,22,-0.834,2008-01-28
NEON.D03.FLNT.DP1.20002,31.185424,-84.437403,27,-0.168,2008-01-28
NEON.D03.JERC.DP1.00033,31.194839,-84.468623,58,-0.139,2008-01-28
NEON.D03.OSBS.DP1.00033,29.689282,-81.993431,56,-0.654,2008-01-28
NEON.D03.SUGG.DP1.20002,29.687054,-82.016171,28,-0.654,2008-01-28
NEON.D04.CUPE.DP1.20002,18.11352,-66.98676,164,-9999.0,2008-01-28
NEON.D04.GUAN.DP1.00033,17.96955,-66.8687,136,-9999.0,2008-01-28
NEON.D04.GUIL.DP1.20002,18.1741,-66.79851,564,-9999.0,2008-01-28
NEON.D04.LAJA.DP1.00033,18.021261,-67.076889,22,-9999.0,2008-01-28
NEON.D05.CRAM.DP1.20002,46.21111,-89.47825,518,-0.068,2008-01-28
NEON.D05.LIRO.DP1.20002,45.998269,-89.704767,495,-0.505,2008-01-28
NEON.D05.STEI.DP1.00033,45.50894,-89.58637,476,-0.567,2008-01-28
NEON.D05.TREE.DP1.00033,45.49373,-89.58572,474,-0.567,2008-01-28
NEON.D05.UNDE.DP1.00033,46.23391,-89.537254,529,-0.104,2008-01-28
NEON.D06.KING.DP1.20002,39.10506,-96.60336,339,0.553,2008-01-28
NEON.D06.KONA.DP1.00033,39.110446,-96.612935,443,0.553,2008-01-28
NEON.D06.KONZ.DP1.00033,39.10077,-96.56309,415,0.554,2008-01-28
NEON.D06.MCDI.DP1.20002,38.94428,-96.44197,376,0.568,2008-01-28
NEON.D06.UKFS.DP1.00033,39.040431,-95.19215,330,0.085,2008-01-28
NEON.D07.GRSM.DP1.00033,35.68896,-83.50195,589,-1.141,2008-01-28
NEON.D07.LECO.DP1.20002,35.69043,-83.50379,578,-1.141,2008-01-28
NEON.D07.MLBS.DP1.00033,37.378314,-80.524847,1177,-1.207,2008-01-28
NEON.D07.ORNL.DP1.00033,35.964128,-84.282588,351,-0.897,2008-01-28
NEON.D07.WALK.DP1.20002,35.95947,-84.28041,274,-0.851,2008-01-28
NEON.D08.BLWA.DP1.20002,32.541529,-87.798151,23,-1.124,2008-01-28
NEON.D08.DELA.DP1.00033,32.541727,-87.803877,36,-1.124,2008-01-28
NEON.D08.LENO.DP1.00033,31.85388,-88.16122,10,-0.908,2008-01-28
NEON.D08.MAYF.DP1.20002,32.959657,-87.408128,93,-1.365,2008-01-28
NEON.D08.TALL.DP1.00033,32.95047,-87.393259,167,-1.365,2008-01-28
NEON.D08.TOMB.DP1.20002,31.853431,-88.158872,10,-0.908,2008-01-28
NEON.D09.DCFS.DP1.00033,47.161647,-99.106556,574,-1.113,2008-01-28
NEON.D09.NOGP.DP1.00033,46.76972,-100.91535,589,-1.146,2008-01-28
NEON.D09.PRLA.DP1.20002,47.15909,-99.11388,563,-1.122,2008-01-28
NEON.D09.PRPO.DP1.20002,47.12999,-99.250551,587,-1.148,2008-01-28
NEON.D09.WOOD.DP1.00033,47.1282,-99.241334,585,-1.148,2008-01-28
NEON.D10.ARIK.DP1.20002,39.758246,-102.447103,1188,0.233,2008-01-28
NEON.D10.CPER.DP1.00033,40.81553,-104.7456,1600,0.423,2008-01-28
NEON.D10.HQTW.DP1.00033,40.016704,-105.245612,1601,-0.368,2008-01-28
NEON.D10.RMNP.DP1.00033,40.275903,-105.545955,2751,-0.806,2008-01-28
NEON.D10.STER.DP1.00033,40.461894,-103.02929,1366,0.411,2008-01-28
NEON.D11.BLUE.DP1.20002,34.444218,-96.624201,288,-1.0,2008-01-28
NEON.D11.CLBJ.DP1.00033,33.40123,-97.57,279,-1.014,2008-01-28
NEON.D11.OAES.DP1.00033,35.41059,-99.05879,520,-0.305,2008-01-28
NEON.D11.PRIN.DP1.20002,33.37859,-97.78226,255,-1.003,2008-01-28
NEON.D12.BLDE.DP1.20002,44.95011,-110.58715,2035,-0.51,2008-01-28
NEON.D12.YELL.DP1.00033,44.95348,-110.53914,2130,-0.3,2008-01-28
NEON.D13.COMO.DP1.20002,40.03496,-105.54487,3036,-0.693,2008-01-28
NEON.D13.MOAB.DP1.00033,38.24833,-109.38827,1803,0.368,2008-01-28
NEON.D13.NIWO.DP1.00033,40.05425,-105.58237,3493,-0.744,2008-01-28
NEON.D13.WLOU.DP1.20002,39.891366,-105.915395,2920,-0.167,2008-01-28
NEON.D14.JORN.DP1.00033,32.59068,-106.84254,1321,-0.654,2008-01-28
NEON.D14.SRER.DP1.00033,31.91068,-110.83549,999,-0.324,2008-01-28
NEON.D14.SYCA.DP1.20002,33.749057,-111.506903,644,0.302,2008-01-28
NEON.D15.ONAQ.DP1.00033,40.177599,-112.452452,1655,0.259,2008-01-28
NEON.D15.REDB.DP1.20002,40.783934,-111.797887,1696,-0.152,2008-01-28
NEON.D16.ABBY.DP1.00033,45.76243,-122.33033,390,0.025,2008-01-28
NEON.D16.MART.DP1.20002,45.791248,-121.931959,354,0.279,2008-01-28
NEON.D16.MCRA.DP1.20002,44.259598,-122.165554,880,0.341,2008-01-28
NEON.D16.WREF.DP1.00033,45.82049,-121.95191,368,0.222,2008-01-28
NEON.D17.BIGC.DP1.20002,37.059719,-119.257549,1133,-0.337,2008-01-28
NEON.D17.SJER.DP1.00033,37.10878,-119.73228,398,-0.249,2008-01-28
NEON.D17.SOAP.DP1.00033,37.03337,-119.26219,1210,-0.215,2008-01-28
NEON.D17.TEAK.DP1.00033,37.00583,-119.00602,2149,-0.285,2008-01-28
NEON.D17.TECR.DP1.20002,36.955931,-119.027363,2053,-0.383,2008-01-28
NEON.D18.BARR.DP1.00033,71.28241,-156.61936,7,-9999.0,2008-01-28
NEON.D18.OKSR.DP1.20002,68.669753,-149.143018,773,-9999.0,2008-01-28
NEON.D18.TOOK.DP1.20002,68.629562,-149.610509,715,-9999.0,2008-01-28
NEON.D18.TOOL.DP1.00033,68.66109,-149.37047,827,-9999.0,2008-01-28
NEON.D19.BONA.DP1.00033,65.15401,-147.50258,233,-9999.0,2008-01-28
NEON.D19.CARI.DP1.20002,65.15306,-147.50246,229,-9999.0,2008-01-28
NEON.D19.DEJU.DP1.00033,63.88112,-145.75136,504,-9999.0,2008-01-28
NEON.D19.HEAL.DP1.00033,63.87569,-149.21334,409,-9999.0,2008-01-28
NEON.D20.PUUM.DP1.00033,19.55309,-155.31731,1683,-9999.0,2008-01-28
nevcansnk3a,39.0099,-114.3095,3063,-0.163,2008-01-28
nevcanspg1a,38.9253,-114.4082,1792,0.26,2008-01-28
nevcanspg2a,38.8921,-114.3521,2203,0.089,2008-01-28
nevcanspg3a,38.8898,-114.3314,2820,-0.159,2008-01-28
nevcanspg4a,38.9061,-114.3089,3360,-0.159,2008-01-28
ninemileprairie,40.86801886,-96.82208066,381,-0.076,2008-01-28
nist,39.139,-77.2125,100,-0.786,2008-01-28
niwot3,40.03286358,-105.5469702,3050,-0.693,2008-01-28
niwot5,40.03286358,-105.5469702,2993,-0.693,2008-01-28
northattleboroma,41.98369,-71.31056,60,-0.034,2008-01-28
northinletsaltmarsh,33.3455,-79.1957,1,-0.964,2008-01-28
oakville,47.899334,-97.316139,268,-0.734,2008-01-28
oregonMP,44.4523,-121.5574,1253,0.261,2008-01-28
oregonYP,44.32384,-121.605993,977,0.205,2008-01-28
oregonYPbud,44.3238,-121.606,977,0.205,2008-01-28
othshardwood,44.934805,-68.6655,41,1.405,2008-01-28
othssoftwood,44.934527,-68.664888,41,1.405,2008-01-28
pace,37.9229,-78.2739,100,-1.283,2008-01-28
parkschoolbuffalo,42.9637,-78.7834,205,1.026,2008-01-28
piedmontalpasture2,33.8875,-85.6935,238,-1.3,2008-01-28
portal,31.9385,-109.0823,1330,-0.226,2008-01-28
proctor,44.525,-72.866,403,1.237,2008-01-28
readingma,42.5304,-71.1272,100,0.229,2008-01-28
robinson,37.4671,-83.1576,483,-0.079,2008-01-28
robinson2,37.4671,-83.1576,483,-0.079,2008-01-28
rosemountcons,44.6946,-93.0578,283,-1.004,2008-01-28
rosemountconv,44.691,-93.0576,283,-1.004,2008-01-28
rosemountnprs,44.6781,-93.0723,274,-1.121,2008-01-28
russellsage,32.456961,-91.974322,20,-1.214,2008-01-28
sagehen,39.4315,-120.2398,1934,-0.573,2008-01-28
sagehen2,39.4307,-120.2407,1937,-0.573,2008-01-28
sagehen3,39.4311,-120.2405,1935,-0.573,2008-01-28
sanford,42.726777,-84.464482,268,-0.53,2008-01-28
santacruz1,36.9741,-122.0308,11,-0.378,2008-01-28
santacruz2,36.9741,-122.0308,11,-0.378,2008-01-28
santaluciapreserve1,36.5265,-121.8682,500,-0.479,2008-01-28
santaluciapreserve2,36.5265,-121.8682,500,-0.479,2008-01-28
segaarboretum10,35.16209,-111.73151,2170,0.313,2008-01-28
segaarboretum2,35.16209,-111.73151,2170,0.313,2008-01-28
segaarboretum3,35.16209,-111.73151,2170,0.313,2008-01-28
segaarboretum4,35.16214,-111.73153,2170,0.313,2008-01-28
segaarboretum6,35.16209,-111.73151,2170,0.313,2008-01-28
segaarboretum9,35.16222,-111.73158,2170,0.313,2008-01-28
segaarboretumforest,35.1613,-111.7359,2173,0.313,2008-01-28
segaarboretummeadow,35.1621,-111.7316,2157,0.313,2008-01-28
segablackpoint,35.6814,-111.4754,1566,0.132,2008-01-28
segabluechute,35.5876,-111.9716,1930,0.263,2008-01-28
segabluechute1,35.58759,-111.97115,1931,0.263,2008-01-28
segabluechute2,35.58759,-111.97115,1931,0.263,2008-01-28
segabluechute4,35.58759,-111.9716,1931,0.263,2008-01-28
segabluechute6,35.58759,-111.97115,1931,0.263,2008-01-28
segabluechute7,35.58759,-111.97115,1931,0.263,2008-01-28
segabluechute8,35.58759,-111.97115,1931,0.263,2008-01-28
segabradshaw,34.9109,-111.9285,1402,0.337,2008-01-28
segahartprairie,35.3536,-111.7324,2585,0.521,2008-01-28
segalcr,35.7231,-111.321,1275,0.057,2008-01-28
segalcr2,35.7069,-111.36,1495,0.157,2008-01-28
segalittlemountain,36.5865,-112.3634,2276,0.282,2008-01-28
segasoapcreek,36.751,-111.716,1233,0.109,2008-01-28
segawhitepockets,36.6081,-112.4082,2057,0.273,2008-01-28
sevilletagrass,34.360444,-106.700186,1600,-0.139,2008-01-28
sevilletanewgrass,34.358,-106.6799,1603,-0.216,2008-01-28
sevilletashrub,34.334956,-106.744469,1603,-0.126,2008-01-28
sevMRME10L,34.3438,-106.7269,1604,-0.168,2008-01-28
sevMRME11C,34.3438,-106.7268,1604,-0.168,2008-01-28
sevMRME1S,34.3442,-106.7272,1604,-0.168,2008-01-28
sevpjrm12,34.38615,-106.52621,1905,-0.522,2008-01-28
sevpjrm13,34.38631,-106.52791,1914,-0.522,2008-01-28
shalehillsczo,40.6658,-77.9041,310,0.589,2008-01-28
shenandoah,38.6167,-78.35,1037,-1.043,2008-01-28
silverton,44.9986,-122.6948,347,0.31,2008-01-28
siwetland,38.0369,-121.7546,-5,-0.399,2008-01-28
slatefloodplain,38.9094,-107.0282,2725,0.917,2008-01-28
snodgrass1,38.92619636,-106.9714376,3023,0.953,2008-01-28
snodgrass2,38.92619636,-106.9714376,3023,0.953,2008-01-28
snodgrass3,38.92839978,-106.9781196,3141,0.953,2008-01-28
snodgrass4,38.92839978,-106.9781196,3141,0.953,2008-01-28
snodgrass5,38.92744789,-106.9785209,3152,0.953,2008-01-28
snodgrass6,38.92744789,-106.9785209,3152,0.953,2008-01-28
snodgrass7,38.93142134,-106.9852388,3363,0.873,2008-01-28
snodgrass8,38.93142134,-106.9852388,3363,0.873,2008-01-28
southerngreatplains,36.6058,-97.4888,314,-0.236,2008-01-28
springfieldma,42.135162,-72.585972,56,0.015,2008-01-28
spruceA0EMI,47.5049,-93.4541,413,-0.732,2008-01-28
spruceA0EMT,47.5049,-93.4541,418,-0.732,2008-01-28
spruceA0P07,47.50493,-93.45314,413,-0.732,2008-01-28
spruceA0P07SH,47.50493,-93.45314,413,-0.732,2008-01-28
spruceA0P21,47.50625,-93.45275,413,-0.732,2008-01-28
spruceA0P21SH,47.50625,-93.45275,413,-0.732,2008-01-28
srg,31.7894,-110.8276,1281,-0.348,2008-01-28
srm,31.8214,-110.8661,1116,-0.324,2008-01-28
statenrice1,38.1235,-121.549,-5,-0.185,2008-01-28
stjones,39.088222,-75.43725,2,-0.076,2008-01-28
sweetbriar,37.57341,-79.08482,242,-1.364,2008-01-28
sweetbriarclearcut,37.5753,-79.0872,242,-1.364,2008-01-28
sweetbriargrass,37.5605,-79.0884,240,-1.364,2008-01-28
sylvania,46.242,-89.348,540,-0.043,2008-01-28
templefieldstation1,40.1667,-75.1894,105,-0.215,2008-01-28
tfforest,43.1086,-70.9505,23,0.605,2008-01-28
tidmarshplymouth,41.9157,-70.5754,9,0.008,2008-01-28
tonzi,38.43091667,-120.9658861,177,-0.348,2008-01-28
townsenddemeadow,39.3917,-75.6281,11,-0.077,2008-01-28
tsubiology,36.1671,-86.8295,164,-0.505,2008-01-28
tsubiology2,36.1171,-86.8295,100,-0.571,2008-01-28
tuckerprairie,38.9491,-91.9952,274,-0.213,2008-01-28
twodafo,29.1658,-95.829,16,-0.31,2008-01-28
tworfaa,31.4777,-96.8882,167,-0.972,2008-01-28
tworfpr,31.4802,-96.8826,162,-0.99,2008-01-28
tworfta,31.4693,-96.8864,173,-0.972,2008-01-28
twosfpr,30.6176,-97.2938,157,-0.872,2008-01-28
ucnrsanzaborrego,33.2401,-116.3886,214,-0.066,2008-01-28
ufona,27.3836,-81.950856,25,-1.055,2008-01-28
uiefmaize2,40.0628,-88.1961,224,0.062,2008-01-28
uiefmiscanthus2,40.0628,-88.1984,221,0.062,2008-01-28
uiefprairie2,40.0637,-88.1973,224,0.062,2008-01-28
uiefsorghum,40.0065,-88.2032,224,-0.015,2008-01-28
uiefswitchgrass2,40.0637,-88.1973,224,0.062,2008-01-28
umichbiological,45.55984,-84.71382,230,0.082,2008-01-28
umichbiological2,45.5625,-84.6976,240,0.151,2008-01-28
unca,35.5951,-82.5515,650,-1.298,2008-01-28
usgseros,43.7343,-96.6234,448,-0.553,2008-01-28
usmpj,34.43845,-106.2543606,2126,-0.689,2008-01-28
usof5,35.7297,-90.0406,70,-0.257,2008-01-28
usof6,35.7333,-90.0403,70,-0.257,2008-01-28
uwmfieldsta,43.38709,-88.0229,265,0.37,2008-01-28
vaira,38.41328056,-120.9506361,129,-0.348,2008-01-28
vallesburnedconifer,35.8884,-106.5321,3043,0.408,2008-01-28
vallesmixedconifer,35.9192,-106.6142,2752,0.378,2008-01-28
vallesponderosapine,35.864,-106.5964,2501,0.359,2008-01-28
waahila,21.3017,-157.8152,55,-9999.0,2008-01-28
warrenwilson,35.6069,-82.4421,2198,-1.319,2008-01-28
willamettepoplar,44.1368,-123.1823,112,-0.383,2008-01-28
willowcreek,45.805986,-90.07912,521,-0.339,2008-01-28
windriver,45.8212833,-121.9520833,371,0.222,2008-01-28
windriverunderstory,45.8212833,-121.9520833,371,0.222,2008-01-28
wolfesneckfarm,43.8305,-70.0715,16,0.451,2008-01-28
worcester,42.2697,-71.8428,185,0.034,2008-01-28
alligatorriver,35.7879,-75.9038,1,-0.811,2008-02-04
arbutuslake,43.98207,-74.23322,535,1.656,2008-02-04
arbutuslakeinlet,43.99336,-74.24527,527,1.656,2008-02-04
archboldavir,27.176064,-81.21958,8,-0.781,2008-02-04
archboldavirx,27.166627,-81.219828,8,-0.781,2008-02-04
archboldbahia,27.1656,-81.216112,8,-0.781,2008-02-04
archboldpnot,27.187948,-81.200345,9,-0.781,2008-02-04
archboldpnotx,27.180677,-81.20068,9,-0.781,2008-02-04
arkansascornsoy,34.416,-91.6723,61,-0.605,2008-02-04
arsbrooks10,41.9749,-93.6905,312,-0.129,2008-02-04
arsbrooks11,41.9744,-93.6937,313,-0.129,2008-02-04
arscolesnorth,42.4884,-93.5225,356,-0.107,2008-02-04
arscolessouth,42.4816,-93.5235,352,-0.107,2008-02-04
arsgacp1,31.5109,-83.6179,96,0.119,2008-02-04
arsgacp3,31.7563,-83.7516,139,0.24,2008-02-04
arsgacp4,31.7093,-83.7287,127,0.071,2008-02-04
arsgreatbasinltar098,43.1675,-116.7132,1426,-0.498,2008-02-04
arsgreatbasinltar117,43.1432,-116.7357,1625,-0.202,2008-02-04
arsgreatbasinltar177,43.0645,-116.7484,2114,0.005,2008-02-04
arsltarmdcr,39.0587,-75.8513,17,-0.16,2008-02-04
arsltarmdcrnatw,39.0575,-75.7531,16,-0.113,2008-02-04
arsltarmdcrprcw,39.0667,-75.7609,17,-0.113,2008-02-04
arsltarmdcrresw,39.0549,-75.7532,16,-0.113,2008-02-04
arsltarucbec1,40.7537,-78.0057,400,1.045,2008-02-04
arsltarucbec2,40.7558,-77.9999,396,1.045,2008-02-04
arsmnswanlake1,45.684508,-95.799703,370,-0.699,2008-02-04
arsmorris1,45.6167,-96.1269,341,-0.664,2008-02-04
arsmorris2,45.627,-96.127,338,-0.664,2008-02-04
arsmorris3,45.6091,-96.1265,342,-0.664,2008-02-04
arsope3ltar,39.0309,-76.8442,41,-0.344,2008-02-04
ashburnham,42.6029,-71.926,292,-0.013,2008-02-04
asuhighlands,36.2076,-81.7032,1016,-1.237,2008-02-04
austincary,29.738,-82.2188,44,-0.618,2008-02-04
barrow,71.28007453,-156.6091492,5,-9999.0,2008-02-04
bartlettir,44.0646,-71.2881,268,1.097,2008-02-04
bigtraillake,64.9194,-147.822,190,-9999.0,2008-02-04
bitterbrush001,48.154,-119.9456,667,-0.017,2008-02-04
blackrockforest,41.3974,-74.0239,427,0.281,2008-02-04
bnzblackspruce,64.6963,-148.3235,102,-9999.0,2008-02-04
bnzrichfen,64.70134,-148.31195,97,-9999.0,2008-02-04
bnzthermokarstbog,64.6955,-148.3208,104,-9999.0,2008-02-04
boglakepeatland,47.5051,-93.4893,416,-0.777,2008-02-04
bostoncommon,42.355912,-71.064145,10,0.02,2008-02-04
bostonu,42.35041,-71.10438,10,0.011,2008-02-04
bouldinalfalfa,38.0985,-121.4993,-5,0.072,2008-02-04
bouldincorn,38.109,-121.535,-5,0.086,2008-02-04
bozeman,45.783056,-110.777778,2332,0.712,2008-02-04
brackishimpoundment,33.2015,-79.2973,1,-0.853,2008-02-04
bullshoals,36.562833,-93.06663,260,-1.079,2008-02-04
burnssagebrush,43.4712,-119.6909,1398,-0.09,2008-02-04
butte,45.95304,-112.47964,1682,-0.247,2008-02-04
butterice,39.5793,-121.858,33,-0.206,2008-02-04
cafboydnorthltar01,46.755104,-117.126052,795,1.325,2008-02-04
cafboydsouthltar01,46.751809,-117.128502,795,1.325,2008-02-04
cafcookeastltar01,46.78152,-117.0821,794,1.327,2008-02-04
cafcookwestltar01,46.784037,-117.09083,807,1.327,2008-02-04
caryinstitute,41.7839,-73.7341,127,0.578,2008-02-04
centralredwoods1,38.632272,-123.301511,200,0.232,2008-02-04
centralredwoods2,38.632272,-123.301511,200,0.232,2008-02-04
cperagm,40.8402,-104.7672,1644,0.701,2008-02-04
cperheavy,40.8153,-104.7386,1652,0.675,2008-02-04
cpertgm,40.833,-104.76,1644,0.695,2008-02-04
cperuvb,40.8055764,-104.7558542,1641,0.695,2008-02-04
cuny,40.8162,-73.9507,42,0.0,2008-02-04
doverdesaltmarsh,39.0888,-75.4368,0,0.023,2008-02-04
downerwoods,43.07938,-87.88076,213,0.621,2008-02-04
dukehw,35.973583,-79.100371,400,-1.232,2008-02-04
ecb1,41.5348,-84.8068,275,2.167,2008-02-04
ecb2,41.5321,-84.808,275,2.167,2008-02-04
ecb4,41.1796,-83.0604,240,1.46,2008-02-04
elverde,18.320654,-65.8199,312,-9999.0,2008-02-04
flagstaff,35.17961521,-111.6049032,6983,0.713,2008-02-04
flagstaff2,35.179225,-111.604506,6983,0.713,2008-02-04
flagstaffchimneysprings,35.257296,-111.678542,2250,0.84,2008-02-04
forbes,39.232,-121.2972,360,-0.017,2008-02-04
fortpaynealpasture1,34.3824,-85.6428,405,-1.062,2008-02-04
fortpaynealpasture2,34.3824,-85.6447,403,-1.062,2008-02-04
gcesapelo,31.4440444,-81.283528,0,-0.716,2008-02-04
gilberttract,38.0015,-121.6691,6,0.008,2008-02-04
glees,41.3644,-106.2394,3150,0.349,2008-02-04
glennorganicrice,39.6805,-122.0026,2,-0.247,2008-02-04
glennrice,39.5944,-122.0253,36,-0.195,2008-02-04
goodnow,43.96018,-74.20994,820,1.693,2008-02-04
goodwater,39.22848,-92.11936,264,0.233,2008-02-04
goodwaterbau,39.23115,-92.15216,274,0.198,2008-02-04
grandteton,43.915017,-110.578036,2054,0.378,2008-02-04
grca1pj,36.0241,-112.2211,1978,-0.005,2008-02-04
greenridge1,39.6905,-78.4067,285,0.631,2008-02-04
harvard,42.5378,-72.1715,340,0.246,2008-02-04
harvardbarn,42.53532,-72.1899,350,0.254,2008-02-04
harvardbarn2,42.53532,-72.1899,350,0.254,2008-02-04
harvardems2,42.5378,-72.1715,340,0.246,2008-02-04
harvardfarmnorth,42.520465,-72.182242,355,0.254,2008-02-04
harvardfarmsouth,42.522466,-72.182339,355,0.254,2008-02-04
harvardgarden,42.5291,-72.1863,335,0.254,2008-02-04
harvardhemlock,42.539,-72.18,355,0.254,2008-02-04
harvardhemlock2,42.539407,-72.177976,355,0.246,2008-02-04
harvardlph,42.542,-72.185,380,0.254,2008-02-04
hawbeckereddy,40.6608,-77.848849,310,1.072,2008-02-04
hobcawclearcutlongleaf,33.3486,-79.232,4,-0.934,2008-02-04
hobcawmaturelongleaf,33.3242,-79.2439,8,-0.934,2008-02-04
homesteadsprings,37.2009,-92.9937,452,-0.274,2008-02-04
howland1,45.2041,-68.7403,80,1.101,2008-02-04
howland2,45.2128,-68.7418,79,1.101,2008-02-04
hubbardbrook,43.9438,-71.701,253,0.54,2008-02-04
humnokericea,34.585192,-91.751684,61,-0.556,2008-02-04
humnokericec,34.588853,-91.7516729,70,-0.556,2008-02-04
huyckpreserveny,42.5266,-74.1587,478,0.363,2008-02-04
hwmo1,20.0212,-155.7331,585,-9999.0,2008-02-04
hwmo2,19.9766,-155.8298,12,-9999.0,2008-02-04
hwmo5,20.1117,-155.8151,635,-9999.0,2008-02-04
ibp,32.589,-106.847,1325,-0.698,2008-02-04
imcrkfen,68.60583,-149.31101,900,-9999.0,2008-02-04
imcrkridge0,68.60681,-149.2958,951,-9999.0,2008-02-04
imcrkridge1,68.60681,-149.2958,951,-9999.0,2008-02-04
imcrktussock,68.60633,-149.30408,918,-9999.0,2008-02-04
jasperridge,37.402028,-122.22104,197,-0.074,2008-02-04
jerbajada,32.57992,-106.633793,1402,-0.677,2008-02-04
jergrassland,32.5833,-106.8333,1331,-0.698,2008-02-04
jernort,32.619,-106.788,1328,-0.71,2008-02-04
jernovel,32.6335,-106.8334,1324,-0.732,2008-02-04
jernwern,32.6271,-106.7387,1325,-0.75,2008-02-04
jersand,32.515,-106.798,1363,-0.771,2008-02-04
jershrubland,32.6502,-106.8334,1328,-0.748,2008-02-04
junipersavannah,34.4254,-105.8615,1931,-0.344,2008-02-04
kamuela,20.015008,-155.661326,850,-9999.0,2008-02-04
kamuela2,20.014959,-155.661139,830,-9999.0,2008-02-04
kansas,39.0561,-95.1907,333,0.14,2008-02-04
kelloggcorn,42.437536,-85.3225472,288,0.985,2008-02-04
kempnrs,45.83992,-89.67755,539,-0.427,2008-02-04
kendall,31.73652,-109.94185,1529,-0.299,2008-02-04
konza,39.0824,-96.5603,443,0.706,2008-02-04
laupahoehoe,19.9322,-155.2912,1145,-9999.0,2008-02-04
ldeocam,41.0039,-73.9053,121,-0.033,2008-02-04
lostcreek,46.0827,-89.9792,480,-0.178,2008-02-04
luckyhills,31.743896,-110.052023,1366,-0.338,2008-02-04
macleish,42.4484,-72.6804,251,0.173,2008-02-04
macordway,44.8106,-93.0272,264,-0.87,2008-02-04
mandanh5,46.775423,-100.95109,593,-1.149,2008-02-04
mandani2,46.7614,-100.9257,590,-1.132,2008-02-04
manilacotton,35.8872,-90.1371,73,-0.119,2008-02-04
marena,36.06434,-97.21271,327,-0.669,2008-02-04
mead1,41.1651,-96.4766,361,0.359,2008-02-04
mead2,41.1649,-96.4701,362,0.359,2008-02-04
mead3,41.1797,-96.4397,363,0.308,2008-02-04
meadpasture,41.1447,-96.4616,356,0.384,2008-02-04
meadpasturese,41.1447,-96.4616,356,0.384,2008-02-04
meadpasturesw,41.1447,-96.4616,356,0.384,2008-02-04
missouriozarks,38.7441,-92.2,219,-0.245,2008-02-04
morganmonroe,39.3231,-86.4131,275,0.379,2008-02-04
morganmonroe2,39.3231,-86.4131,275,0.379,2008-02-04
nahuku,19.415187,-155.238383,1202,-9999.0,2008-02-04
nationalelkrefuge,43.488931,-110.737824,1899,-0.275,2008-02-04
ncssm,36.018446,-78.92075,175,-1.163,2008-02-04
NEON.D01.BART.DP1.00033,44.063869,-71.287375,285,1.097,2008-02-04
NEON.D01.HARV.DP1.00033,42.536911,-72.17265,359,0.246,2008-02-04
NEON.D01.HOPB.DP1.20002,42.471786,-72.329627,203,-0.034,2008-02-04
NEON.D02.BLAN.DP1.00033,39.033698,-78.041788,162,-0.338,2008-02-04
NEON.D02.LEWI.DP1.20002,39.09564,-77.98322,152,-0.221,2008-02-04
NEON.D02.POSE.DP1.20002,38.89332,-78.14678,293,-0.59,2008-02-04
NEON.D02.SCBI.DP1.00033,38.892925,-78.139494,364,-0.622,2008-02-04
NEON.D02.SERC.DP1.00033,38.89008,-76.56001,30,-0.43,2008-02-04
NEON.D03.BARC.DP1.20002,29.676473,-82.009089,35,-0.697,2008-02-04
NEON.D03.DSNY.DP1.00033,28.12505,-81.43619,22,-0.879,2008-02-04
NEON.D03.FLNT.DP1.20002,31.185424,-84.437403,27,0.25,2008-02-04
NEON.D03.JERC.DP1.00033,31.194839,-84.468623,58,0.259,2008-02-04
NEON.D03.OSBS.DP1.00033,29.689282,-81.993431,56,-0.693,2008-02-04
NEON.D03.SUGG.DP1.20002,29.687054,-82.016171,28,-0.693,2008-02-04
NEON.D04.CUPE.DP1.20002,18.11352,-66.98676,164,-9999.0,2008-02-04
NEON.D04.GUAN.DP1.00033,17.96955,-66.8687,136,-9999.0,2008-02-04
NEON.D04.GUIL.DP1.20002,18.1741,-66.79851,564,-9999.0,2008-02-04
NEON.D04.LAJA.DP1.00033,18.021261,-67.076889,22,-9999.0,2008-02-04
NEON.D05.CRAM.DP1.20002,46.21111,-89.47825,518,-0.258,2008-02-04
NEON.D05.LIRO.DP1.20002,45.998269,-89.704767,495,-0.54,2008-02-04
NEON.D05.STEI.DP1.00033,45.50894,-89.58637,476,-0.491,2008-02-04
NEON.D05.TREE.DP1.00033,45.49373,-89.58572,474,-0.491,2008-02-04
NEON.D05.UNDE.DP1.00033,46.23391,-89.537254,529,-0.269,2008-02-04
NEON.D06.KING.DP1.20002,39.10506,-96.60336,339,0.719,2008-02-04
NEON.D06.KONA.DP1.00033,39.110446,-96.612935,443,0.719,2008-02-04
NEON.D06.KONZ.DP1.00033,39.10077,-96.56309,415,0.706,2008-02-04
NEON.D06.MCDI.DP1.20002,38.94428,-96.44197,376,0.745,2008-02-04
NEON.D06.UKFS.DP1.00033,39.040431,-95.19215,330,0.14,2008-02-04
NEON.D07.GRSM.DP1.00033,35.68896,-83.50195,589,-0.85,2008-02-04
NEON.D07.LECO.DP1.20002,35.69043,-83.50379,578,-0.85,2008-02-04
NEON.D07.MLBS.DP1.00033,37.378314,-80.524847,1177,-1.039,2008-02-04
NEON.D07.ORNL.DP1.00033,35.964128,-84.282588,351,-0.755,2008-02-04
NEON.D07.WALK.DP1.20002,35.95947,-84.28041,274,-0.722,2008-02-04
NEON.D08.BLWA.DP1.20002,32.541529,-87.798151,23,-0.88,2008-02-04
NEON.D08.DELA.DP1.00033,32.541727,-87.803877,36,-0.88,2008-02-04
NEON.D08.LENO.DP1.00033,31.85388,-88.16122,10,-0.635,2008-02-04
NEON.D08.MAYF.DP1.20002,32.959657,-87.408128,93,-1.163,2008-02-04
NEON.D08.TALL.DP1.00033,32.95047,-87.393259,167,-1.163,2008-02-04
NEON.D08.TOMB.DP1.20002,31.853431,-88.158872,10,-0.635,2008-02-04
NEON.D09.DCFS.DP1.00033,47.161647,-99.106556,574,-1.178,2008-02-04
NEON.D09.NOGP.DP1.00033,46.76972,-100.91535,589,-1.132,2008-02-04
NEON.D09.PRLA.DP1.20002,47.15909,-99.11388,563,-1.208,2008-02-04
NEON.D09.PRPO.DP1.20002,47.12999,-99.250551,587,-1.24,2008-02-04
NEON.D09.WOOD.DP1.00033,47.1282,-99.241334,585,-1.24,2008-02-04
NEON.D10.ARIK.DP1.20002,39.758246,-102.447103,1188,0.384,2008-02-04
NEON.D10.CPER.DP1.00033,40.81553,-104.7456,1600,0.695,2008-02-04
NEON.D10.HQTW.DP1.00033,40.016704,-105.245612,1601,-0.09,2008-02-04
NEON.D10.RMNP.DP1.00033,40.275903,-105.545955,2751,-0.349,2008-02-04
NEON.D10.STER.DP1.00033,40.461894,-103.02929,1366,0.681,2008-02-04
NEON.D11.BLUE.DP1.20002,34.444218,-96.624201,288,-1.02,2008-02-04
NEON.D11.CLBJ.DP1.00033,33.40123,-97.57,279,-1.062,2008-02-04
NEON.D11.OAES.DP1.00033,35.41059,-99.05879,520,-0.434,2008-02-04
NEON.D11.PRIN.DP1.20002,33.37859,-97.78226,255,-1.059,2008-02-04
NEON.D12.BLDE.DP1.20002,44.95011,-110.58715,2035,0.082,2008-02-04
NEON.D12.YELL.DP1.00033,44.95348,-110.53914,2130,0.326,2008-02-04
NEON.D13.COMO.DP1.20002,40.03496,-105.54487,3036,-0.191,2008-02-04
NEON.D13.MOAB.DP1.00033,38.24833,-109.38827,1803,0.693,2008-02-04
NEON.D13.NIWO.DP1.00033,40.05425,-105.58237,3493,-0.182,2008-02-04
NEON.D13.WLOU.DP1.20002,39.891366,-105.915395,2920,0.387,2008-02-04
NEON.D14.JORN.DP1.00033,32.59068,-106.84254,1321,-0.698,2008-02-04
NEON.D14.SRER.DP1.00033,31.91068,-110.83549,999,-0.203,2008-02-04
NEON.D14.SYCA.DP1.20002,33.749057,-111.506903,644,0.92,2008-02-04
NEON.D15.ONAQ.DP1.00033,40.177599,-112.452452,1655,0.594,2008-02-04
NEON.D15.REDB.DP1.20002,40.783934,-111.797887,1696,0.401,2008-02-04
NEON.D16.ABBY.DP1.00033,45.76243,-122.33033,390,0.549,2008-02-04
NEON.D16.MART.DP1.20002,45.791248,-121.931959,354,0.864,2008-02-04
NEON.D16.MCRA.DP1.20002,44.259598,-122.165554,880,0.992,2008-02-04
NEON.D16.WREF.DP1.00033,45.82049,-121.95191,368,0.79,2008-02-04
NEON.D17.BIGC.DP1.20002,37.059719,-119.257549,1133,0.057,2008-02-04
NEON.D17.SJER.DP1.00033,37.10878,-119.73228,398,0.108,2008-02-04
NEON.D17.SOAP.DP1.00033,37.03337,-119.26219,1210,0.189,2008-02-04
NEON.D17.TEAK.DP1.00033,37.00583,-119.00602,2149,0.058,2008-02-04
NEON.D17.TECR.DP1.20002,36.955931,-119.027363,2053,-0.036,2008-02-04
NEON.D18.BARR.DP1.00033,71.28241,-156.61936,7,-9999.0,2008-02-04
NEON.D18.OKSR.DP1.20002,68.669753,-149.143018,773,-9999.0,2008-02-04
NEON.D18.TOOK.DP1.20002,68.629562,-149.610509,715,-9999.0,2008-02-04
NEON.D18.TOOL.DP1.00033,68.66109,-149.37047,827,-9999.0,2008-02-04
NEON.D19.BONA.DP1.00033,65.15401,-147.50258,233,-9999.0,2008-02-04
NEON.D19.CARI.DP1.20002,65.15306,-147.50246,229,-9999.0,2008-02-04
NEON.D19.DEJU.DP1.00033,63.88112,-145.75136,504,-9999.0,2008-02-04
NEON.D19.HEAL.DP1.00033,63.87569,-149.21334,409,-9999.0,2008-02-04
NEON.D20.PUUM.DP1.00033,19.55309,-155.31731,1683,-9999.0,2008-02-04
nevcansnk3a,39.0099,-114.3095,3063,0.166,2008-02-04
nevcanspg1a,38.9253,-114.4082,1792,0.578,2008-02-04
nevcanspg2a,38.8921,-114.3521,2203,0.438,2008-02-04
nevcanspg3a,38.8898,-114.3314,2820,0.224,2008-02-04
nevcanspg4a,38.9061,-114.3089,3360,0.224,2008-02-04
ninemileprairie,40.86801886,-96.82208066,381,0.105,2008-02-04
nist,39.139,-77.2125,100,-0.463,2008-02-04
niwot3,40.03286358,-105.5469702,3050,-0.191,2008-02-04
niwot5,40.03286358,-105.5469702,2993,-0.191,2008-02-04
northattleboroma,41.98369,-71.31056,60,-0.126,2008-02-04
northinletsaltmarsh,33.3455,-79.1957,1,-0.946,2008-02-04
oakville,47.899334,-97.316139,268,-0.855,2008-02-04
oregonMP,44.4523,-121.5574,1253,0.794,2008-02-04
oregonYP,44.32384,-121.605993,977,0.724,2008-02-04
oregonYPbud,44.3238,-121.606,977,0.724,2008-02-04
othshardwood,44.934805,-68.6655,41,0.666,2008-02-04
othssoftwood,44.934527,-68.664888,41,0.666,2008-02-04
pace,37.9229,-78.2739,100,-1.055,2008-02-04
parkschoolbuffalo,42.9637,-78.7834,205,1.347,2008-02-04
piedmontalpasture2,33.8875,-85.6935,238,-1.105,2008-02-04
portal,31.9385,-109.0823,1330,-0.142,2008-02-04
proctor,44.525,-72.866,403,1.308,2008-02-04
readingma,42.5304,-71.1272,100,0.077,2008-02-04
robinson,37.4671,-83.1576,483,0.228,2008-02-04
robinson2,37.4671,-83.1576,483,0.228,2008-02-04
rosemountcons,44.6946,-93.0578,283,-0.904,2008-02-04
rosemountconv,44.691,-93.0576,283,-0.904,2008-02-04
rosemountnprs,44.6781,-93.0723,274,-1.031,2008-02-04
russellsage,32.456961,-91.974322,20,-1.064,2008-02-04
sagehen,39.4315,-120.2398,1934,-0.221,2008-02-04
sagehen2,39.4307,-120.2407,1937,-0.221,2008-02-04
sagehen3,39.4311,-120.2405,1935,-0.221,2008-02-04
sanford,42.726777,-84.464482,268,0.432,2008-02-04
santacruz1,36.9741,-122.0308,11,0.166,2008-02-04
santacruz2,36.9741,-122.0308,11,0.166,2008-02-04
santaluciapreserve1,36.5265,-121.8682,500,-0.206,2008-02-04
santaluciapreserve2,36.5265,-121.8682,500,-0.206,2008-02-04
segaarboretum10,35.16209,-111.73151,2170,0.683,2008-02-04
