site,lat,lon,elev,values,date
alligatorriver,35.7879,-75.9038,1,-0.014,2020-01-06
arbutuslake,43.98207,-74.23322,535,1.259,2020-01-06
arbutuslakeinlet,43.99336,-74.24527,527,1.259,2020-01-06
archboldavir,27.176064,-81.21958,8,0.767,2020-01-06
archboldavirx,27.166627,-81.219828,8,0.767,2020-01-06
archboldbahia,27.1656,-81.216112,8,0.767,2020-01-06
archboldpnot,27.187948,-81.200345,9,0.767,2020-01-06
archboldpnotx,27.180677,-81.20068,9,0.767,2020-01-06
arkansascornsoy,34.416,-91.6723,61,0.206,2020-01-06
arsbrooks10,41.9749,-93.6905,312,0.192,2020-01-06
arsbrooks11,41.9744,-93.6937,313,0.192,2020-01-06
arscolesnorth,42.4884,-93.5225,356,0.443,2020-01-06
arscolessouth,42.4816,-93.5235,352,0.443,2020-01-06
arsgacp1,31.5109,-83.6179,96,0.484,2020-01-06
arsgacp3,31.7563,-83.7516,139,1.423,2020-01-06
arsgacp4,31.7093,-83.7287,127,1.134,2020-01-06
arsgreatbasinltar098,43.1675,-116.7132,1426,-0.846,2020-01-06
arsgreatbasinltar117,43.1432,-116.7357,1625,-1.069,2020-01-06
arsgreatbasinltar177,43.0645,-116.7484,2114,-1.184,2020-01-06
arsltarmdcr,39.0587,-75.8513,17,0.622,2020-01-06
arsltarmdcrnatw,39.0575,-75.7531,16,0.548,2020-01-06
arsltarmdcrprcw,39.0667,-75.7609,17,0.548,2020-01-06
arsltarmdcrresw,39.0549,-75.7532,16,0.548,2020-01-06
arsltarucbec1,40.7537,-78.0057,400,0.381,2020-01-06
arsltarucbec2,40.7558,-77.9999,396,0.381,2020-01-06
arsmnswanlake1,45.684508,-95.799703,370,0.402,2020-01-06
arsmorris1,45.6167,-96.1269,341,0.499,2020-01-06
arsmorris2,45.627,-96.127,338,0.499,2020-01-06
arsmorris3,45.6091,-96.1265,342,0.499,2020-01-06
arsope3ltar,39.0309,-76.8442,41,0.857,2020-01-06
ashburnham,42.6029,-71.926,292,1.655,2020-01-06
asuhighlands,36.2076,-81.7032,1016,1.301,2020-01-06
austincary,29.738,-82.2188,44,0.982,2020-01-06
barrow,71.28007453,-156.6091492,5,-9999.0,2020-01-06
bartlettir,44.0646,-71.2881,268,0.646,2020-01-06
bigtraillake,64.9194,-147.822,190,-9999.0,2020-01-06
bitterbrush001,48.154,-119.9456,667,-1.392,2020-01-06
blackrockforest,41.3974,-74.0239,427,1.256,2020-01-06
bnzblackspruce,64.6963,-148.3235,102,-9999.0,2020-01-06
bnzrichfen,64.70134,-148.31195,97,-9999.0,2020-01-06
bnzthermokarstbog,64.6955,-148.3208,104,-9999.0,2020-01-06
boglakepeatland,47.5051,-93.4893,416,0.895,2020-01-06
bostoncommon,42.355912,-71.064145,10,0.744,2020-01-06
bostonu,42.35041,-71.10438,10,0.825,2020-01-06
bouldinalfalfa,38.0985,-121.4993,-5,-1.081,2020-01-06
bouldincorn,38.109,-121.535,-5,-1.079,2020-01-06
bozeman,45.783056,-110.777778,2332,-0.316,2020-01-06
brackishimpoundment,33.2015,-79.2973,1,1.28,2020-01-06
bullshoals,36.562833,-93.06663,260,1.018,2020-01-06
burnssagebrush,43.4712,-119.6909,1398,-0.506,2020-01-06
butte,45.95304,-112.47964,1682,-0.437,2020-01-06
butterice,39.5793,-121.858,33,-1.075,2020-01-06
cafboydnorthltar01,46.755104,-117.126052,795,-1.589,2020-01-06
cafboydsouthltar01,46.751809,-117.128502,795,-1.589,2020-01-06
cafcookeastltar01,46.78152,-117.0821,794,-1.556,2020-01-06
cafcookwestltar01,46.784037,-117.09083,807,-1.556,2020-01-06
caryinstitute,41.7839,-73.7341,127,1.165,2020-01-06
centralredwoods1,38.632272,-123.301511,200,-0.47,2020-01-06
centralredwoods2,38.632272,-123.301511,200,-0.47,2020-01-06
cperagm,40.8402,-104.7672,1644,0.508,2020-01-06
cperheavy,40.8153,-104.7386,1652,0.788,2020-01-06
cpertgm,40.833,-104.76,1644,0.675,2020-01-06
cperuvb,40.8055764,-104.7558542,1641,0.675,2020-01-06
cuny,40.8162,-73.9507,42,1.194,2020-01-06
doverdesaltmarsh,39.0888,-75.4368,0,0.236,2020-01-06
downerwoods,43.07938,-87.88076,213,0.812,2020-01-06
dukehw,35.973583,-79.100371,400,0.699,2020-01-06
ecb1,41.5348,-84.8068,275,0.675,2020-01-06
ecb2,41.5321,-84.808,275,0.675,2020-01-06
ecb4,41.1796,-83.0604,240,-0.777,2020-01-06
elverde,18.320654,-65.8199,312,-9999.0,2020-01-06
flagstaff,35.17961521,-111.6049032,6983,0.604,2020-01-06
flagstaff2,35.179225,-111.604506,6983,0.604,2020-01-06
flagstaffchimneysprings,35.257296,-111.678542,2250,0.461,2020-01-06
forbes,39.232,-121.2972,360,-0.866,2020-01-06
fortpaynealpasture1,34.3824,-85.6428,405,1.825,2020-01-06
fortpaynealpasture2,34.3824,-85.6447,403,1.825,2020-01-06
gcesapelo,31.4440444,-81.283528,0,2.359,2020-01-06
gilberttract,38.0015,-121.6691,6,-1.013,2020-01-06
glees,41.3644,-106.2394,3150,0.694,2020-01-06
glennorganicrice,39.6805,-122.0026,2,-1.136,2020-01-06
glennrice,39.5944,-122.0253,36,-1.181,2020-01-06
goodnow,43.96018,-74.20994,820,1.252,2020-01-06
goodwater,39.22848,-92.11936,264,-0.104,2020-01-06
goodwaterbau,39.23115,-92.15216,274,-0.117,2020-01-06
grandteton,43.915017,-110.578036,2054,-1.302,2020-01-06
grca1pj,36.0241,-112.2211,1978,0.308,2020-01-06
greenridge1,39.6905,-78.4067,285,-0.21,2020-01-06
harvard,42.5378,-72.1715,340,1.632,2020-01-06
harvardbarn,42.53532,-72.1899,350,1.496,2020-01-06
harvardbarn2,42.53532,-72.1899,350,1.496,2020-01-06
harvardems2,42.5378,-72.1715,340,1.632,2020-01-06
harvardfarmnorth,42.520465,-72.182242,355,1.496,2020-01-06
harvardfarmsouth,42.522466,-72.182339,355,1.496,2020-01-06
harvardgarden,42.5291,-72.1863,335,1.496,2020-01-06
harvardhemlock,42.539,-72.18,355,1.496,2020-01-06
harvardhemlock2,42.539407,-72.177976,355,1.632,2020-01-06
harvardlph,42.542,-72.185,380,1.496,2020-01-06
hawbeckereddy,40.6608,-77.848849,310,0.38,2020-01-06
hobcawclearcutlongleaf,33.3486,-79.232,4,1.209,2020-01-06
hobcawmaturelongleaf,33.3242,-79.2439,8,1.209,2020-01-06
homesteadsprings,37.2009,-92.9937,452,0.084,2020-01-06
howland1,45.2041,-68.7403,80,0.563,2020-01-06
howland2,45.2128,-68.7418,79,0.563,2020-01-06
hubbardbrook,43.9438,-71.701,253,0.463,2020-01-06
humnokericea,34.585192,-91.751684,61,0.283,2020-01-06
humnokericec,34.588853,-91.7516729,70,0.283,2020-01-06
huyckpreserveny,42.5266,-74.1587,478,1.234,2020-01-06
hwmo1,20.0212,-155.7331,585,-9999.0,2020-01-06
hwmo2,19.9766,-155.8298,12,-9999.0,2020-01-06
hwmo5,20.1117,-155.8151,635,-9999.0,2020-01-06
ibp,32.589,-106.847,1325,0.552,2020-01-06
imcrkfen,68.60583,-149.31101,900,-9999.0,2020-01-06
imcrkridge0,68.60681,-149.2958,951,-9999.0,2020-01-06
imcrkridge1,68.60681,-149.2958,951,-9999.0,2020-01-06
imcrktussock,68.60633,-149.30408,918,-9999.0,2020-01-06
jasperridge,37.402028,-122.22104,197,-0.772,2020-01-06
jerbajada,32.57992,-106.633793,1402,0.43,2020-01-06
jergrassland,32.5833,-106.8333,1331,0.552,2020-01-06
jernort,32.619,-106.788,1328,0.562,2020-01-06
jernovel,32.6335,-106.8334,1324,0.598,2020-01-06
jernwern,32.6271,-106.7387,1325,0.564,2020-01-06
jersand,32.515,-106.798,1363,0.447,2020-01-06
jershrubland,32.6502,-106.8334,1328,0.636,2020-01-06
junipersavannah,34.4254,-105.8615,1931,0.029,2020-01-06
kamuela,20.015008,-155.661326,850,-9999.0,2020-01-06
kamuela2,20.014959,-155.661139,830,-9999.0,2020-01-06
kansas,39.0561,-95.1907,333,-0.657,2020-01-06
kelloggcorn,42.437536,-85.3225472,288,0.919,2020-01-06
kempnrs,45.83992,-89.67755,539,1.48,2020-01-06
kendall,31.73652,-109.94185,1529,1.254,2020-01-06
konza,39.0824,-96.5603,443,-0.447,2020-01-06
laupahoehoe,19.9322,-155.2912,1145,-9999.0,2020-01-06
ldeocam,41.0039,-73.9053,121,1.418,2020-01-06
lostcreek,46.0827,-89.9792,480,1.556,2020-01-06
luckyhills,31.743896,-110.052023,1366,1.148,2020-01-06
macleish,42.4484,-72.6804,251,1.239,2020-01-06
macordway,44.8106,-93.0272,264,0.84,2020-01-06
mandanh5,46.775423,-100.95109,593,1.213,2020-01-06
mandani2,46.7614,-100.9257,590,1.214,2020-01-06
manilacotton,35.8872,-90.1371,73,1.3,2020-01-06
marena,36.06434,-97.21271,327,0.264,2020-01-06
mead1,41.1651,-96.4766,361,-0.218,2020-01-06
mead2,41.1649,-96.4701,362,-0.218,2020-01-06
mead3,41.1797,-96.4397,363,-0.229,2020-01-06
meadpasture,41.1447,-96.4616,356,-0.249,2020-01-06
meadpasturese,41.1447,-96.4616,356,-0.249,2020-01-06
meadpasturesw,41.1447,-96.4616,356,-0.249,2020-01-06
missouriozarks,38.7441,-92.2,219,0.008,2020-01-06
morganmonroe,39.3231,-86.4131,275,1.276,2020-01-06
morganmonroe2,39.3231,-86.4131,275,1.276,2020-01-06
nahuku,19.415187,-155.238383,1202,-9999.0,2020-01-06
nationalelkrefuge,43.488931,-110.737824,1899,-1.203,2020-01-06
ncssm,36.018446,-78.92075,175,0.648,2020-01-06
NEON.D01.BART.DP1.00033,44.063869,-71.287375,285,0.646,2020-01-06
NEON.D01.HARV.DP1.00033,42.536911,-72.17265,359,1.632,2020-01-06
NEON.D01.HOPB.DP1.20002,42.471786,-72.329627,203,1.107,2020-01-06
NEON.D02.BLAN.DP1.00033,39.033698,-78.041788,162,-0.034,2020-01-06
NEON.D02.LEWI.DP1.20002,39.09564,-77.98322,152,-0.053,2020-01-06
NEON.D02.POSE.DP1.20002,38.89332,-78.14678,293,-0.081,2020-01-06
NEON.D02.SCBI.DP1.00033,38.892925,-78.139494,364,0.003,2020-01-06
NEON.D02.SERC.DP1.00033,38.89008,-76.56001,30,0.535,2020-01-06
NEON.D03.BARC.DP1.20002,29.676473,-82.009089,35,1.167,2020-01-06
NEON.D03.DSNY.DP1.00033,28.12505,-81.43619,22,1.397,2020-01-06
NEON.D03.FLNT.DP1.20002,31.185424,-84.437403,27,0.563,2020-01-06
NEON.D03.JERC.DP1.00033,31.194839,-84.468623,58,0.543,2020-01-06
NEON.D03.OSBS.DP1.00033,29.689282,-81.993431,56,1.15,2020-01-06
NEON.D03.SUGG.DP1.20002,29.687054,-82.016171,28,1.15,2020-01-06
NEON.D04.CUPE.DP1.20002,18.11352,-66.98676,164,-9999.0,2020-01-06
NEON.D04.GUAN.DP1.00033,17.96955,-66.8687,136,-9999.0,2020-01-06
NEON.D04.GUIL.DP1.20002,18.1741,-66.79851,564,-9999.0,2020-01-06
NEON.D04.LAJA.DP1.00033,18.021261,-67.076889,22,-9999.0,2020-01-06
NEON.D05.CRAM.DP1.20002,46.21111,-89.47825,518,1.722,2020-01-06
NEON.D05.LIRO.DP1.20002,45.998269,-89.704767,495,1.589,2020-01-06
NEON.D05.STEI.DP1.00033,45.50894,-89.58637,476,1.108,2020-01-06
NEON.D05.TREE.DP1.00033,45.49373,-89.58572,474,1.108,2020-01-06
NEON.D05.UNDE.DP1.00033,46.23391,-89.537254,529,1.748,2020-01-06
NEON.D06.KING.DP1.20002,39.10506,-96.60336,339,-0.486,2020-01-06
NEON.D06.KONA.DP1.00033,39.110446,-96.612935,443,-0.486,2020-01-06
NEON.D06.KONZ.DP1.00033,39.10077,-96.56309,415,-0.447,2020-01-06
NEON.D06.MCDI.DP1.20002,38.94428,-96.44197,376,-0.468,2020-01-06
NEON.D06.UKFS.DP1.00033,39.040431,-95.19215,330,-0.657,2020-01-06
NEON.D07.GRSM.DP1.00033,35.68896,-83.50195,589,1.645,2020-01-06
NEON.D07.LECO.DP1.20002,35.69043,-83.50379,578,1.645,2020-01-06
NEON.D07.MLBS.DP1.00033,37.378314,-80.524847,1177,1.104,2020-01-06
NEON.D07.ORNL.DP1.00033,35.964128,-84.282588,351,1.917,2020-01-06
NEON.D07.WALK.DP1.20002,35.95947,-84.28041,274,1.85,2020-01-06
NEON.D08.BLWA.DP1.20002,32.541529,-87.798151,23,1.969,2020-01-06
NEON.D08.DELA.DP1.00033,32.541727,-87.803877,36,1.969,2020-01-06
NEON.D08.LENO.DP1.00033,31.85388,-88.16122,10,2.056,2020-01-06
NEON.D08.MAYF.DP1.20002,32.959657,-87.408128,93,1.664,2020-01-06
NEON.D08.TALL.DP1.00033,32.95047,-87.393259,167,1.664,2020-01-06
NEON.D08.TOMB.DP1.20002,31.853431,-88.158872,10,2.056,2020-01-06
NEON.D09.DCFS.DP1.00033,47.161647,-99.106556,574,1.397,2020-01-06
NEON.D09.NOGP.DP1.00033,46.76972,-100.91535,589,1.214,2020-01-06
NEON.D09.PRLA.DP1.20002,47.15909,-99.11388,563,1.409,2020-01-06
NEON.D09.PRPO.DP1.20002,47.12999,-99.250551,587,1.383,2020-01-06
NEON.D09.WOOD.DP1.00033,47.1282,-99.241334,585,1.383,2020-01-06
NEON.D10.ARIK.DP1.20002,39.758246,-102.447103,1188,-0.614,2020-01-06
NEON.D10.CPER.DP1.00033,40.81553,-104.7456,1600,0.675,2020-01-06
NEON.D10.HQTW.DP1.00033,40.016704,-105.245612,1601,0.374,2020-01-06
NEON.D10.RMNP.DP1.00033,40.275903,-105.545955,2751,0.567,2020-01-06
NEON.D10.STER.DP1.00033,40.461894,-103.02929,1366,-0.383,2020-01-06
NEON.D11.BLUE.DP1.20002,34.444218,-96.624201,288,0.545,2020-01-06
NEON.D11.CLBJ.DP1.00033,33.40123,-97.57,279,0.096,2020-01-06
NEON.D11.OAES.DP1.00033,35.41059,-99.05879,520,-0.37,2020-01-06
NEON.D11.PRIN.DP1.20002,33.37859,-97.78226,255,0.186,2020-01-06
NEON.D12.BLDE.DP1.20002,44.95011,-110.58715,2035,-0.649,2020-01-06
NEON.D12.YELL.DP1.00033,44.95348,-110.53914,2130,-0.594,2020-01-06
NEON.D13.COMO.DP1.20002,40.03496,-105.54487,3036,0.445,2020-01-06
NEON.D13.MOAB.DP1.00033,38.24833,-109.38827,1803,0.245,2020-01-06
NEON.D13.NIWO.DP1.00033,40.05425,-105.58237,3493,0.347,2020-01-06
NEON.D13.WLOU.DP1.20002,39.891366,-105.915395,2920,0.413,2020-01-06
NEON.D14.JORN.DP1.00033,32.59068,-106.84254,1321,0.552,2020-01-06
NEON.D14.SRER.DP1.00033,31.91068,-110.83549,999,0.535,2020-01-06
NEON.D14.SYCA.DP1.20002,33.749057,-111.506903,644,0.48,2020-01-06
NEON.D15.ONAQ.DP1.00033,40.177599,-112.452452,1655,0.148,2020-01-06
NEON.D15.REDB.DP1.20002,40.783934,-111.797887,1696,-0.116,2020-01-06
NEON.D16.ABBY.DP1.00033,45.76243,-122.33033,390,-1.363,2020-01-06
NEON.D16.MART.DP1.20002,45.791248,-121.931959,354,-1.513,2020-01-06
NEON.D16.MCRA.DP1.20002,44.259598,-122.165554,880,-1.678,2020-01-06
NEON.D16.WREF.DP1.00033,45.82049,-121.95191,368,-1.487,2020-01-06
NEON.D17.BIGC.DP1.20002,37.059719,-119.257549,1133,-0.39,2020-01-06
NEON.D17.SJER.DP1.00033,37.10878,-119.73228,398,-0.663,2020-01-06
NEON.D17.SOAP.DP1.00033,37.03337,-119.26219,1210,-0.423,2020-01-06
NEON.D17.TEAK.DP1.00033,37.00583,-119.00602,2149,-0.407,2020-01-06
NEON.D17.TECR.DP1.20002,36.955931,-119.027363,2053,-0.422,2020-01-06
NEON.D18.BARR.DP1.00033,71.28241,-156.61936,7,-9999.0,2020-01-06
NEON.D18.OKSR.DP1.20002,68.669753,-149.143018,773,-9999.0,2020-01-06
NEON.D18.TOOK.DP1.20002,68.629562,-149.610509,715,-9999.0,2020-01-06
NEON.D18.TOOL.DP1.00033,68.66109,-149.37047,827,-9999.0,2020-01-06
NEON.D19.BONA.DP1.00033,65.15401,-147.50258,233,-9999.0,2020-01-06
NEON.D19.CARI.DP1.20002,65.15306,-147.50246,229,-9999.0,2020-01-06
NEON.D19.DEJU.DP1.00033,63.88112,-145.75136,504,-9999.0,2020-01-06
NEON.D19.HEAL.DP1.00033,63.87569,-149.21334,409,-9999.0,2020-01-06
NEON.D20.PUUM.DP1.00033,19.55309,-155.31731,1683,-9999.0,2020-01-06
nevcansnk3a,39.0099,-114.3095,3063,0.135,2020-01-06
nevcanspg1a,38.9253,-114.4082,1792,-0.005,2020-01-06
nevcanspg2a,38.8921,-114.3521,2203,-0.048,2020-01-06
nevcanspg3a,38.8898,-114.3314,2820,0.009,2020-01-06
nevcanspg4a,38.9061,-114.3089,3360,0.009,2020-01-06
ninemileprairie,40.86801886,-96.82208066,381,-0.006,2020-01-06
nist,39.139,-77.2125,100,0.716,2020-01-06
niwot3,40.03286358,-105.5469702,3050,0.445,2020-01-06
niwot5,40.03286358,-105.5469702,2993,0.445,2020-01-06
northattleboroma,41.98369,-71.31056,60,0.434,2020-01-06
northinletsaltmarsh,33.3455,-79.1957,1,1.202,2020-01-06
oakville,47.899334,-97.316139,268,1.263,2020-01-06
oregonMP,44.4523,-121.5574,1253,-1.212,2020-01-06
oregonYP,44.32384,-121.605993,977,-1.131,2020-01-06
oregonYPbud,44.3238,-121.606,977,-1.131,2020-01-06
othshardwood,44.934805,-68.6655,41,0.413,2020-01-06
othssoftwood,44.934527,-68.664888,41,0.413,2020-01-06
pace,37.9229,-78.2739,100,0.677,2020-01-06
parkschoolbuffalo,42.9637,-78.7834,205,0.721,2020-01-06
piedmontalpasture2,33.8875,-85.6935,238,1.188,2020-01-06
portal,31.9385,-109.0823,1330,1.272,2020-01-06
proctor,44.525,-72.866,403,0.041,2020-01-06
readingma,42.5304,-71.1272,100,0.94,2020-01-06
robinson,37.4671,-83.1576,483,2.013,2020-01-06
robinson2,37.4671,-83.1576,483,2.013,2020-01-06
rosemountcons,44.6946,-93.0578,283,0.788,2020-01-06
rosemountconv,44.691,-93.0576,283,0.788,2020-01-06
rosemountnprs,44.6781,-93.0723,274,0.836,2020-01-06
russellsage,32.456961,-91.974322,20,0.564,2020-01-06
sagehen,39.4315,-120.2398,1934,-0.562,2020-01-06
sagehen2,39.4307,-120.2407,1937,-0.562,2020-01-06
sagehen3,39.4311,-120.2405,1935,-0.562,2020-01-06
sanford,42.726777,-84.464482,268,1.586,2020-01-06
santacruz1,36.9741,-122.0308,11,0.022,2020-01-06
santacruz2,36.9741,-122.0308,11,0.022,2020-01-06
santaluciapreserve1,36.5265,-121.8682,500,0.276,2020-01-06
santaluciapreserve2,36.5265,-121.8682,500,0.276,2020-01-06
segaarboretum10,35.16209,-111.73151,2170,0.576,2020-01-06
segaarboretum2,35.16209,-111.73151,2170,0.576,2020-01-06
segaarboretum3,35.16209,-111.73151,2170,0.576,2020-01-06
segaarboretum4,35.16214,-111.73153,2170,0.576,2020-01-06
segaarboretum6,35.16209,-111.73151,2170,0.576,2020-01-06
segaarboretum9,35.16222,-111.73158,2170,0.576,2020-01-06
segaarboretumforest,35.1613,-111.7359,2173,0.576,2020-01-06
segaarboretummeadow,35.1621,-111.7316,2157,0.576,2020-01-06
segablackpoint,35.6814,-111.4754,1566,-0.178,2020-01-06
segabluechute,35.5876,-111.9716,1930,0.557,2020-01-06
segabluechute1,35.58759,-111.97115,1931,0.557,2020-01-06
segabluechute2,35.58759,-111.97115,1931,0.557,2020-01-06
segabluechute4,35.58759,-111.9716,1931,0.557,2020-01-06
segabluechute6,35.58759,-111.97115,1931,0.557,2020-01-06
segabluechute7,35.58759,-111.97115,1931,0.557,2020-01-06
segabluechute8,35.58759,-111.97115,1931,0.557,2020-01-06
segabradshaw,34.9109,-111.9285,1402,0.579,2020-01-06
segahartprairie,35.3536,-111.7324,2585,0.506,2020-01-06
segalcr,35.7231,-111.321,1275,0.401,2020-01-06
segalcr2,35.7069,-111.36,1495,0.354,2020-01-06
segalittlemountain,36.5865,-112.3634,2276,0.717,2020-01-06
segasoapcreek,36.751,-111.716,1233,0.444,2020-01-06
segawhitepockets,36.6081,-112.4082,2057,0.689,2020-01-06
sevilletagrass,34.360444,-106.700186,1600,0.643,2020-01-06
sevilletanewgrass,34.358,-106.6799,1603,0.74,2020-01-06
sevilletashrub,34.334956,-106.744469,1603,0.617,2020-01-06
sevMRME10L,34.3438,-106.7269,1604,0.66,2020-01-06
sevMRME11C,34.3438,-106.7268,1604,0.66,2020-01-06
sevMRME1S,34.3442,-106.7272,1604,0.66,2020-01-06
sevpjrm12,34.38615,-106.52621,1905,0.701,2020-01-06
sevpjrm13,34.38631,-106.52791,1914,0.701,2020-01-06
shalehillsczo,40.6658,-77.9041,310,0.362,2020-01-06
shenandoah,38.6167,-78.35,1037,-0.198,2020-01-06
silverton,44.9986,-122.6948,347,-1.6,2020-01-06
siwetland,38.0369,-121.7546,-5,-0.947,2020-01-06
slatefloodplain,38.9094,-107.0282,2725,-0.291,2020-01-06
snodgrass1,38.92619636,-106.9714376,3023,-0.644,2020-01-06
snodgrass2,38.92619636,-106.9714376,3023,-0.644,2020-01-06
snodgrass3,38.92839978,-106.9781196,3141,-0.644,2020-01-06
snodgrass4,38.92839978,-106.9781196,3141,-0.644,2020-01-06
snodgrass5,38.92744789,-106.9785209,3152,-0.644,2020-01-06
snodgrass6,38.92744789,-106.9785209,3152,-0.644,2020-01-06
snodgrass7,38.93142134,-106.9852388,3363,-0.514,2020-01-06
snodgrass8,38.93142134,-106.9852388,3363,-0.514,2020-01-06
southerngreatplains,36.6058,-97.4888,314,-0.292,2020-01-06
springfieldma,42.135162,-72.585972,56,1.532,2020-01-06
spruceA0EMI,47.5049,-93.4541,413,0.878,2020-01-06
spruceA0EMT,47.5049,-93.4541,418,0.878,2020-01-06
spruceA0P07,47.50493,-93.45314,413,0.878,2020-01-06
spruceA0P07SH,47.50493,-93.45314,413,0.878,2020-01-06
spruceA0P21,47.50625,-93.45275,413,0.878,2020-01-06
spruceA0P21SH,47.50625,-93.45275,413,0.878,2020-01-06
srg,31.7894,-110.8276,1281,1.026,2020-01-06
srm,31.8214,-110.8661,1116,0.735,2020-01-06
statenrice1,38.1235,-121.549,-5,-1.063,2020-01-06
stjones,39.088222,-75.43725,2,0.236,2020-01-06
sweetbriar,37.57341,-79.08482,242,1.001,2020-01-06
sweetbriarclearcut,37.5753,-79.0872,242,1.001,2020-01-06
sweetbriargrass,37.5605,-79.0884,240,1.001,2020-01-06
sylvania,46.242,-89.348,540,1.689,2020-01-06
templefieldstation1,40.1667,-75.1894,105,0.626,2020-01-06
tfforest,43.1086,-70.9505,23,1.43,2020-01-06
tidmarshplymouth,41.9157,-70.5754,9,1.481,2020-01-06
tonzi,38.43091667,-120.9658861,177,-0.716,2020-01-06
townsenddemeadow,39.3917,-75.6281,11,0.515,2020-01-06
tsubiology,36.1671,-86.8295,164,1.931,2020-01-06
tsubiology2,36.1171,-86.8295,100,1.687,2020-01-06
tuckerprairie,38.9491,-91.9952,274,0.027,2020-01-06
twodafo,29.1658,-95.829,16,0.136,2020-01-06
tworfaa,31.4777,-96.8882,167,-0.425,2020-01-06
tworfpr,31.4802,-96.8826,162,-0.468,2020-01-06
tworfta,31.4693,-96.8864,173,-0.425,2020-01-06
twosfpr,30.6176,-97.2938,157,-0.413,2020-01-06
ucnrsanzaborrego,33.2401,-116.3886,214,0.644,2020-01-06
ufona,27.3836,-81.950856,25,0.389,2020-01-06
uiefmaize2,40.0628,-88.1961,224,0.308,2020-01-06
uiefmiscanthus2,40.0628,-88.1984,221,0.308,2020-01-06
uiefprairie2,40.0637,-88.1973,224,0.308,2020-01-06
uiefsorghum,40.0065,-88.2032,224,0.254,2020-01-06
uiefswitchgrass2,40.0637,-88.1973,224,0.308,2020-01-06
umichbiological,45.55984,-84.71382,230,1.616,2020-01-06
umichbiological2,45.5625,-84.6976,240,1.59,2020-01-06
unca,35.5951,-82.5515,650,1.364,2020-01-06
usgseros,43.7343,-96.6234,448,0.337,2020-01-06
usmpj,34.43845,-106.2543606,2126,0.004,2020-01-06
usof5,35.7297,-90.0406,70,1.534,2020-01-06
usof6,35.7333,-90.0403,70,1.534,2020-01-06
uwmfieldsta,43.38709,-88.0229,265,1.137,2020-01-06
vaira,38.41328056,-120.9506361,129,-0.716,2020-01-06
vallesburnedconifer,35.8884,-106.5321,3043,-0.192,2020-01-06
vallesmixedconifer,35.9192,-106.6142,2752,-0.3,2020-01-06
vallesponderosapine,35.864,-106.5964,2501,-0.369,2020-01-06
waahila,21.3017,-157.8152,55,-9999.0,2020-01-06
warrenwilson,35.6069,-82.4421,2198,1.196,2020-01-06
willamettepoplar,44.1368,-123.1823,112,-1.518,2020-01-06
willowcreek,45.805986,-90.07912,521,1.47,2020-01-06
windriver,45.8212833,-121.9520833,371,-1.487,2020-01-06
windriverunderstory,45.8212833,-121.9520833,371,-1.487,2020-01-06
wolfesneckfarm,43.8305,-70.0715,16,0.839,2020-01-06
worcester,42.2697,-71.8428,185,1.365,2020-01-06
alligatorriver,35.7879,-75.9038,1,-0.312,2020-01-13
arbutuslake,43.98207,-74.23322,535,0.708,2020-01-13
arbutuslakeinlet,43.99336,-74.24527,527,0.708,2020-01-13
archboldavir,27.176064,-81.21958,8,0.684,2020-01-13
archboldavirx,27.166627,-81.219828,8,0.684,2020-01-13
archboldbahia,27.1656,-81.216112,8,0.684,2020-01-13
archboldpnot,27.187948,-81.200345,9,0.684,2020-01-13
archboldpnotx,27.180677,-81.20068,9,0.684,2020-01-13
arkansascornsoy,34.416,-91.6723,61,0.44,2020-01-13
arsbrooks10,41.9749,-93.6905,312,0.298,2020-01-13
arsbrooks11,41.9744,-93.6937,313,0.298,2020-01-13
arscolesnorth,42.4884,-93.5225,356,0.548,2020-01-13
arscolessouth,42.4816,-93.5235,352,0.548,2020-01-13
arsgacp1,31.5109,-83.6179,96,0.021,2020-01-13
arsgacp3,31.7563,-83.7516,139,0.851,2020-01-13
arsgacp4,31.7093,-83.7287,127,0.578,2020-01-13
arsgreatbasinltar098,43.1675,-116.7132,1426,-0.775,2020-01-13
arsgreatbasinltar117,43.1432,-116.7357,1625,-1.011,2020-01-13
arsgreatbasinltar177,43.0645,-116.7484,2114,-1.157,2020-01-13
arsltarmdcr,39.0587,-75.8513,17,0.362,2020-01-13
arsltarmdcrnatw,39.0575,-75.7531,16,0.239,2020-01-13
arsltarmdcrprcw,39.0667,-75.7609,17,0.239,2020-01-13
arsltarmdcrresw,39.0549,-75.7532,16,0.239,2020-01-13
arsltarucbec1,40.7537,-78.0057,400,0.387,2020-01-13
arsltarucbec2,40.7558,-77.9999,396,0.387,2020-01-13
arsmnswanlake1,45.684508,-95.799703,370,0.412,2020-01-13
arsmorris1,45.6167,-96.1269,341,0.536,2020-01-13
arsmorris2,45.627,-96.127,338,0.536,2020-01-13
arsmorris3,45.6091,-96.1265,342,0.536,2020-01-13
arsope3ltar,39.0309,-76.8442,41,0.844,2020-01-13
ashburnham,42.6029,-71.926,292,0.859,2020-01-13
asuhighlands,36.2076,-81.7032,1016,1.228,2020-01-13
austincary,29.738,-82.2188,44,0.968,2020-01-13
barrow,71.28007453,-156.6091492,5,-9999.0,2020-01-13
bartlettir,44.0646,-71.2881,268,0.275,2020-01-13
bigtraillake,64.9194,-147.822,190,-9999.0,2020-01-13
bitterbrush001,48.154,-119.9456,667,-1.4,2020-01-13
blackrockforest,41.3974,-74.0239,427,0.469,2020-01-13
bnzblackspruce,64.6963,-148.3235,102,-9999.0,2020-01-13
bnzrichfen,64.70134,-148.31195,97,-9999.0,2020-01-13
bnzthermokarstbog,64.6955,-148.3208,104,-9999.0,2020-01-13
boglakepeatland,47.5051,-93.4893,416,0.934,2020-01-13
bostoncommon,42.355912,-71.064145,10,0.132,2020-01-13
bostonu,42.35041,-71.10438,10,0.206,2020-01-13
bouldinalfalfa,38.0985,-121.4993,-5,-1.095,2020-01-13
bouldincorn,38.109,-121.535,-5,-1.09,2020-01-13
bozeman,45.783056,-110.777778,2332,-0.079,2020-01-13
brackishimpoundment,33.2015,-79.2973,1,1.027,2020-01-13
bullshoals,36.562833,-93.06663,260,1.249,2020-01-13
burnssagebrush,43.4712,-119.6909,1398,-0.611,2020-01-13
butte,45.95304,-112.47964,1682,-0.307,2020-01-13
butterice,39.5793,-121.858,33,-1.149,2020-01-13
cafboydnorthltar01,46.755104,-117.126052,795,-1.361,2020-01-13
cafboydsouthltar01,46.751809,-117.128502,795,-1.361,2020-01-13
cafcookeastltar01,46.78152,-117.0821,794,-1.338,2020-01-13
cafcookwestltar01,46.784037,-117.09083,807,-1.338,2020-01-13
caryinstitute,41.7839,-73.7341,127,0.533,2020-01-13
centralredwoods1,38.632272,-123.301511,200,-0.616,2020-01-13
centralredwoods2,38.632272,-123.301511,200,-0.616,2020-01-13
cperagm,40.8402,-104.7672,1644,0.939,2020-01-13
cperheavy,40.8153,-104.7386,1652,1.223,2020-01-13
cpertgm,40.833,-104.76,1644,1.102,2020-01-13
cperuvb,40.8055764,-104.7558542,1641,1.102,2020-01-13
cuny,40.8162,-73.9507,42,0.729,2020-01-13
doverdesaltmarsh,39.0888,-75.4368,0,-0.111,2020-01-13
downerwoods,43.07938,-87.88076,213,0.681,2020-01-13
dukehw,35.973583,-79.100371,400,0.598,2020-01-13
ecb1,41.5348,-84.8068,275,0.662,2020-01-13
ecb2,41.5321,-84.808,275,0.662,2020-01-13
ecb4,41.1796,-83.0604,240,-0.678,2020-01-13
elverde,18.320654,-65.8199,312,-9999.0,2020-01-13
flagstaff,35.17961521,-111.6049032,6983,0.648,2020-01-13
flagstaff2,35.179225,-111.604506,6983,0.648,2020-01-13
flagstaffchimneysprings,35.257296,-111.678542,2250,0.471,2020-01-13
forbes,39.232,-121.2972,360,-0.935,2020-01-13
fortpaynealpasture1,34.3824,-85.6428,405,1.578,2020-01-13
fortpaynealpasture2,34.3824,-85.6447,403,1.578,2020-01-13
gcesapelo,31.4440444,-81.283528,0,2.09,2020-01-13
gilberttract,38.0015,-121.6691,6,-1.041,2020-01-13
glees,41.3644,-106.2394,3150,0.961,2020-01-13
glennorganicrice,39.6805,-122.0026,2,-1.207,2020-01-13
glennrice,39.5944,-122.0253,36,-1.255,2020-01-13
goodnow,43.96018,-74.20994,820,0.713,2020-01-13
goodwater,39.22848,-92.11936,264,0.198,2020-01-13
goodwaterbau,39.23115,-92.15216,274,0.19,2020-01-13
grandteton,43.915017,-110.578036,2054,-0.828,2020-01-13
grca1pj,36.0241,-112.2211,1978,0.397,2020-01-13
greenridge1,39.6905,-78.4067,285,-0.285,2020-01-13
harvard,42.5378,-72.1715,340,0.775,2020-01-13
harvardbarn,42.53532,-72.1899,350,0.6,2020-01-13
harvardbarn2,42.53532,-72.1899,350,0.6,2020-01-13
harvardems2,42.5378,-72.1715,340,0.775,2020-01-13
harvardfarmnorth,42.520465,-72.182242,355,0.6,2020-01-13
harvardfarmsouth,42.522466,-72.182339,355,0.6,2020-01-13
harvardgarden,42.5291,-72.1863,335,0.6,2020-01-13
harvardhemlock,42.539,-72.18,355,0.6,2020-01-13
harvardhemlock2,42.539407,-72.177976,355,0.775,2020-01-13
harvardlph,42.542,-72.185,380,0.6,2020-01-13
hawbeckereddy,40.6608,-77.848849,310,0.352,2020-01-13
hobcawclearcutlongleaf,33.3486,-79.232,4,0.947,2020-01-13
hobcawmaturelongleaf,33.3242,-79.2439,8,0.947,2020-01-13
homesteadsprings,37.2009,-92.9937,452,0.485,2020-01-13
howland1,45.2041,-68.7403,80,0.399,2020-01-13
howland2,45.2128,-68.7418,79,0.399,2020-01-13
hubbardbrook,43.9438,-71.701,253,0.231,2020-01-13
humnokericea,34.585192,-91.751684,61,0.573,2020-01-13
humnokericec,34.588853,-91.7516729,70,0.573,2020-01-13
huyckpreserveny,42.5266,-74.1587,478,0.2,2020-01-13
hwmo1,20.0212,-155.7331,585,-9999.0,2020-01-13
hwmo2,19.9766,-155.8298,12,-9999.0,2020-01-13
hwmo5,20.1117,-155.8151,635,-9999.0,2020-01-13
ibp,32.589,-106.847,1325,0.58,2020-01-13
imcrkfen,68.60583,-149.31101,900,-9999.0,2020-01-13
imcrkridge0,68.60681,-149.2958,951,-9999.0,2020-01-13
imcrkridge1,68.60681,-149.2958,951,-9999.0,2020-01-13
imcrktussock,68.60633,-149.30408,918,-9999.0,2020-01-13
jasperridge,37.402028,-122.22104,197,-0.887,2020-01-13
jerbajada,32.57992,-106.633793,1402,0.446,2020-01-13
jergrassland,32.5833,-106.8333,1331,0.58,2020-01-13
jernort,32.619,-106.788,1328,0.576,2020-01-13
jernovel,32.6335,-106.8334,1324,0.614,2020-01-13
jernwern,32.6271,-106.7387,1325,0.58,2020-01-13
jersand,32.515,-106.798,1363,0.472,2020-01-13
jershrubland,32.6502,-106.8334,1328,0.654,2020-01-13
junipersavannah,34.4254,-105.8615,1931,0.13,2020-01-13
kamuela,20.015008,-155.661326,850,-9999.0,2020-01-13
kamuela2,20.014959,-155.661139,830,-9999.0,2020-01-13
kansas,39.0561,-95.1907,333,-0.409,2020-01-13
kelloggcorn,42.437536,-85.3225472,288,1.022,2020-01-13
kempnrs,45.83992,-89.67755,539,1.04,2020-01-13
kendall,31.73652,-109.94185,1529,1.192,2020-01-13
konza,39.0824,-96.5603,443,-0.224,2020-01-13
laupahoehoe,19.9322,-155.2912,1145,-9999.0,2020-01-13
ldeocam,41.0039,-73.9053,121,0.899,2020-01-13
lostcreek,46.0827,-89.9792,480,1.035,2020-01-13
luckyhills,31.743896,-110.052023,1366,1.107,2020-01-13
macleish,42.4484,-72.6804,251,0.463,2020-01-13
macordway,44.8106,-93.0272,264,0.776,2020-01-13
mandanh5,46.775423,-100.95109,593,0.988,2020-01-13
mandani2,46.7614,-100.9257,590,0.99,2020-01-13
manilacotton,35.8872,-90.1371,73,1.351,2020-01-13
marena,36.06434,-97.21271,327,0.306,2020-01-13
mead1,41.1651,-96.4766,361,-0.085,2020-01-13
mead2,41.1649,-96.4701,362,-0.085,2020-01-13
mead3,41.1797,-96.4397,363,-0.097,2020-01-13
meadpasture,41.1447,-96.4616,356,-0.121,2020-01-13
meadpasturese,41.1447,-96.4616,356,-0.121,2020-01-13
meadpasturesw,41.1447,-96.4616,356,-0.121,2020-01-13
missouriozarks,38.7441,-92.2,219,0.359,2020-01-13
morganmonroe,39.3231,-86.4131,275,1.675,2020-01-13
morganmonroe2,39.3231,-86.4131,275,1.675,2020-01-13
nahuku,19.415187,-155.238383,1202,-9999.0,2020-01-13
nationalelkrefuge,43.488931,-110.737824,1899,-0.724,2020-01-13
ncssm,36.018446,-78.92075,175,0.576,2020-01-13
NEON.D01.BART.DP1.00033,44.063869,-71.287375,285,0.275,2020-01-13
NEON.D01.HARV.DP1.00033,42.536911,-72.17265,359,0.775,2020-01-13
NEON.D01.HOPB.DP1.20002,42.471786,-72.329627,203,0.338,2020-01-13
NEON.D02.BLAN.DP1.00033,39.033698,-78.041788,162,-0.071,2020-01-13
NEON.D02.LEWI.DP1.20002,39.09564,-77.98322,152,-0.108,2020-01-13
NEON.D02.POSE.DP1.20002,38.89332,-78.14678,293,-0.057,2020-01-13
NEON.D02.SCBI.DP1.00033,38.892925,-78.139494,364,0.013,2020-01-13
NEON.D02.SERC.DP1.00033,38.89008,-76.56001,30,0.38,2020-01-13
NEON.D03.BARC.DP1.20002,29.676473,-82.009089,35,1.179,2020-01-13
NEON.D03.DSNY.DP1.00033,28.12505,-81.43619,22,1.179,2020-01-13
NEON.D03.FLNT.DP1.20002,31.185424,-84.437403,27,0.34,2020-01-13
NEON.D03.JERC.DP1.00033,31.194839,-84.468623,58,0.321,2020-01-13
NEON.D03.OSBS.DP1.00033,29.689282,-81.993431,56,1.158,2020-01-13
NEON.D03.SUGG.DP1.20002,29.687054,-82.016171,28,1.158,2020-01-13
NEON.D04.CUPE.DP1.20002,18.11352,-66.98676,164,-9999.0,2020-01-13
NEON.D04.GUAN.DP1.00033,17.96955,-66.8687,136,-9999.0,2020-01-13
NEON.D04.GUIL.DP1.20002,18.1741,-66.79851,564,-9999.0,2020-01-13
NEON.D04.LAJA.DP1.00033,18.021261,-67.076889,22,-9999.0,2020-01-13
NEON.D05.CRAM.DP1.20002,46.21111,-89.47825,518,1.137,2020-01-13
NEON.D05.LIRO.DP1.20002,45.998269,-89.704767,495,1.084,2020-01-13
NEON.D05.STEI.DP1.00033,45.50894,-89.58637,476,0.811,2020-01-13
NEON.D05.TREE.DP1.00033,45.49373,-89.58572,474,0.811,2020-01-13
NEON.D05.UNDE.DP1.00033,46.23391,-89.537254,529,1.158,2020-01-13
NEON.D06.KING.DP1.20002,39.10506,-96.60336,339,-0.243,2020-01-13
NEON.D06.KONA.DP1.00033,39.110446,-96.612935,443,-0.243,2020-01-13
NEON.D06.KONZ.DP1.00033,39.10077,-96.56309,415,-0.224,2020-01-13
NEON.D06.MCDI.DP1.20002,38.94428,-96.44197,376,-0.188,2020-01-13
NEON.D06.UKFS.DP1.00033,39.040431,-95.19215,330,-0.409,2020-01-13
NEON.D07.GRSM.DP1.00033,35.68896,-83.50195,589,1.661,2020-01-13
NEON.D07.LECO.DP1.20002,35.69043,-83.50379,578,1.661,2020-01-13
NEON.D07.MLBS.DP1.00033,37.378314,-80.524847,1177,0.917,2020-01-13
NEON.D07.ORNL.DP1.00033,35.964128,-84.282588,351,1.866,2020-01-13
NEON.D07.WALK.DP1.20002,35.95947,-84.28041,274,1.811,2020-01-13
NEON.D08.BLWA.DP1.20002,32.541529,-87.798151,23,1.662,2020-01-13
NEON.D08.DELA.DP1.00033,32.541727,-87.803877,36,1.662,2020-01-13
NEON.D08.LENO.DP1.00033,31.85388,-88.16122,10,1.418,2020-01-13
NEON.D08.MAYF.DP1.20002,32.959657,-87.408128,93,1.398,2020-01-13
NEON.D08.TALL.DP1.00033,32.95047,-87.393259,167,1.398,2020-01-13
NEON.D08.TOMB.DP1.20002,31.853431,-88.158872,10,1.418,2020-01-13
NEON.D09.DCFS.DP1.00033,47.161647,-99.106556,574,1.095,2020-01-13
NEON.D09.NOGP.DP1.00033,46.76972,-100.91535,589,0.99,2020-01-13
NEON.D09.PRLA.DP1.20002,47.15909,-99.11388,563,1.098,2020-01-13
NEON.D09.PRPO.DP1.20002,47.12999,-99.250551,587,1.061,2020-01-13
NEON.D09.WOOD.DP1.00033,47.1282,-99.241334,585,1.061,2020-01-13
NEON.D10.ARIK.DP1.20002,39.758246,-102.447103,1188,-0.32,2020-01-13
NEON.D10.CPER.DP1.00033,40.81553,-104.7456,1600,1.102,2020-01-13
NEON.D10.HQTW.DP1.00033,40.016704,-105.245612,1601,0.608,2020-01-13
NEON.D10.RMNP.DP1.00033,40.275903,-105.545955,2751,0.774,2020-01-13
NEON.D10.STER.DP1.00033,40.461894,-103.02929,1366,-0.051,2020-01-13
NEON.D11.BLUE.DP1.20002,34.444218,-96.624201,288,0.99,2020-01-13
NEON.D11.CLBJ.DP1.00033,33.40123,-97.57,279,0.583,2020-01-13
NEON.D11.OAES.DP1.00033,35.41059,-99.05879,520,-0.211,2020-01-13
NEON.D11.PRIN.DP1.20002,33.37859,-97.78226,255,0.503,2020-01-13
NEON.D12.BLDE.DP1.20002,44.95011,-110.58715,2035,-0.241,2020-01-13
NEON.D12.YELL.DP1.00033,44.95348,-110.53914,2130,-0.196,2020-01-13
NEON.D13.COMO.DP1.20002,40.03496,-105.54487,3036,0.736,2020-01-13
NEON.D13.MOAB.DP1.00033,38.24833,-109.38827,1803,0.448,2020-01-13
NEON.D13.NIWO.DP1.00033,40.05425,-105.58237,3493,0.534,2020-01-13
NEON.D13.WLOU.DP1.20002,39.891366,-105.915395,2920,0.686,2020-01-13
NEON.D14.JORN.DP1.00033,32.59068,-106.84254,1321,0.58,2020-01-13
NEON.D14.SRER.DP1.00033,31.91068,-110.83549,999,0.532,2020-01-13
NEON.D14.SYCA.DP1.20002,33.749057,-111.506903,644,0.432,2020-01-13
NEON.D15.ONAQ.DP1.00033,40.177599,-112.452452,1655,0.181,2020-01-13
NEON.D15.REDB.DP1.20002,40.783934,-111.797887,1696,-0.014,2020-01-13
NEON.D16.ABBY.DP1.00033,45.76243,-122.33033,390,-1.107,2020-01-13
NEON.D16.MART.DP1.20002,45.791248,-121.931959,354,-1.326,2020-01-13
NEON.D16.MCRA.DP1.20002,44.259598,-122.165554,880,-1.534,2020-01-13
NEON.D16.WREF.DP1.00033,45.82049,-121.95191,368,-1.307,2020-01-13
NEON.D17.BIGC.DP1.20002,37.059719,-119.257549,1133,-0.516,2020-01-13
NEON.D17.SJER.DP1.00033,37.10878,-119.73228,398,-0.716,2020-01-13
NEON.D17.SOAP.DP1.00033,37.03337,-119.26219,1210,-0.538,2020-01-13
NEON.D17.TEAK.DP1.00033,37.00583,-119.00602,2149,-0.535,2020-01-13
NEON.D17.TECR.DP1.20002,36.955931,-119.027363,2053,-0.543,2020-01-13
NEON.D18.BARR.DP1.00033,71.28241,-156.61936,7,-9999.0,2020-01-13
NEON.D18.OKSR.DP1.20002,68.669753,-149.143018,773,-9999.0,2020-01-13
NEON.D18.TOOK.DP1.20002,68.629562,-149.610509,715,-9999.0,2020-01-13
NEON.D18.TOOL.DP1.00033,68.66109,-149.37047,827,-9999.0,2020-01-13
NEON.D19.BONA.DP1.00033,65.15401,-147.50258,233,-9999.0,2020-01-13
NEON.D19.CARI.DP1.20002,65.15306,-147.50246,229,-9999.0,2020-01-13
NEON.D19.DEJU.DP1.00033,63.88112,-145.75136,504,-9999.0,2020-01-13
NEON.D19.HEAL.DP1.00033,63.87569,-149.21334,409,-9999.0,2020-01-13
NEON.D20.PUUM.DP1.00033,19.55309,-155.31731,1683,-9999.0,2020-01-13
nevcansnk3a,39.0099,-114.3095,3063,0.145,2020-01-13
nevcanspg1a,38.9253,-114.4082,1792,0.122,2020-01-13
nevcanspg2a,38.8921,-114.3521,2203,0.043,2020-01-13
nevcanspg3a,38.8898,-114.3314,2820,0.034,2020-01-13
nevcanspg4a,38.9061,-114.3089,3360,0.034,2020-01-13
ninemileprairie,40.86801886,-96.82208066,381,0.125,2020-01-13
nist,39.139,-77.2125,100,0.605,2020-01-13
niwot3,40.03286358,-105.5469702,3050,0.736,2020-01-13
niwot5,40.03286358,-105.5469702,2993,0.736,2020-01-13
northattleboroma,41.98369,-71.31056,60,-0.116,2020-01-13
northinletsaltmarsh,33.3455,-79.1957,1,0.93,2020-01-13
oakville,47.899334,-97.316139,268,0.968,2020-01-13
oregonMP,44.4523,-121.5574,1253,-1.239,2020-01-13
oregonYP,44.32384,-121.605993,977,-1.185,2020-01-13
oregonYPbud,44.3238,-121.606,977,-1.185,2020-01-13
othshardwood,44.934805,-68.6655,41,0.137,2020-01-13
othssoftwood,44.934527,-68.664888,41,0.137,2020-01-13
pace,37.9229,-78.2739,100,0.612,2020-01-13
parkschoolbuffalo,42.9637,-78.7834,205,0.39,2020-01-13
piedmontalpasture2,33.8875,-85.6935,238,0.911,2020-01-13
portal,31.9385,-109.0823,1330,1.245,2020-01-13
proctor,44.525,-72.866,403,-0.417,2020-01-13
readingma,42.5304,-71.1272,100,0.371,2020-01-13
robinson,37.4671,-83.1576,483,1.972,2020-01-13
robinson2,37.4671,-83.1576,483,1.972,2020-01-13
rosemountcons,44.6946,-93.0578,283,0.721,2020-01-13
rosemountconv,44.691,-93.0576,283,0.721,2020-01-13
rosemountnprs,44.6781,-93.0723,274,0.734,2020-01-13
russellsage,32.456961,-91.974322,20,0.279,2020-01-13
sagehen,39.4315,-120.2398,1934,-0.65,2020-01-13
sagehen2,39.4307,-120.2407,1937,-0.65,2020-01-13
sagehen3,39.4311,-120.2405,1935,-0.65,2020-01-13
sanford,42.726777,-84.464482,268,1.583,2020-01-13
santacruz1,36.9741,-122.0308,11,-0.158,2020-01-13
santacruz2,36.9741,-122.0308,11,-0.158,2020-01-13
santaluciapreserve1,36.5265,-121.8682,500,0.017,2020-01-13
santaluciapreserve2,36.5265,-121.8682,500,0.017,2020-01-13
segaarboretum10,35.16209,-111.73151,2170,0.611,2020-01-13
segaarboretum2,35.16209,-111.73151,2170,0.611,2020-01-13
segaarboretum3,35.16209,-111.73151,2170,0.611,2020-01-13
segaarboretum4,35.16214,-111.73153,2170,0.611,2020-01-13
segaarboretum6,35.16209,-111.73151,2170,0.611,2020-01-13
segaarboretum9,35.16222,-111.73158,2170,0.611,2020-01-13
segaarboretumforest,35.1613,-111.7359,2173,0.611,2020-01-13
segaarboretummeadow,35.1621,-111.7316,2157,0.611,2020-01-13
segablackpoint,35.6814,-111.4754,1566,0.096,2020-01-13
segabluechute,35.5876,-111.9716,1930,0.65,2020-01-13
segabluechute1,35.58759,-111.97115,1931,0.65,2020-01-13
segabluechute2,35.58759,-111.97115,1931,0.65,2020-01-13
segabluechute4,35.58759,-111.9716,1931,0.65,2020-01-13
segabluechute6,35.58759,-111.97115,1931,0.65,2020-01-13
segabluechute7,35.58759,-111.97115,1931,0.65,2020-01-13
segabluechute8,35.58759,-111.97115,1931,0.65,2020-01-13
segabradshaw,34.9109,-111.9285,1402,0.671,2020-01-13
segahartprairie,35.3536,-111.7324,2585,0.47,2020-01-13
segalcr,35.7231,-111.321,1275,0.698,2020-01-13
segalcr2,35.7069,-111.36,1495,0.65,2020-01-13
segalittlemountain,36.5865,-112.3634,2276,0.754,2020-01-13
segasoapcreek,36.751,-111.716,1233,0.668,2020-01-13
segawhitepockets,36.6081,-112.4082,2057,0.748,2020-01-13
sevilletagrass,34.360444,-106.700186,1600,0.794,2020-01-13
sevilletanewgrass,34.358,-106.6799,1603,0.888,2020-01-13
sevilletashrub,34.334956,-106.744469,1603,0.773,2020-01-13
sevMRME10L,34.3438,-106.7269,1604,0.814,2020-01-13
sevMRME11C,34.3438,-106.7268,1604,0.814,2020-01-13
sevMRME1S,34.3442,-106.7272,1604,0.814,2020-01-13
sevpjrm12,34.38615,-106.52621,1905,0.832,2020-01-13
sevpjrm13,34.38631,-106.52791,1914,0.832,2020-01-13
shalehillsczo,40.6658,-77.9041,310,0.338,2020-01-13
shenandoah,38.6167,-78.35,1037,-0.26,2020-01-13
silverton,44.9986,-122.6948,347,-1.575,2020-01-13
siwetland,38.0369,-121.7546,-5,-0.999,2020-01-13
slatefloodplain,38.9094,-107.0282,2725,-0.366,2020-01-13
snodgrass1,38.92619636,-106.9714376,3023,-0.643,2020-01-13
snodgrass2,38.92619636,-106.9714376,3023,-0.643,2020-01-13
snodgrass3,38.92839978,-106.9781196,3141,-0.643,2020-01-13
snodgrass4,38.92839978,-106.9781196,3141,-0.643,2020-01-13
snodgrass5,38.92744789,-106.9785209,3152,-0.643,2020-01-13
snodgrass6,38.92744789,-106.9785209,3152,-0.643,2020-01-13
snodgrass7,38.93142134,-106.9852388,3363,-0.563,2020-01-13
snodgrass8,38.93142134,-106.9852388,3363,-0.563,2020-01-13
southerngreatplains,36.6058,-97.4888,314,-0.236,2020-01-13
springfieldma,42.135162,-72.585972,56,0.783,2020-01-13
spruceA0EMI,47.5049,-93.4541,413,0.918,2020-01-13
spruceA0EMT,47.5049,-93.4541,418,0.918,2020-01-13
spruceA0P07,47.50493,-93.45314,413,0.918,2020-01-13
spruceA0P07SH,47.50493,-93.45314,413,0.918,2020-01-13
spruceA0P21,47.50625,-93.45275,413,0.918,2020-01-13
spruceA0P21SH,47.50625,-93.45275,413,0.918,2020-01-13
srg,31.7894,-110.8276,1281,1.013,2020-01-13
srm,31.8214,-110.8661,1116,0.714,2020-01-13
statenrice1,38.1235,-121.549,-5,-1.075,2020-01-13
stjones,39.088222,-75.43725,2,-0.111,2020-01-13
sweetbriar,37.57341,-79.08482,242,0.817,2020-01-13
sweetbriarclearcut,37.5753,-79.0872,242,0.817,2020-01-13
sweetbriargrass,37.5605,-79.0884,240,0.817,2020-01-13
sylvania,46.242,-89.348,540,1.106,2020-01-13
templefieldstation1,40.1667,-75.1894,105,0.214,2020-01-13
tfforest,43.1086,-70.9505,23,1.14,2020-01-13
tidmarshplymouth,41.9157,-70.5754,9,1.16,2020-01-13
tonzi,38.43091667,-120.9658861,177,-0.708,2020-01-13
townsenddemeadow,39.3917,-75.6281,11,0.195,2020-01-13
tsubiology,36.1671,-86.8295,164,1.782,2020-01-13
tsubiology2,36.1171,-86.8295,100,1.582,2020-01-13
tuckerprairie,38.9491,-91.9952,274,0.318,2020-01-13
twodafo,29.1658,-95.829,16,-0.109,2020-01-13
tworfaa,31.4777,-96.8882,167,-0.531,2020-01-13
tworfpr,31.4802,-96.8826,162,-0.578,2020-01-13
tworfta,31.4693,-96.8864,173,-0.531,2020-01-13
twosfpr,30.6176,-97.2938,157,-0.465,2020-01-13
ucnrsanzaborrego,33.2401,-116.3886,214,0.603,2020-01-13
ufona,27.3836,-81.950856,25,0.096,2020-01-13
uiefmaize2,40.0628,-88.1961,224,0.995,2020-01-13
uiefmiscanthus2,40.0628,-88.1984,221,0.995,2020-01-13
uiefprairie2,40.0637,-88.1973,224,0.995,2020-01-13
uiefsorghum,40.0065,-88.2032,224,0.932,2020-01-13
uiefswitchgrass2,40.0637,-88.1973,224,0.995,2020-01-13
umichbiological,45.55984,-84.71382,230,1.132,2020-01-13
umichbiological2,45.5625,-84.6976,240,1.09,2020-01-13
unca,35.5951,-82.5515,650,1.242,2020-01-13
usgseros,43.7343,-96.6234,448,0.439,2020-01-13
usmpj,34.43845,-106.2543606,2126,0.123,2020-01-13
usof5,35.7297,-90.0406,70,1.552,2020-01-13
usof6,35.7333,-90.0403,70,1.552,2020-01-13
uwmfieldsta,43.38709,-88.0229,265,0.972,2020-01-13
vaira,38.41328056,-120.9506361,129,-0.708,2020-01-13
vallesburnedconifer,35.8884,-106.5321,3043,-0.059,2020-01-13
vallesmixedconifer,35.9192,-106.6142,2752,-0.154,2020-01-13
vallesponderosapine,35.864,-106.5964,2501,-0.202,2020-01-13
waahila,21.3017,-157.8152,55,-9999.0,2020-01-13
warrenwilson,35.6069,-82.4421,2198,1.059,2020-01-13
willamettepoplar,44.1368,-123.1823,112,-1.518,2020-01-13
willowcreek,45.805986,-90.07912,521,0.998,2020-01-13
windriver,45.8212833,-121.9520833,371,-1.307,2020-01-13
windriverunderstory,45.8212833,-121.9520833,371,-1.307,2020-01-13
wolfesneckfarm,43.8305,-70.0715,16,0.731,2020-01-13
worcester,42.2697,-71.8428,185,0.499,2020-01-13
alligatorriver,35.7879,-75.9038,1,-0.692,2020-01-20
arbutuslake,43.98207,-74.23322,535,1.029,2020-01-20
arbutuslakeinlet,43.99336,-74.24527,527,1.029,2020-01-20
archboldavir,27.176064,-81.21958,8,0.287,2020-01-20
archboldavirx,27.166627,-81.219828,8,0.287,2020-01-20
archboldbahia,27.1656,-81.216112,8,0.287,2020-01-20
archboldpnot,27.187948,-81.200345,9,0.287,2020-01-20
archboldpnotx,27.180677,-81.20068,9,0.287,2020-01-20
arkansascornsoy,34.416,-91.6723,61,0.593,2020-01-20
arsbrooks10,41.9749,-93.6905,312,-0.134,2020-01-20
arsbrooks11,41.9744,-93.6937,313,-0.134,2020-01-20
arscolesnorth,42.4884,-93.5225,356,0.183,2020-01-20
arscolessouth,42.4816,-93.5235,352,0.183,2020-01-20
arsgacp1,31.5109,-83.6179,96,0.069,2020-01-20
arsgacp3,31.7563,-83.7516,139,0.583,2020-01-20
arsgacp4,31.7093,-83.7287,127,0.364,2020-01-20
arsgreatbasinltar098,43.1675,-116.7132,1426,-0.83,2020-01-20
arsgreatbasinltar117,43.1432,-116.7357,1625,-1.071,2020-01-20
arsgreatbasinltar177,43.0645,-116.7484,2114,-1.215,2020-01-20
arsltarmdcr,39.0587,-75.8513,17,-0.273,2020-01-20
arsltarmdcrnatw,39.0575,-75.7531,16,-0.34,2020-01-20
arsltarmdcrprcw,39.0667,-75.7609,17,-0.34,2020-01-20
arsltarmdcrresw,39.0549,-75.7532,16,-0.34,2020-01-20
arsltarucbec1,40.7537,-78.0057,400,0.229,2020-01-20
arsltarucbec2,40.7558,-77.9999,396,0.229,2020-01-20
arsmnswanlake1,45.684508,-95.799703,370,-0.003,2020-01-20
arsmorris1,45.6167,-96.1269,341,0.087,2020-01-20
arsmorris2,45.627,-96.127,338,0.087,2020-01-20
arsmorris3,45.6091,-96.1265,342,0.087,2020-01-20
arsope3ltar,39.0309,-76.8442,41,0.295,2020-01-20
ashburnham,42.6029,-71.926,292,0.89,2020-01-20
asuhighlands,36.2076,-81.7032,1016,1.275,2020-01-20
austincary,29.738,-82.2188,44,0.547,2020-01-20
barrow,71.28007453,-156.6091492,5,-9999.0,2020-01-20
bartlettir,44.0646,-71.2881,268,0.685,2020-01-20
bigtraillake,64.9194,-147.822,190,-9999.0,2020-01-20
bitterbrush001,48.154,-119.9456,667,-1.273,2020-01-20
blackrockforest,41.3974,-74.0239,427,0.328,2020-01-20
bnzblackspruce,64.6963,-148.3235,102,-9999.0,2020-01-20
bnzrichfen,64.70134,-148.31195,97,-9999.0,2020-01-20
bnzthermokarstbog,64.6955,-148.3208,104,-9999.0,2020-01-20
boglakepeatland,47.5051,-93.4893,416,1.014,2020-01-20
bostoncommon,42.355912,-71.064145,10,-0.011,2020-01-20
bostonu,42.35041,-71.10438,10,0.091,2020-01-20
bouldinalfalfa,38.0985,-121.4993,-5,-1.035,2020-01-20
bouldincorn,38.109,-121.535,-5,-1.029,2020-01-20
bozeman,45.783056,-110.777778,2332,-0.404,2020-01-20
brackishimpoundment,33.2015,-79.2973,1,0.768,2020-01-20
bullshoals,36.562833,-93.06663,260,1.197,2020-01-20
burnssagebrush,43.4712,-119.6909,1398,-0.431,2020-01-20
butte,45.95304,-112.47964,1682,-0.354,2020-01-20
butterice,39.5793,-121.858,33,-1.021,2020-01-20
cafboydnorthltar01,46.755104,-117.126052,795,-1.558,2020-01-20
cafboydsouthltar01,46.751809,-117.128502,795,-1.558,2020-01-20
cafcookeastltar01,46.78152,-117.0821,794,-1.579,2020-01-20
cafcookwestltar01,46.784037,-117.09083,807,-1.579,2020-01-20
caryinstitute,41.7839,-73.7341,127,0.566,2020-01-20
centralredwoods1,38.632272,-123.301511,200,-0.495,2020-01-20
centralredwoods2,38.632272,-123.301511,200,-0.495,2020-01-20
cperagm,40.8402,-104.7672,1644,1.112,2020-01-20
cperheavy,40.8153,-104.7386,1652,1.379,2020-01-20
cpertgm,40.833,-104.76,1644,1.274,2020-01-20
cperuvb,40.8055764,-104.7558542,1641,1.274,2020-01-20
cuny,40.8162,-73.9507,42,0.472,2020-01-20
doverdesaltmarsh,39.0888,-75.4368,0,-0.786,2020-01-20
downerwoods,43.07938,-87.88076,213,0.891,2020-01-20
dukehw,35.973583,-79.100371,400,0.25,2020-01-20
ecb1,41.5348,-84.8068,275,1.144,2020-01-20
ecb2,41.5321,-84.808,275,1.144,2020-01-20
ecb4,41.1796,-83.0604,240,-0.13,2020-01-20
elverde,18.320654,-65.8199,312,-9999.0,2020-01-20
flagstaff,35.17961521,-111.6049032,6983,0.65,2020-01-20
flagstaff2,35.179225,-111.604506,6983,0.65,2020-01-20
flagstaffchimneysprings,35.257296,-111.678542,2250,0.459,2020-01-20
forbes,39.232,-121.2972,360,-0.79,2020-01-20
fortpaynealpasture1,34.3824,-85.6428,405,1.458,2020-01-20
fortpaynealpasture2,34.3824,-85.6447,403,1.458,2020-01-20
gcesapelo,31.4440444,-81.283528,0,1.638,2020-01-20
gilberttract,38.0015,-121.6691,6,-0.954,2020-01-20
glees,41.3644,-106.2394,3150,0.38,2020-01-20
glennorganicrice,39.6805,-122.0026,2,-1.041,2020-01-20
glennrice,39.5944,-122.0253,36,-1.072,2020-01-20
goodnow,43.96018,-74.20994,820,1.015,2020-01-20
goodwater,39.22848,-92.11936,264,0.455,2020-01-20
goodwaterbau,39.23115,-92.15216,274,0.446,2020-01-20
grandteton,43.915017,-110.578036,2054,-0.896,2020-01-20
grca1pj,36.0241,-112.2211,1978,0.527,2020-01-20
greenridge1,39.6905,-78.4067,285,-0.349,2020-01-20
harvard,42.5378,-72.1715,340,0.764,2020-01-20
harvardbarn,42.53532,-72.1899,350,0.587,2020-01-20
harvardbarn2,42.53532,-72.1899,350,0.587,2020-01-20
harvardems2,42.5378,-72.1715,340,0.764,2020-01-20
harvardfarmnorth,42.520465,-72.182242,355,0.587,2020-01-20
harvardfarmsouth,42.522466,-72.182339,355,0.587,2020-01-20
harvardgarden,42.5291,-72.1863,335,0.587,2020-01-20
harvardhemlock,42.539,-72.18,355,0.587,2020-01-20
harvardhemlock2,42.539407,-72.177976,355,0.764,2020-01-20
harvardlph,42.542,-72.185,380,0.587,2020-01-20
hawbeckereddy,40.6608,-77.848849,310,0.204,2020-01-20
hobcawclearcutlongleaf,33.3486,-79.232,4,0.535,2020-01-20
hobcawmaturelongleaf,33.3242,-79.2439,8,0.535,2020-01-20
homesteadsprings,37.2009,-92.9937,452,0.612,2020-01-20
howland1,45.2041,-68.7403,80,0.408,2020-01-20
howland2,45.2128,-68.7418,79,0.408,2020-01-20
hubbardbrook,43.9438,-71.701,253,0.569,2020-01-20
humnokericea,34.585192,-91.751684,61,0.828,2020-01-20
humnokericec,34.588853,-91.7516729,70,0.828,2020-01-20
huyckpreserveny,42.5266,-74.1587,478,0.3,2020-01-20
hwmo1,20.0212,-155.7331,585,-9999.0,2020-01-20
hwmo2,19.9766,-155.8298,12,-9999.0,2020-01-20
hwmo5,20.1117,-155.8151,635,-9999.0,2020-01-20
ibp,32.589,-106.847,1325,0.769,2020-01-20
imcrkfen,68.60583,-149.31101,900,-9999.0,2020-01-20
imcrkridge0,68.60681,-149.2958,951,-9999.0,2020-01-20
imcrkridge1,68.60681,-149.2958,951,-9999.0,2020-01-20
imcrktussock,68.60633,-149.30408,918,-9999.0,2020-01-20
jasperridge,37.402028,-122.22104,197,-0.71,2020-01-20
jerbajada,32.57992,-106.633793,1402,0.648,2020-01-20
jergrassland,32.5833,-106.8333,1331,0.769,2020-01-20
jernort,32.619,-106.788,1328,0.741,2020-01-20
jernovel,32.6335,-106.8334,1324,0.786,2020-01-20
jernwern,32.6271,-106.7387,1325,0.756,2020-01-20
jersand,32.515,-106.798,1363,0.712,2020-01-20
jershrubland,32.6502,-106.8334,1328,0.813,2020-01-20
junipersavannah,34.4254,-105.8615,1931,0.269,2020-01-20
kamuela,20.015008,-155.661326,850,-9999.0,2020-01-20
kamuela2,20.014959,-155.661139,830,-9999.0,2020-01-20
kansas,39.0561,-95.1907,333,-0.017,2020-01-20
kelloggcorn,42.437536,-85.3225472,288,1.704,2020-01-20
kempnrs,45.83992,-89.67755,539,1.041,2020-01-20
kendall,31.73652,-109.94185,1529,1.29,2020-01-20
konza,39.0824,-96.5603,443,-0.093,2020-01-20
laupahoehoe,19.9322,-155.2912,1145,-9999.0,2020-01-20
ldeocam,41.0039,-73.9053,121,0.731,2020-01-20
lostcreek,46.0827,-89.9792,480,0.904,2020-01-20
luckyhills,31.743896,-110.052023,1366,1.193,2020-01-20
macleish,42.4484,-72.6804,251,0.346,2020-01-20
macordway,44.8106,-93.0272,264,0.464,2020-01-20
mandanh5,46.775423,-100.95109,593,0.278,2020-01-20
mandani2,46.7614,-100.9257,590,0.289,2020-01-20
manilacotton,35.8872,-90.1371,73,1.287,2020-01-20
marena,36.06434,-97.21271,327,0.245,2020-01-20
mead1,41.1651,-96.4766,361,0.027,2020-01-20
mead2,41.1649,-96.4701,362,0.027,2020-01-20
mead3,41.1797,-96.4397,363,0.032,2020-01-20
meadpasture,41.1447,-96.4616,356,-0.024,2020-01-20
meadpasturese,41.1447,-96.4616,356,-0.024,2020-01-20
meadpasturesw,41.1447,-96.4616,356,-0.024,2020-01-20
missouriozarks,38.7441,-92.2,219,0.545,2020-01-20
morganmonroe,39.3231,-86.4131,275,2.064,2020-01-20
morganmonroe2,39.3231,-86.4131,275,2.064,2020-01-20
nahuku,19.415187,-155.238383,1202,-9999.0,2020-01-20
nationalelkrefuge,43.488931,-110.737824,1899,-0.603,2020-01-20
ncssm,36.018446,-78.92075,175,0.156,2020-01-20
NEON.D01.BART.DP1.00033,44.063869,-71.287375,285,0.685,2020-01-20
NEON.D01.HARV.DP1.00033,42.536911,-72.17265,359,0.764,2020-01-20
NEON.D01.HOPB.DP1.20002,42.471786,-72.329627,203,0.226,2020-01-20
NEON.D02.BLAN.DP1.00033,39.033698,-78.041788,162,-0.273,2020-01-20
NEON.D02.LEWI.DP1.20002,39.09564,-77.98322,152,-0.31,2020-01-20
NEON.D02.POSE.DP1.20002,38.89332,-78.14678,293,-0.335,2020-01-20
NEON.D02.SCBI.DP1.00033,38.892925,-78.139494,364,-0.242,2020-01-20
NEON.D02.SERC.DP1.00033,38.89008,-76.56001,30,-0.285,2020-01-20
NEON.D03.BARC.DP1.20002,29.676473,-82.009089,35,0.837,2020-01-20
NEON.D03.DSNY.DP1.00033,28.12505,-81.43619,22,0.44,2020-01-20
NEON.D03.FLNT.DP1.20002,31.185424,-84.437403,27,0.286,2020-01-20
NEON.D03.JERC.DP1.00033,31.194839,-84.468623,58,0.268,2020-01-20
NEON.D03.OSBS.DP1.00033,29.689282,-81.993431,56,0.781,2020-01-20
NEON.D03.SUGG.DP1.20002,29.687054,-82.016171,28,0.781,2020-01-20
NEON.D04.CUPE.DP1.20002,18.11352,-66.98676,164,-9999.0,2020-01-20
NEON.D04.GUAN.DP1.00033,17.96955,-66.8687,136,-9999.0,2020-01-20
NEON.D04.GUIL.DP1.20002,18.1741,-66.79851,564,-9999.0,2020-01-20
NEON.D04.LAJA.DP1.00033,18.021261,-67.076889,22,-9999.0,2020-01-20
NEON.D05.CRAM.DP1.20002,46.21111,-89.47825,518,1.239,2020-01-20
NEON.D05.LIRO.DP1.20002,45.998269,-89.704767,495,1.083,2020-01-20
NEON.D05.STEI.DP1.00033,45.50894,-89.58637,476,0.854,2020-01-20
NEON.D05.TREE.DP1.00033,45.49373,-89.58572,474,0.854,2020-01-20
NEON.D05.UNDE.DP1.00033,46.23391,-89.537254,529,1.267,2020-01-20
NEON.D06.KING.DP1.20002,39.10506,-96.60336,339,-0.084,2020-01-20
NEON.D06.KONA.DP1.00033,39.110446,-96.612935,443,-0.084,2020-01-20
NEON.D06.KONZ.DP1.00033,39.10077,-96.56309,415,-0.093,2020-01-20
NEON.D06.MCDI.DP1.20002,38.94428,-96.44197,376,0.066,2020-01-20
NEON.D06.UKFS.DP1.00033,39.040431,-95.19215,330,-0.017,2020-01-20
NEON.D07.GRSM.DP1.00033,35.68896,-83.50195,589,1.556,2020-01-20
NEON.D07.LECO.DP1.20002,35.69043,-83.50379,578,1.556,2020-01-20
NEON.D07.MLBS.DP1.00033,37.378314,-80.524847,1177,0.102,2020-01-20
NEON.D07.ORNL.DP1.00033,35.964128,-84.282588,351,2.103,2020-01-20
NEON.D07.WALK.DP1.20002,35.95947,-84.28041,274,2.063,2020-01-20
NEON.D08.BLWA.DP1.20002,32.541529,-87.798151,23,1.724,2020-01-20
NEON.D08.DELA.DP1.00033,32.541727,-87.803877,36,1.724,2020-01-20
NEON.D08.LENO.DP1.00033,31.85388,-88.16122,10,1.149,2020-01-20
NEON.D08.MAYF.DP1.20002,32.959657,-87.408128,93,1.674,2020-01-20
NEON.D08.TALL.DP1.00033,32.95047,-87.393259,167,1.674,2020-01-20
NEON.D08.TOMB.DP1.20002,31.853431,-88.158872,10,1.149,2020-01-20
NEON.D09.DCFS.DP1.00033,47.161647,-99.106556,574,0.971,2020-01-20
NEON.D09.NOGP.DP1.00033,46.76972,-100.91535,589,0.289,2020-01-20
NEON.D09.PRLA.DP1.20002,47.15909,-99.11388,563,0.947,2020-01-20
NEON.D09.PRPO.DP1.20002,47.12999,-99.250551,587,0.888,2020-01-20
NEON.D09.WOOD.DP1.00033,47.1282,-99.241334,585,0.888,2020-01-20
NEON.D10.ARIK.DP1.20002,39.758246,-102.447103,1188,-0.213,2020-01-20
NEON.D10.CPER.DP1.00033,40.81553,-104.7456,1600,1.274,2020-01-20
NEON.D10.HQTW.DP1.00033,40.016704,-105.245612,1601,0.619,2020-01-20
NEON.D10.RMNP.DP1.00033,40.275903,-105.545955,2751,0.05,2020-01-20
NEON.D10.STER.DP1.00033,40.461894,-103.02929,1366,0.109,2020-01-20
NEON.D11.BLUE.DP1.20002,34.444218,-96.624201,288,0.895,2020-01-20
NEON.D11.CLBJ.DP1.00033,33.40123,-97.57,279,0.814,2020-01-20
NEON.D11.OAES.DP1.00033,35.41059,-99.05879,520,-0.061,2020-01-20
NEON.D11.PRIN.DP1.20002,33.37859,-97.78226,255,0.597,2020-01-20
NEON.D12.BLDE.DP1.20002,44.95011,-110.58715,2035,-0.718,2020-01-20
NEON.D12.YELL.DP1.00033,44.95348,-110.53914,2130,-0.685,2020-01-20
NEON.D13.COMO.DP1.20002,40.03496,-105.54487,3036,-0.093,2020-01-20
NEON.D13.MOAB.DP1.00033,38.24833,-109.38827,1803,0.669,2020-01-20
NEON.D13.NIWO.DP1.00033,40.05425,-105.58237,3493,-0.272,2020-01-20
NEON.D13.WLOU.DP1.20002,39.891366,-105.915395,2920,0.024,2020-01-20
NEON.D14.JORN.DP1.00033,32.59068,-106.84254,1321,0.769,2020-01-20
NEON.D14.SRER.DP1.00033,31.91068,-110.83549,999,0.698,2020-01-20
NEON.D14.SYCA.DP1.20002,33.749057,-111.506903,644,0.491,2020-01-20
NEON.D15.ONAQ.DP1.00033,40.177599,-112.452452,1655,0.045,2020-01-20
NEON.D15.REDB.DP1.20002,40.783934,-111.797887,1696,-0.094,2020-01-20
NEON.D16.ABBY.DP1.00033,45.76243,-122.33033,390,-1.05,2020-01-20
NEON.D16.MART.DP1.20002,45.791248,-121.931959,354,-1.269,2020-01-20
NEON.D16.MCRA.DP1.20002,44.259598,-122.165554,880,-1.409,2020-01-20
NEON.D16.WREF.DP1.00033,45.82049,-121.95191,368,-1.271,2020-01-20
NEON.D17.BIGC.DP1.20002,37.059719,-119.257549,1133,-0.519,2020-01-20
NEON.D17.SJER.DP1.00033,37.10878,-119.73228,398,-0.688,2020-01-20
NEON.D17.SOAP.DP1.00033,37.03337,-119.26219,1210,-0.541,2020-01-20
NEON.D17.TEAK.DP1.00033,37.00583,-119.00602,2149,-0.549,2020-01-20
NEON.D17.TECR.DP1.20002,36.955931,-119.027363,2053,-0.546,2020-01-20
NEON.D18.BARR.DP1.00033,71.28241,-156.61936,7,-9999.0,2020-01-20
NEON.D18.OKSR.DP1.20002,68.669753,-149.143018,773,-9999.0,2020-01-20
NEON.D18.TOOK.DP1.20002,68.629562,-149.610509,715,-9999.0,2020-01-20
NEON.D18.TOOL.DP1.00033,68.66109,-149.37047,827,-9999.0,2020-01-20
NEON.D19.BONA.DP1.00033,65.15401,-147.50258,233,-9999.0,2020-01-20
NEON.D19.CARI.DP1.20002,65.15306,-147.50246,229,-9999.0,2020-01-20
NEON.D19.DEJU.DP1.00033,63.88112,-145.75136,504,-9999.0,2020-01-20
NEON.D19.HEAL.DP1.00033,63.87569,-149.21334,409,-9999.0,2020-01-20
NEON.D20.PUUM.DP1.00033,19.55309,-155.31731,1683,-9999.0,2020-01-20
nevcansnk3a,39.0099,-114.3095,3063,0.243,2020-01-20
nevcanspg1a,38.9253,-114.4082,1792,0.224,2020-01-20
nevcanspg2a,38.8921,-114.3521,2203,0.199,2020-01-20
nevcanspg3a,38.8898,-114.3314,2820,0.171,2020-01-20
nevcanspg4a,38.9061,-114.3089,3360,0.171,2020-01-20
ninemileprairie,40.86801886,-96.82208066,381,0.306,2020-01-20
nist,39.139,-77.2125,100,0.314,2020-01-20
niwot3,40.03286358,-105.5469702,3050,-0.093,2020-01-20
niwot5,40.03286358,-105.5469702,2993,-0.093,2020-01-20
northattleboroma,41.98369,-71.31056,60,-0.293,2020-01-20
northinletsaltmarsh,33.3455,-79.1957,1,0.473,2020-01-20
oakville,47.899334,-97.316139,268,1.054,2020-01-20
oregonMP,44.4523,-121.5574,1253,-1.141,2020-01-20
oregonYP,44.32384,-121.605993,977,-1.101,2020-01-20
oregonYPbud,44.3238,-121.606,977,-1.101,2020-01-20
othshardwood,44.934805,-68.6655,41,0.196,2020-01-20
othssoftwood,44.934527,-68.664888,41,0.196,2020-01-20
pace,37.9229,-78.2739,100,0.047,2020-01-20
parkschoolbuffalo,42.9637,-78.7834,205,0.537,2020-01-20
piedmontalpasture2,33.8875,-85.6935,238,1.051,2020-01-20
portal,31.9385,-109.0823,1330,1.355,2020-01-20
proctor,44.525,-72.866,403,0.327,2020-01-20
readingma,42.5304,-71.1272,100,0.233,2020-01-20
robinson,37.4671,-83.1576,483,1.93,2020-01-20
robinson2,37.4671,-83.1576,483,1.93,2020-01-20
rosemountcons,44.6946,-93.0578,283,0.525,2020-01-20
rosemountconv,44.691,-93.0576,283,0.525,2020-01-20
rosemountnprs,44.6781,-93.0723,274,0.568,2020-01-20
russellsage,32.456961,-91.974322,20,0.707,2020-01-20
sagehen,39.4315,-120.2398,1934,-0.589,2020-01-20
sagehen2,39.4307,-120.2407,1937,-0.589,2020-01-20
sagehen3,39.4311,-120.2405,1935,-0.589,2020-01-20
sanford,42.726777,-84.464482,268,1.979,2020-01-20
santacruz1,36.9741,-122.0308,11,0.011,2020-01-20
santacruz2,36.9741,-122.0308,11,0.011,2020-01-20
santaluciapreserve1,36.5265,-121.8682,500,0.269,2020-01-20
santaluciapreserve2,36.5265,-121.8682,500,0.269,2020-01-20
segaarboretum10,35.16209,-111.73151,2170,0.653,2020-01-20
segaarboretum2,35.16209,-111.73151,2170,0.653,2020-01-20
segaarboretum3,35.16209,-111.73151,2170,0.653,2020-01-20
segaarboretum4,35.16214,-111.73153,2170,0.653,2020-01-20
segaarboretum6,35.16209,-111.73151,2170,0.653,2020-01-20
segaarboretum9,35.16222,-111.73158,2170,0.653,2020-01-20
segaarboretumforest,35.1613,-111.7359,2173,0.653,2020-01-20
segaarboretummeadow,35.1621,-111.7316,2157,0.653,2020-01-20
segablackpoint,35.6814,-111.4754,1566,0.247,2020-01-20
segabluechute,35.5876,-111.9716,1930,0.695,2020-01-20
segabluechute1,35.58759,-111.97115,1931,0.695,2020-01-20
segabluechute2,35.58759,-111.97115,1931,0.695,2020-01-20
segabluechute4,35.58759,-111.9716,1931,0.695,2020-01-20
segabluechute6,35.58759,-111.97115,1931,0.695,2020-01-20
segabluechute7,35.58759,-111.97115,1931,0.695,2020-01-20
segabluechute8,35.58759,-111.97115,1931,0.695,2020-01-20
segabradshaw,34.9109,-111.9285,1402,0.779,2020-01-20
segahartprairie,35.3536,-111.7324,2585,0.417,2020-01-20
segalcr,35.7231,-111.321,1275,0.748,2020-01-20
segalcr2,35.7069,-111.36,1495,0.717,2020-01-20
segalittlemountain,36.5865,-112.3634,2276,0.838,2020-01-20
segasoapcreek,36.751,-111.716,1233,0.929,2020-01-20
segawhitepockets,36.6081,-112.4082,2057,0.831,2020-01-20
sevilletagrass,34.360444,-106.700186,1600,0.984,2020-01-20
sevilletanewgrass,34.358,-106.6799,1603,1.072,2020-01-20
sevilletashrub,34.334956,-106.744469,1603,0.964,2020-01-20
sevMRME10L,34.3438,-106.7269,1604,1.004,2020-01-20
sevMRME11C,34.3438,-106.7268,1604,1.004,2020-01-20
sevMRME1S,34.3442,-106.7272,1604,1.004,2020-01-20
sevpjrm12,34.38615,-106.52621,1905,1.029,2020-01-20
sevpjrm13,34.38631,-106.52791,1914,1.029,2020-01-20
shalehillsczo,40.6658,-77.9041,310,0.201,2020-01-20
shenandoah,38.6167,-78.35,1037,-0.559,2020-01-20
silverton,44.9986,-122.6948,347,-1.487,2020-01-20
siwetland,38.0369,-121.7546,-5,-0.887,2020-01-20
slatefloodplain,38.9094,-107.0282,2725,-0.381,2020-01-20
snodgrass1,38.92619636,-106.9714376,3023,-0.652,2020-01-20
snodgrass2,38.92619636,-106.9714376,3023,-0.652,2020-01-20
snodgrass3,38.92839978,-106.9781196,3141,-0.652,2020-01-20
snodgrass4,38.92839978,-106.9781196,3141,-0.652,2020-01-20
snodgrass5,38.92744789,-106.9785209,3152,-0.652,2020-01-20
snodgrass6,38.92744789,-106.9785209,3152,-0.652,2020-01-20
snodgrass7,38.93142134,-106.9852388,3363,-0.578,2020-01-20
snodgrass8,38.93142134,-106.9852388,3363,-0.578,2020-01-20
southerngreatplains,36.6058,-97.4888,314,-0.219,2020-01-20
springfieldma,42.135162,-72.585972,56,0.618,2020-01-20
spruceA0EMI,47.5049,-93.4541,413,1.022,2020-01-20
spruceA0EMT,47.5049,-93.4541,418,1.022,2020-01-20
spruceA0P07,47.50493,-93.45314,413,1.022,2020-01-20
spruceA0P07SH,47.50493,-93.45314,413,1.022,2020-01-20
spruceA0P21,47.50625,-93.45275,413,1.022,2020-01-20
spruceA0P21SH,47.50625,-93.45275,413,1.022,2020-01-20
srg,31.7894,-110.8276,1281,1.132,2020-01-20
srm,31.8214,-110.8661,1116,0.853,2020-01-20
statenrice1,38.1235,-121.549,-5,-1.01,2020-01-20
stjones,39.088222,-75.43725,2,-0.786,2020-01-20
sweetbriar,37.57341,-79.08482,242,0.519,2020-01-20
sweetbriarclearcut,37.5753,-79.0872,242,0.519,2020-01-20
sweetbriargrass,37.5605,-79.0884,240,0.519,2020-01-20
sylvania,46.242,-89.348,540,1.219,2020-01-20
templefieldstation1,40.1667,-75.1894,105,-0.184,2020-01-20
tfforest,43.1086,-70.9505,23,1.26,2020-01-20
tidmarshplymouth,41.9157,-70.5754,9,1.055,2020-01-20
tonzi,38.43091667,-120.9658861,177,-0.65,2020-01-20
townsenddemeadow,39.3917,-75.6281,11,-0.422,2020-01-20
tsubiology,36.1671,-86.8295,164,2.334,2020-01-20
tsubiology2,36.1171,-86.8295,100,2.081,2020-01-20
tuckerprairie,38.9491,-91.9952,274,0.552,2020-01-20
twodafo,29.1658,-95.829,16,-0.818,2020-01-20
tworfaa,31.4777,-96.8882,167,-0.677,2020-01-20
tworfpr,31.4802,-96.8826,162,-0.706,2020-01-20
tworfta,31.4693,-96.8864,173,-0.677,2020-01-20
twosfpr,30.6176,-97.2938,157,-0.781,2020-01-20
ucnrsanzaborrego,33.2401,-116.3886,214,0.708,2020-01-20
ufona,27.3836,-81.950856,25,-0.396,2020-01-20
uiefmaize2,40.0628,-88.1961,224,1.5,2020-01-20
uiefmiscanthus2,40.0628,-88.1984,221,1.5,2020-01-20
uiefprairie2,40.0637,-88.1973,224,1.5,2020-01-20
uiefsorghum,40.0065,-88.2032,224,1.429,2020-01-20
uiefswitchgrass2,40.0637,-88.1973,224,1.5,2020-01-20
umichbiological,45.55984,-84.71382,230,1.291,2020-01-20
umichbiological2,45.5625,-84.6976,240,1.25,2020-01-20
unca,35.5951,-82.5515,650,1.079,2020-01-20
usgseros,43.7343,-96.6234,448,0.529,2020-01-20
usmpj,34.43845,-106.2543606,2126,0.308,2020-01-20
usof5,35.7297,-90.0406,70,1.537,2020-01-20
usof6,35.7333,-90.0403,70,1.537,2020-01-20
uwmfieldsta,43.38709,-88.0229,265,1.216,2020-01-20
vaira,38.41328056,-120.9506361,129,-0.65,2020-01-20
vallesburnedconifer,35.8884,-106.5321,3043,0.3,2020-01-20
vallesmixedconifer,35.9192,-106.6142,2752,0.185,2020-01-20
vallesponderosapine,35.864,-106.5964,2501,0.096,2020-01-20
waahila,21.3017,-157.8152,55,-9999.0,2020-01-20
warrenwilson,35.6069,-82.4421,2198,1.123,2020-01-20
willamettepoplar,44.1368,-123.1823,112,-1.347,2020-01-20
willowcreek,45.805986,-90.07912,521,0.958,2020-01-20
windriver,45.8212833,-121.9520833,371,-1.271,2020-01-20
windriverunderstory,45.8212833,-121.9520833,371,-1.271,2020-01-20
wolfesneckfarm,43.8305,-70.0715,16,0.436,2020-01-20
worcester,42.2697,-71.8428,185,0.465,2020-01-20
alligatorriver,35.7879,-75.9038,1,-0.932,2020-01-27
arbutuslake,43.98207,-74.23322,535,-0.462,2020-01-27
arbutuslakeinlet,43.99336,-74.24527,527,-0.462,2020-01-27
archboldavir,27.176064,-81.21958,8,0.177,2020-01-27
archboldavirx,27.166627,-81.219828,8,0.177,2020-01-27
archboldbahia,27.1656,-81.216112,8,0.177,2020-01-27
archboldpnot,27.187948,-81.200345,9,0.177,2020-01-27
archboldpnotx,27.180677,-81.20068,9,0.177,2020-01-27
arkansascornsoy,34.416,-91.6723,61,0.221,2020-01-27
arsbrooks10,41.9749,-93.6905,312,0.009,2020-01-27
arsbrooks11,41.9744,-93.6937,313,0.009,2020-01-27
arscolesnorth,42.4884,-93.5225,356,0.314,2020-01-27
arscolessouth,42.4816,-93.5235,352,0.314,2020-01-27
arsgacp1,31.5109,-83.6179,96,-0.261,2020-01-27
arsgacp3,31.7563,-83.7516,139,0.371,2020-01-27
arsgacp4,31.7093,-83.7287,127,0.078,2020-01-27
arsgreatbasinltar098,43.1675,-116.7132,1426,-0.832,2020-01-27
arsgreatbasinltar117,43.1432,-116.7357,1625,-1.002,2020-01-27
arsgreatbasinltar177,43.0645,-116.7484,2114,-1.123,2020-01-27
arsltarmdcr,39.0587,-75.8513,17,-0.698,2020-01-27
arsltarmdcrnatw,39.0575,-75.7531,16,-0.723,2020-01-27
arsltarmdcrprcw,39.0667,-75.7609,17,-0.723,2020-01-27
arsltarmdcrresw,39.0549,-75.7532,16,-0.723,2020-01-27
arsltarucbec1,40.7537,-78.0057,400,-0.822,2020-01-27
arsltarucbec2,40.7558,-77.9999,396,-0.822,2020-01-27
arsmnswanlake1,45.684508,-95.799703,370,0.256,2020-01-27
arsmorris1,45.6167,-96.1269,341,0.306,2020-01-27
arsmorris2,45.627,-96.127,338,0.306,2020-01-27
arsmorris3,45.6091,-96.1265,342,0.306,2020-01-27
arsope3ltar,39.0309,-76.8442,41,-0.198,2020-01-27
ashburnham,42.6029,-71.926,292,0.422,2020-01-27
asuhighlands,36.2076,-81.7032,1016,0.318,2020-01-27
austincary,29.738,-82.2188,44,0.455,2020-01-27
barrow,71.28007453,-156.6091492,5,-9999.0,2020-01-27
bartlettir,44.0646,-71.2881,268,0.082,2020-01-27
bigtraillake,64.9194,-147.822,190,-9999.0,2020-01-27
bitterbrush001,48.154,-119.9456,667,-0.948,2020-01-27
blackrockforest,41.3974,-74.0239,427,-0.586,2020-01-27
bnzblackspruce,64.6963,-148.3235,102,-9999.0,2020-01-27
bnzrichfen,64.70134,-148.31195,97,-9999.0,2020-01-27
bnzthermokarstbog,64.6955,-148.3208,104,-9999.0,2020-01-27
boglakepeatland,47.5051,-93.4893,416,1.567,2020-01-27
bostoncommon,42.355912,-71.064145,10,-0.493,2020-01-27
bostonu,42.35041,-71.10438,10,-0.373,2020-01-27
bouldinalfalfa,38.0985,-121.4993,-5,-1.014,2020-01-27
bouldincorn,38.109,-121.535,-5,-0.996,2020-01-27
bozeman,45.783056,-110.777778,2332,-0.756,2020-01-27
brackishimpoundment,33.2015,-79.2973,1,0.607,2020-01-27
bullshoals,36.562833,-93.06663,260,1.184,2020-01-27
burnssagebrush,43.4712,-119.6909,1398,-0.211,2020-01-27
butte,45.95304,-112.47964,1682,-1.086,2020-01-27
butterice,39.5793,-121.858,33,-0.908,2020-01-27
cafboydnorthltar01,46.755104,-117.126052,795,-1.364,2020-01-27
cafboydsouthltar01,46.751809,-117.128502,795,-1.364,2020-01-27
cafcookeastltar01,46.78152,-117.0821,794,-1.38,2020-01-27
cafcookwestltar01,46.784037,-117.09083,807,-1.38,2020-01-27
caryinstitute,41.7839,-73.7341,127,0.036,2020-01-27
centralredwoods1,38.632272,-123.301511,200,-0.479,2020-01-27
centralredwoods2,38.632272,-123.301511,200,-0.479,2020-01-27
cperagm,40.8402,-104.7672,1644,0.709,2020-01-27
cperheavy,40.8153,-104.7386,1652,1.091,2020-01-27
cpertgm,40.833,-104.76,1644,0.974,2020-01-27
cperuvb,40.8055764,-104.7558542,1641,0.974,2020-01-27
cuny,40.8162,-73.9507,42,-0.374,2020-01-27
doverdesaltmarsh,39.0888,-75.4368,0,-1.018,2020-01-27
downerwoods,43.07938,-87.88076,213,0.367,2020-01-27
dukehw,35.973583,-79.100371,400,0.123,2020-01-27
ecb1,41.5348,-84.8068,275,0.258,2020-01-27
ecb2,41.5321,-84.808,275,0.258,2020-01-27
ecb4,41.1796,-83.0604,240,-0.73,2020-01-27
elverde,18.320654,-65.8199,312,-9999.0,2020-01-27
flagstaff,35.17961521,-111.6049032,6983,0.716,2020-01-27
flagstaff2,35.179225,-111.604506,6983,0.716,2020-01-27
flagstaffchimneysprings,35.257296,-111.678542,2250,0.522,2020-01-27
forbes,39.232,-121.2972,360,-0.707,2020-01-27
fortpaynealpasture1,34.3824,-85.6428,405,0.236,2020-01-27
fortpaynealpasture2,34.3824,-85.6447,403,0.236,2020-01-27
gcesapelo,31.4440444,-81.283528,0,1.282,2020-01-27
gilberttract,38.0015,-121.6691,6,-0.924,2020-01-27
glees,41.3644,-106.2394,3150,0.13,2020-01-27
glennorganicrice,39.6805,-122.0026,2,-0.908,2020-01-27
glennrice,39.5944,-122.0253,36,-0.923,2020-01-27
goodnow,43.96018,-74.20994,820,-0.474,2020-01-27
goodwater,39.22848,-92.11936,264,0.426,2020-01-27
goodwaterbau,39.23115,-92.15216,274,0.441,2020-01-27
grandteton,43.915017,-110.578036,2054,-0.946,2020-01-27
grca1pj,36.0241,-112.2211,1978,0.659,2020-01-27
greenridge1,39.6905,-78.4067,285,-0.835,2020-01-27
harvard,42.5378,-72.1715,340,0.283,2020-01-27
harvardbarn,42.53532,-72.1899,350,0.115,2020-01-27
harvardbarn2,42.53532,-72.1899,350,0.115,2020-01-27
harvardems2,42.5378,-72.1715,340,0.283,2020-01-27
harvardfarmnorth,42.520465,-72.182242,355,0.115,2020-01-27
harvardfarmsouth,42.522466,-72.182339,355,0.115,2020-01-27
harvardgarden,42.5291,-72.1863,335,0.115,2020-01-27
harvardhemlock,42.539,-72.18,355,0.115,2020-01-27
harvardhemlock2,42.539407,-72.177976,355,0.283,2020-01-27
harvardlph,42.542,-72.185,380,0.115,2020-01-27
hawbeckereddy,40.6608,-77.848849,310,-0.588,2020-01-27
hobcawclearcutlongleaf,33.3486,-79.232,4,0.369,2020-01-27
hobcawmaturelongleaf,33.3242,-79.2439,8,0.369,2020-01-27
homesteadsprings,37.2009,-92.9937,452,0.645,2020-01-27
howland1,45.2041,-68.7403,80,0.156,2020-01-27
howland2,45.2128,-68.7418,79,0.156,2020-01-27
hubbardbrook,43.9438,-71.701,253,-0.166,2020-01-27
humnokericea,34.585192,-91.751684,61,0.465,2020-01-27
humnokericec,34.588853,-91.7516729,70,0.465,2020-01-27
huyckpreserveny,42.5266,-74.1587,478,0.017,2020-01-27
hwmo1,20.0212,-155.7331,585,-9999.0,2020-01-27
hwmo2,19.9766,-155.8298,12,-9999.0,2020-01-27
hwmo5,20.1117,-155.8151,635,-9999.0,2020-01-27
ibp,32.589,-106.847,1325,0.897,2020-01-27
imcrkfen,68.60583,-149.31101,900,-9999.0,2020-01-27
imcrkridge0,68.60681,-149.2958,951,-9999.0,2020-01-27
imcrkridge1,68.60681,-149.2958,951,-9999.0,2020-01-27
imcrktussock,68.60633,-149.30408,918,-9999.0,2020-01-27
jasperridge,37.402028,-122.22104,197,-0.682,2020-01-27
jerbajada,32.57992,-106.633793,1402,0.826,2020-01-27
jergrassland,32.5833,-106.8333,1331,0.897,2020-01-27
jernort,32.619,-106.788,1328,0.876,2020-01-27
jernovel,32.6335,-106.8334,1324,0.917,2020-01-27
jernwern,32.6271,-106.7387,1325,0.909,2020-01-27
jersand,32.515,-106.798,1363,0.883,2020-01-27
jershrubland,32.6502,-106.8334,1328,0.961,2020-01-27
junipersavannah,34.4254,-105.8615,1931,0.56,2020-01-27
kamuela,20.015008,-155.661326,850,-9999.0,2020-01-27
kamuela2,20.014959,-155.661139,830,-9999.0,2020-01-27
kansas,39.0561,-95.1907,333,0.278,2020-01-27
kelloggcorn,42.437536,-85.3225472,288,0.95,2020-01-27
kempnrs,45.83992,-89.67755,539,1.59,2020-01-27
kendall,31.73652,-109.94185,1529,1.446,2020-01-27
konza,39.0824,-96.5603,443,0.218,2020-01-27
laupahoehoe,19.9322,-155.2912,1145,-9999.0,2020-01-27
ldeocam,41.0039,-73.9053,121,-0.241,2020-01-27
lostcreek,46.0827,-89.9792,480,1.412,2020-01-27
luckyhills,31.743896,-110.052023,1366,1.388,2020-01-27
macleish,42.4484,-72.6804,251,-0.157,2020-01-27
macordway,44.8106,-93.0272,264,0.8,2020-01-27
mandanh5,46.775423,-100.95109,593,0.358,2020-01-27
mandani2,46.7614,-100.9257,590,0.34,2020-01-27
manilacotton,35.8872,-90.1371,73,0.654,2020-01-27
marena,36.06434,-97.21271,327,0.157,2020-01-27
mead1,41.1651,-96.4766,361,0.4,2020-01-27
mead2,41.1649,-96.4701,362,0.4,2020-01-27
mead3,41.1797,-96.4397,363,0.403,2020-01-27
meadpasture,41.1447,-96.4616,356,0.325,2020-01-27
meadpasturese,41.1447,-96.4616,356,0.325,2020-01-27
meadpasturesw,41.1447,-96.4616,356,0.325,2020-01-27
missouriozarks,38.7441,-92.2,219,0.581,2020-01-27
morganmonroe,39.3231,-86.4131,275,1.584,2020-01-27
morganmonroe2,39.3231,-86.4131,275,1.584,2020-01-27
nahuku,19.415187,-155.238383,1202,-9999.0,2020-01-27
nationalelkrefuge,43.488931,-110.737824,1899,-0.715,2020-01-27
ncssm,36.018446,-78.92075,175,0.091,2020-01-27
NEON.D01.BART.DP1.00033,44.063869,-71.287375,285,0.082,2020-01-27
NEON.D01.HARV.DP1.00033,42.536911,-72.17265,359,0.283,2020-01-27
NEON.D01.HOPB.DP1.20002,42.471786,-72.329627,203,-0.263,2020-01-27
NEON.D02.BLAN.DP1.00033,39.033698,-78.041788,162,-0.642,2020-01-27
NEON.D02.LEWI.DP1.20002,39.09564,-77.98322,152,-0.64,2020-01-27
NEON.D02.POSE.DP1.20002,38.89332,-78.14678,293,-0.541,2020-01-27
NEON.D02.SCBI.DP1.00033,38.892925,-78.139494,364,-0.592,2020-01-27
NEON.D02.SERC.DP1.00033,38.89008,-76.56001,30,-0.567,2020-01-27
NEON.D03.BARC.DP1.20002,29.676473,-82.009089,35,0.769,2020-01-27
NEON.D03.DSNY.DP1.00033,28.12505,-81.43619,22,0.292,2020-01-27
NEON.D03.FLNT.DP1.20002,31.185424,-84.437403,27,-0.061,2020-01-27
NEON.D03.JERC.DP1.00033,31.194839,-84.468623,58,-0.073,2020-01-27
NEON.D03.OSBS.DP1.00033,29.689282,-81.993431,56,0.727,2020-01-27
NEON.D03.SUGG.DP1.20002,29.687054,-82.016171,28,0.727,2020-01-27
NEON.D04.CUPE.DP1.20002,18.11352,-66.98676,164,-9999.0,2020-01-27
NEON.D04.GUAN.DP1.00033,17.96955,-66.8687,136,-9999.0,2020-01-27
NEON.D04.GUIL.DP1.20002,18.1741,-66.79851,564,-9999.0,2020-01-27
NEON.D04.LAJA.DP1.00033,18.021261,-67.076889,22,-9999.0,2020-01-27
NEON.D05.CRAM.DP1.20002,46.21111,-89.47825,518,1.751,2020-01-27
NEON.D05.LIRO.DP1.20002,45.998269,-89.704767,495,1.645,2020-01-27
NEON.D05.STEI.DP1.00033,45.50894,-89.58637,476,1.421,2020-01-27
NEON.D05.TREE.DP1.00033,45.49373,-89.58572,474,1.421,2020-01-27
NEON.D05.UNDE.DP1.00033,46.23391,-89.537254,529,1.763,2020-01-27
NEON.D06.KING.DP1.20002,39.10506,-96.60336,339,0.224,2020-01-27
NEON.D06.KONA.DP1.00033,39.110446,-96.612935,443,0.224,2020-01-27
NEON.D06.KONZ.DP1.00033,39.10077,-96.56309,415,0.218,2020-01-27
NEON.D06.MCDI.DP1.20002,38.94428,-96.44197,376,0.366,2020-01-27
NEON.D06.UKFS.DP1.00033,39.040431,-95.19215,330,0.278,2020-01-27
NEON.D07.GRSM.DP1.00033,35.68896,-83.50195,589,0.773,2020-01-27
NEON.D07.LECO.DP1.20002,35.69043,-83.50379,578,0.773,2020-01-27
NEON.D07.MLBS.DP1.00033,37.378314,-80.524847,1177,-0.456,2020-01-27
NEON.D07.ORNL.DP1.00033,35.964128,-84.282588,351,1.18,2020-01-27
NEON.D07.WALK.DP1.20002,35.95947,-84.28041,274,1.162,2020-01-27
NEON.D08.BLWA.DP1.20002,32.541529,-87.798151,23,0.868,2020-01-27
NEON.D08.DELA.DP1.00033,32.541727,-87.803877,36,0.868,2020-01-27
NEON.D08.LENO.DP1.00033,31.85388,-88.16122,10,0.012,2020-01-27
NEON.D08.MAYF.DP1.20002,32.959657,-87.408128,93,0.97,2020-01-27
NEON.D08.TALL.DP1.00033,32.95047,-87.393259,167,0.97,2020-01-27
NEON.D08.TOMB.DP1.20002,31.853431,-88.158872,10,0.012,2020-01-27
NEON.D09.DCFS.DP1.00033,47.161647,-99.106556,574,1.192,2020-01-27
NEON.D09.NOGP.DP1.00033,46.76972,-100.91535,589,0.34,2020-01-27
NEON.D09.PRLA.DP1.20002,47.15909,-99.11388,563,1.138,2020-01-27
NEON.D09.PRPO.DP1.20002,47.12999,-99.250551,587,1.073,2020-01-27
NEON.D09.WOOD.DP1.00033,47.1282,-99.241334,585,1.073,2020-01-27
NEON.D10.ARIK.DP1.20002,39.758246,-102.447103,1188,-0.541,2020-01-27
NEON.D10.CPER.DP1.00033,40.81553,-104.7456,1600,0.974,2020-01-27
NEON.D10.HQTW.DP1.00033,40.016704,-105.245612,1601,0.04,2020-01-27
NEON.D10.RMNP.DP1.00033,40.275903,-105.545955,2751,-0.542,2020-01-27
NEON.D10.STER.DP1.00033,40.461894,-103.02929,1366,-0.279,2020-01-27
NEON.D11.BLUE.DP1.20002,34.444218,-96.624201,288,0.891,2020-01-27
NEON.D11.CLBJ.DP1.00033,33.40123,-97.57,279,0.885,2020-01-27
NEON.D11.OAES.DP1.00033,35.41059,-99.05879,520,-0.145,2020-01-27
NEON.D11.PRIN.DP1.20002,33.37859,-97.78226,255,0.606,2020-01-27
NEON.D12.BLDE.DP1.20002,44.95011,-110.58715,2035,-1.043,2020-01-27
NEON.D12.YELL.DP1.00033,44.95348,-110.53914,2130,-0.916,2020-01-27
NEON.D13.COMO.DP1.20002,40.03496,-105.54487,3036,-0.516,2020-01-27
NEON.D13.MOAB.DP1.00033,38.24833,-109.38827,1803,0.997,2020-01-27
NEON.D13.NIWO.DP1.00033,40.05425,-105.58237,3493,-0.547,2020-01-27
NEON.D13.WLOU.DP1.20002,39.891366,-105.915395,2920,-0.32,2020-01-27
NEON.D14.JORN.DP1.00033,32.59068,-106.84254,1321,0.897,2020-01-27
NEON.D14.SRER.DP1.00033,31.91068,-110.83549,999,0.986,2020-01-27
NEON.D14.SYCA.DP1.20002,33.749057,-111.506903,644,0.613,2020-01-27
NEON.D15.ONAQ.DP1.00033,40.177599,-112.452452,1655,-0.134,2020-01-27
NEON.D15.REDB.DP1.20002,40.783934,-111.797887,1696,-0.236,2020-01-27
NEON.D16.ABBY.DP1.00033,45.76243,-122.33033,390,-0.471,2020-01-27
NEON.D16.MART.DP1.20002,45.791248,-121.931959,354,-0.776,2020-01-27
NEON.D16.MCRA.DP1.20002,44.259598,-122.165554,880,-1.087,2020-01-27
NEON.D16.WREF.DP1.00033,45.82049,-121.95191,368,-0.78,2020-01-27
NEON.D17.BIGC.DP1.20002,37.059719,-119.257549,1133,-0.615,2020-01-27
NEON.D17.SJER.DP1.00033,37.10878,-119.73228,398,-0.749,2020-01-27
NEON.D17.SOAP.DP1.00033,37.03337,-119.26219,1210,-0.639,2020-01-27
NEON.D17.TEAK.DP1.00033,37.00583,-119.00602,2149,-0.657,2020-01-27
NEON.D17.TECR.DP1.20002,36.955931,-119.027363,2053,-0.651,2020-01-27
NEON.D18.BARR.DP1.00033,71.28241,-156.61936,7,-9999.0,2020-01-27
NEON.D18.OKSR.DP1.20002,68.669753,-149.143018,773,-9999.0,2020-01-27
NEON.D18.TOOK.DP1.20002,68.629562,-149.610509,715,-9999.0,2020-01-27
NEON.D18.TOOL.DP1.00033,68.66109,-149.37047,827,-9999.0,2020-01-27
NEON.D19.BONA.DP1.00033,65.15401,-147.50258,233,-9999.0,2020-01-27
NEON.D19.CARI.DP1.20002,65.15306,-147.50246,229,-9999.0,2020-01-27
NEON.D19.DEJU.DP1.00033,63.88112,-145.75136,504,-9999.0,2020-01-27
NEON.D19.HEAL.DP1.00033,63.87569,-149.21334,409,-9999.0,2020-01-27
NEON.D20.PUUM.DP1.00033,19.55309,-155.31731,1683,-9999.0,2020-01-27
nevcansnk3a,39.0099,-114.3095,3063,0.308,2020-01-27
nevcanspg1a,38.9253,-114.4082,1792,0.175,2020-01-27
nevcanspg2a,38.8921,-114.3521,2203,0.228,2020-01-27
nevcanspg3a,38.8898,-114.3314,2820,0.251,2020-01-27
nevcanspg4a,38.9061,-114.3089,3360,0.251,2020-01-27
ninemileprairie,40.86801886,-96.82208066,381,0.815,2020-01-27
nist,39.139,-77.2125,100,-0.39,2020-01-27
niwot3,40.03286358,-105.5469702,3050,-0.516,2020-01-27
niwot5,40.03286358,-105.5469702,2993,-0.516,2020-01-27
northattleboroma,41.98369,-71.31056,60,-0.648,2020-01-27
northinletsaltmarsh,33.3455,-79.1957,1,0.313,2020-01-27
oakville,47.899334,-97.316139,268,1.511,2020-01-27
oregonMP,44.4523,-121.5574,1253,-0.94,2020-01-27
oregonYP,44.32384,-121.605993,977,-0.946,2020-01-27
oregonYPbud,44.3238,-121.606,977,-0.946,2020-01-27
othshardwood,44.934805,-68.6655,41,0.009,2020-01-27
othssoftwood,44.934527,-68.664888,41,0.009,2020-01-27
pace,37.9229,-78.2739,100,-0.549,2020-01-27
parkschoolbuffalo,42.9637,-78.7834,205,-0.442,2020-01-27
piedmontalpasture2,33.8875,-85.6935,238,0.589,2020-01-27
portal,31.9385,-109.0823,1330,1.458,2020-01-27
proctor,44.525,-72.866,403,-1.035,2020-01-27
readingma,42.5304,-71.1272,100,-0.286,2020-01-27
robinson,37.4671,-83.1576,483,1.337,2020-01-27
robinson2,37.4671,-83.1576,483,1.337,2020-01-27
rosemountcons,44.6946,-93.0578,283,0.88,2020-01-27
rosemountconv,44.691,-93.0576,283,0.88,2020-01-27
rosemountnprs,44.6781,-93.0723,274,0.9,2020-01-27
russellsage,32.456961,-91.974322,20,0.457,2020-01-27
sagehen,39.4315,-120.2398,1934,-0.605,2020-01-27
sagehen2,39.4307,-120.2407,1937,-0.605,2020-01-27
sagehen3,39.4311,-120.2405,1935,-0.605,2020-01-27
sanford,42.726777,-84.464482,268,1.338,2020-01-27
santacruz1,36.9741,-122.0308,11,0.05,2020-01-27
santacruz2,36.9741,-122.0308,11,0.05,2020-01-27
santaluciapreserve1,36.5265,-121.8682,500,0.137,2020-01-27
santaluciapreserve2,36.5265,-121.8682,500,0.137,2020-01-27
segaarboretum10,35.16209,-111.73151,2170,0.735,2020-01-27
segaarboretum2,35.16209,-111.73151,2170,0.735,2020-01-27
segaarboretum3,35.16209,-111.73151,2170,0.735,2020-01-27
segaarboretum4,35.16214,-111.73153,2170,0.735,2020-01-27
segaarboretum6,35.16209,-111.73151,2170,0.735,2020-01-27
segaarboretum9,35.16222,-111.73158,2170,0.735,2020-01-27
segaarboretumforest,35.1613,-111.7359,2173,0.735,2020-01-27
segaarboretummeadow,35.1621,-111.7316,2157,0.735,2020-01-27
segablackpoint,35.6814,-111.4754,1566,0.365,2020-01-27
segabluechute,35.5876,-111.9716,1930,0.783,2020-01-27
segabluechute1,35.58759,-111.97115,1931,0.783,2020-01-27
segabluechute2,35.58759,-111.97115,1931,0.783,2020-01-27
segabluechute4,35.58759,-111.9716,1931,0.783,2020-01-27
segabluechute6,35.58759,-111.97115,1931,0.783,2020-01-27
segabluechute7,35.58759,-111.97115,1931,0.783,2020-01-27
segabluechute8,35.58759,-111.97115,1931,0.783,2020-01-27
segabradshaw,34.9109,-111.9285,1402,0.872,2020-01-27
segahartprairie,35.3536,-111.7324,2585,0.445,2020-01-27
segalcr,35.7231,-111.321,1275,0.871,2020-01-27
segalcr2,35.7069,-111.36,1495,0.8,2020-01-27
segalittlemountain,36.5865,-112.3634,2276,0.901,2020-01-27
segasoapcreek,36.751,-111.716,1233,1.111,2020-01-27
segawhitepockets,36.6081,-112.4082,2057,0.892,2020-01-27
sevilletagrass,34.360444,-106.700186,1600,1.242,2020-01-27
sevilletanewgrass,34.358,-106.6799,1603,1.348,2020-01-27
sevilletashrub,34.334956,-106.744469,1603,1.223,2020-01-27
sevMRME10L,34.3438,-106.7269,1604,1.272,2020-01-27
sevMRME11C,34.3438,-106.7268,1604,1.272,2020-01-27
sevMRME1S,34.3442,-106.7272,1604,1.272,2020-01-27
sevpjrm12,34.38615,-106.52621,1905,1.346,2020-01-27
sevpjrm13,34.38631,-106.52791,1914,1.346,2020-01-27
shalehillsczo,40.6658,-77.9041,310,-0.63,2020-01-27
shenandoah,38.6167,-78.35,1037,-0.971,2020-01-27
silverton,44.9986,-122.6948,347,-1.246,2020-01-27
siwetland,38.0369,-121.7546,-5,-0.837,2020-01-27
slatefloodplain,38.9094,-107.0282,2725,-0.412,2020-01-27
snodgrass1,38.92619636,-106.9714376,3023,-0.709,2020-01-27
snodgrass2,38.92619636,-106.9714376,3023,-0.709,2020-01-27
snodgrass3,38.92839978,-106.9781196,3141,-0.709,2020-01-27
snodgrass4,38.92839978,-106.9781196,3141,-0.709,2020-01-27
snodgrass5,38.92744789,-106.9785209,3152,-0.709,2020-01-27
snodgrass6,38.92744789,-106.9785209,3152,-0.709,2020-01-27
snodgrass7,38.93142134,-106.9852388,3363,-0.628,2020-01-27
snodgrass8,38.93142134,-106.9852388,3363,-0.628,2020-01-27
southerngreatplains,36.6058,-97.4888,314,-0.196,2020-01-27
springfieldma,42.135162,-72.585972,56,0.119,2020-01-27
spruceA0EMI,47.5049,-93.4541,413,1.568,2020-01-27
spruceA0EMT,47.5049,-93.4541,418,1.568,2020-01-27
spruceA0P07,47.50493,-93.45314,413,1.568,2020-01-27
spruceA0P07SH,47.50493,-93.45314,413,1.568,2020-01-27
spruceA0P21,47.50625,-93.45275,413,1.568,2020-01-27
spruceA0P21SH,47.50625,-93.45275,413,1.568,2020-01-27
srg,31.7894,-110.8276,1281,1.352,2020-01-27
srm,31.8214,-110.8661,1116,1.102,2020-01-27
statenrice1,38.1235,-121.549,-5,-0.981,2020-01-27
stjones,39.088222,-75.43725,2,-1.018,2020-01-27
sweetbriar,37.57341,-79.08482,242,-0.28,2020-01-27
sweetbriarclearcut,37.5753,-79.0872,242,-0.28,2020-01-27
sweetbriargrass,37.5605,-79.0884,240,-0.28,2020-01-27
sylvania,46.242,-89.348,540,1.738,2020-01-27
templefieldstation1,40.1667,-75.1894,105,-0.897,2020-01-27
tfforest,43.1086,-70.9505,23,0.903,2020-01-27
tidmarshplymouth,41.9157,-70.5754,9,0.608,2020-01-27
tonzi,38.43091667,-120.9658861,177,-0.666,2020-01-27
townsenddemeadow,39.3917,-75.6281,11,-0.888,2020-01-27
tsubiology,36.1671,-86.8295,164,1.594,2020-01-27
tsubiology2,36.1171,-86.8295,100,1.354,2020-01-27
tuckerprairie,38.9491,-91.9952,274,0.563,2020-01-27
twodafo,29.1658,-95.829,16,-0.789,2020-01-27
tworfaa,31.4777,-96.8882,167,-0.69,2020-01-27
tworfpr,31.4802,-96.8826,162,-0.755,2020-01-27
tworfta,31.4693,-96.8864,173,-0.69,2020-01-27
twosfpr,30.6176,-97.2938,157,-0.759,2020-01-27
ucnrsanzaborrego,33.2401,-116.3886,214,0.752,2020-01-27
ufona,27.3836,-81.950856,25,-0.438,2020-01-27
uiefmaize2,40.0628,-88.1961,224,0.722,2020-01-27
uiefmiscanthus2,40.0628,-88.1984,221,0.722,2020-01-27
uiefprairie2,40.0637,-88.1973,224,0.722,2020-01-27
uiefsorghum,40.0065,-88.2032,224,0.665,2020-01-27
uiefswitchgrass2,40.0637,-88.1973,224,0.722,2020-01-27
umichbiological,45.55984,-84.71382,230,1.016,2020-01-27
umichbiological2,45.5625,-84.6976,240,0.955,2020-01-27
unca,35.5951,-82.5515,650,0.184,2020-01-27
usgseros,43.7343,-96.6234,448,0.722,2020-01-27
usmpj,34.43845,-106.2543606,2126,0.625,2020-01-27
usof5,35.7297,-90.0406,70,0.755,2020-01-27
usof6,35.7333,-90.0403,70,0.755,2020-01-27
uwmfieldsta,43.38709,-88.0229,265,0.793,2020-01-27
vaira,38.41328056,-120.9506361,129,-0.666,2020-01-27
vallesburnedconifer,35.8884,-106.5321,3043,0.504,2020-01-27
vallesmixedconifer,35.9192,-106.6142,2752,0.381,2020-01-27
vallesponderosapine,35.864,-106.5964,2501,0.305,2020-01-27
waahila,21.3017,-157.8152,55,-9999.0,2020-01-27
warrenwilson,35.6069,-82.4421,2198,0.359,2020-01-27
willamettepoplar,44.1368,-123.1823,112,-1.107,2020-01-27
willowcreek,45.805986,-90.07912,521,1.493,2020-01-27
windriver,45.8212833,-121.9520833,371,-0.78,2020-01-27
windriverunderstory,45.8212833,-121.9520833,371,-0.78,2020-01-27
wolfesneckfarm,43.8305,-70.0715,16,0.063,2020-01-27
worcester,42.2697,-71.8428,185,-0.228,2020-01-27
alligatorriver,35.7879,-75.9038,1,-1.157,2020-02-03
arbutuslake,43.98207,-74.23322,535,-0.485,2020-02-03
arbutuslakeinlet,43.99336,-74.24527,527,-0.485,2020-02-03
archboldavir,27.176064,-81.21958,8,0.279,2020-02-03
archboldavirx,27.166627,-81.219828,8,0.279,2020-02-03
archboldbahia,27.1656,-81.216112,8,0.279,2020-02-03
archboldpnot,27.187948,-81.200345,9,0.279,2020-02-03
archboldpnotx,27.180677,-81.20068,9,0.279,2020-02-03
arkansascornsoy,34.416,-91.6723,61,0.52,2020-02-03
arsbrooks10,41.9749,-93.6905,312,0.177,2020-02-03
arsbrooks11,41.9744,-93.6937,313,0.177,2020-02-03
arscolesnorth,42.4884,-93.5225,356,0.36,2020-02-03
arscolessouth,42.4816,-93.5235,352,0.36,2020-02-03
arsgacp1,31.5109,-83.6179,96,-0.381,2020-02-03
arsgacp3,31.7563,-83.7516,139,0.358,2020-02-03
arsgacp4,31.7093,-83.7287,127,-0.005,2020-02-03
arsgreatbasinltar098,43.1675,-116.7132,1426,-0.252,2020-02-03
arsgreatbasinltar117,43.1432,-116.7357,1625,-0.439,2020-02-03
arsgreatbasinltar177,43.0645,-116.7484,2114,-0.617,2020-02-03
arsltarmdcr,39.0587,-75.8513,17,-0.387,2020-02-03
arsltarmdcrnatw,39.0575,-75.7531,16,-0.382,2020-02-03
arsltarmdcrprcw,39.0667,-75.7609,17,-0.382,2020-02-03
arsltarmdcrresw,39.0549,-75.7532,16,-0.382,2020-02-03
arsltarucbec1,40.7537,-78.0057,400,-0.875,2020-02-03
arsltarucbec2,40.7558,-77.9999,396,-0.875,2020-02-03
arsmnswanlake1,45.684508,-95.799703,370,0.27,2020-02-03
arsmorris1,45.6167,-96.1269,341,0.324,2020-02-03
arsmorris2,45.627,-96.127,338,0.324,2020-02-03
arsmorris3,45.6091,-96.1265,342,0.324,2020-02-03
arsope3ltar,39.0309,-76.8442,41,0.004,2020-02-03
ashburnham,42.6029,-71.926,292,0.566,2020-02-03
asuhighlands,36.2076,-81.7032,1016,0.577,2020-02-03
austincary,29.738,-82.2188,44,0.114,2020-02-03
barrow,71.28007453,-156.6091492,5,-9999.0,2020-02-03
bartlettir,44.0646,-71.2881,268,0.316,2020-02-03
bigtraillake,64.9194,-147.822,190,-9999.0,2020-02-03
bitterbrush001,48.154,-119.9456,667,-0.537,2020-02-03
blackrockforest,41.3974,-74.0239,427,-0.475,2020-02-03
bnzblackspruce,64.6963,-148.3235,102,-9999.0,2020-02-03
bnzrichfen,64.70134,-148.31195,97,-9999.0,2020-02-03
bnzthermokarstbog,64.6955,-148.3208,104,-9999.0,2020-02-03
boglakepeatland,47.5051,-93.4893,416,1.475,2020-02-03
bostoncommon,42.355912,-71.064145,10,-0.621,2020-02-03
bostonu,42.35041,-71.10438,10,-0.522,2020-02-03
bouldinalfalfa,38.0985,-121.4993,-5,-0.939,2020-02-03
bouldincorn,38.109,-121.535,-5,-0.931,2020-02-03
bozeman,45.783056,-110.777778,2332,-0.563,2020-02-03
brackishimpoundment,33.2015,-79.2973,1,0.505,2020-02-03
bullshoals,36.562833,-93.06663,260,0.955,2020-02-03
burnssagebrush,43.4712,-119.6909,1398,0.245,2020-02-03
butte,45.95304,-112.47964,1682,-0.994,2020-02-03
butterice,39.5793,-121.858,33,-0.766,2020-02-03
cafboydnorthltar01,46.755104,-117.126052,795,-0.94,2020-02-03
cafboydsouthltar01,46.751809,-117.128502,795,-0.94,2020-02-03
cafcookeastltar01,46.78152,-117.0821,794,-0.952,2020-02-03
cafcookwestltar01,46.784037,-117.09083,807,-0.952,2020-02-03
caryinstitute,41.7839,-73.7341,127,0.026,2020-02-03
centralredwoods1,38.632272,-123.301511,200,-0.371,2020-02-03
centralredwoods2,38.632272,-123.301511,200,-0.371,2020-02-03
cperagm,40.8402,-104.7672,1644,0.801,2020-02-03
cperheavy,40.8153,-104.7386,1652,1.085,2020-02-03
cpertgm,40.833,-104.76,1644,0.99,2020-02-03
cperuvb,40.8055764,-104.7558542,1641,0.99,2020-02-03
cuny,40.8162,-73.9507,42,-0.079,2020-02-03
doverdesaltmarsh,39.0888,-75.4368,0,-0.681,2020-02-03
downerwoods,43.07938,-87.88076,213,0.327,2020-02-03
dukehw,35.973583,-79.100371,400,0.48,2020-02-03
ecb1,41.5348,-84.8068,275,0.439,2020-02-03
ecb2,41.5321,-84.808,275,0.439,2020-02-03
ecb4,41.1796,-83.0604,240,-0.646,2020-02-03
elverde,18.320654,-65.8199,312,-9999.0,2020-02-03
flagstaff,35.17961521,-111.6049032,6983,0.664,2020-02-03
flagstaff2,35.179225,-111.604506,6983,0.664,2020-02-03
flagstaffchimneysprings,35.257296,-111.678542,2250,0.5,2020-02-03
forbes,39.232,-121.2972,360,-0.593,2020-02-03
fortpaynealpasture1,34.3824,-85.6428,405,0.268,2020-02-03
fortpaynealpasture2,34.3824,-85.6447,403,0.268,2020-02-03
gcesapelo,31.4440444,-81.283528,0,1.147,2020-02-03
gilberttract,38.0015,-121.6691,6,-0.853,2020-02-03
glees,41.3644,-106.2394,3150,0.508,2020-02-03
glennorganicrice,39.6805,-122.0026,2,-0.735,2020-02-03
glennrice,39.5944,-122.0253,36,-0.761,2020-02-03
goodnow,43.96018,-74.20994,820,-0.488,2020-02-03
goodwater,39.22848,-92.11936,264,0.594,2020-02-03
goodwaterbau,39.23115,-92.15216,274,0.614,2020-02-03
grandteton,43.915017,-110.578036,2054,-0.565,2020-02-03
grca1pj,36.0241,-112.2211,1978,0.772,2020-02-03
greenridge1,39.6905,-78.4067,285,-0.694,2020-02-03
harvard,42.5378,-72.1715,340,0.432,2020-02-03
harvardbarn,42.53532,-72.1899,350,0.234,2020-02-03
harvardbarn2,42.53532,-72.1899,350,0.234,2020-02-03
harvardems2,42.5378,-72.1715,340,0.432,2020-02-03
harvardfarmnorth,42.520465,-72.182242,355,0.234,2020-02-03
harvardfarmsouth,42.522466,-72.182339,355,0.234,2020-02-03
harvardgarden,42.5291,-72.1863,335,0.234,2020-02-03
harvardhemlock,42.539,-72.18,355,0.234,2020-02-03
harvardhemlock2,42.539407,-72.177976,355,0.432,2020-02-03
harvardlph,42.542,-72.185,380,0.234,2020-02-03
hawbeckereddy,40.6608,-77.848849,310,-0.636,2020-02-03
hobcawclearcutlongleaf,33.3486,-79.232,4,0.33,2020-02-03
hobcawmaturelongleaf,33.3242,-79.2439,8,0.33,2020-02-03
homesteadsprings,37.2009,-92.9937,452,0.623,2020-02-03
howland1,45.2041,-68.7403,80,0.155,2020-02-03
howland2,45.2128,-68.7418,79,0.155,2020-02-03
hubbardbrook,43.9438,-71.701,253,0.03,2020-02-03
humnokericea,34.585192,-91.751684,61,0.592,2020-02-03
humnokericec,34.588853,-91.7516729,70,0.592,2020-02-03
huyckpreserveny,42.5266,-74.1587,478,0.338,2020-02-03
hwmo1,20.0212,-155.7331,585,-9999.0,2020-02-03
hwmo2,19.9766,-155.8298,12,-9999.0,2020-02-03
hwmo5,20.1117,-155.8151,635,-9999.0,2020-02-03
ibp,32.589,-106.847,1325,0.816,2020-02-03
imcrkfen,68.60583,-149.31101,900,-9999.0,2020-02-03
imcrkridge0,68.60681,-149.2958,951,-9999.0,2020-02-03
imcrkridge1,68.60681,-149.2958,951,-9999.0,2020-02-03
imcrktussock,68.60633,-149.30408,918,-9999.0,2020-02-03
jasperridge,37.402028,-122.22104,197,-0.61,2020-02-03
jerbajada,32.57992,-106.633793,1402,0.758,2020-02-03
jergrassland,32.5833,-106.8333,1331,0.816,2020-02-03
jernort,32.619,-106.788,1328,0.774,2020-02-03
jernovel,32.6335,-106.8334,1324,0.815,2020-02-03
jernwern,32.6271,-106.7387,1325,0.82,2020-02-03
jersand,32.515,-106.798,1363,0.815,2020-02-03
jershrubland,32.6502,-106.8334,1328,0.862,2020-02-03
junipersavannah,34.4254,-105.8615,1931,0.536,2020-02-03
kamuela,20.015008,-155.661326,850,-9999.0,2020-02-03
kamuela2,20.014959,-155.661139,830,-9999.0,2020-02-03
kansas,39.0561,-95.1907,333,0.49,2020-02-03
kelloggcorn,42.437536,-85.3225472,288,1.335,2020-02-03
kempnrs,45.83992,-89.67755,539,1.81,2020-02-03
kendall,31.73652,-109.94185,1529,1.514,2020-02-03
konza,39.0824,-96.5603,443,0.36,2020-02-03
laupahoehoe,19.9322,-155.2912,1145,-9999.0,2020-02-03
ldeocam,41.0039,-73.9053,121,0.011,2020-02-03
lostcreek,46.0827,-89.9792,480,1.561,2020-02-03
luckyhills,31.743896,-110.052023,1366,1.466,2020-02-03
macleish,42.4484,-72.6804,251,0.002,2020-02-03
macordway,44.8106,-93.0272,264,0.779,2020-02-03
mandanh5,46.775423,-100.95109,593,0.263,2020-02-03
mandani2,46.7614,-100.9257,590,0.226,2020-02-03
manilacotton,35.8872,-90.1371,73,0.416,2020-02-03
marena,36.06434,-97.21271,327,0.128,2020-02-03
mead1,41.1651,-96.4766,361,0.472,2020-02-03
mead2,41.1649,-96.4701,362,0.472,2020-02-03
mead3,41.1797,-96.4397,363,0.481,2020-02-03
meadpasture,41.1447,-96.4616,356,0.401,2020-02-03
meadpasturese,41.1447,-96.4616,356,0.401,2020-02-03
meadpasturesw,41.1447,-96.4616,356,0.401,2020-02-03
missouriozarks,38.7441,-92.2,219,0.774,2020-02-03
morganmonroe,39.3231,-86.4131,275,1.545,2020-02-03
morganmonroe2,39.3231,-86.4131,275,1.545,2020-02-03
nahuku,19.415187,-155.238383,1202,-9999.0,2020-02-03
nationalelkrefuge,43.488931,-110.737824,1899,-0.485,2020-02-03
ncssm,36.018446,-78.92075,175,0.358,2020-02-03
NEON.D01.BART.DP1.00033,44.063869,-71.287375,285,0.316,2020-02-03
NEON.D01.HARV.DP1.00033,42.536911,-72.17265,359,0.432,2020-02-03
NEON.D01.HOPB.DP1.20002,42.471786,-72.329627,203,-0.23,2020-02-03
NEON.D02.BLAN.DP1.00033,39.033698,-78.041788,162,-0.438,2020-02-03
NEON.D02.LEWI.DP1.20002,39.09564,-77.98322,152,-0.472,2020-02-03
NEON.D02.POSE.DP1.20002,38.89332,-78.14678,293,-0.232,2020-02-03
NEON.D02.SCBI.DP1.00033,38.892925,-78.139494,364,-0.294,2020-02-03
NEON.D02.SERC.DP1.00033,38.89008,-76.56001,30,-0.303,2020-02-03
NEON.D03.BARC.DP1.20002,29.676473,-82.009089,35,0.489,2020-02-03
NEON.D03.DSNY.DP1.00033,28.12505,-81.43619,22,-0.105,2020-02-03
NEON.D03.FLNT.DP1.20002,31.185424,-84.437403,27,-0.197,2020-02-03
NEON.D03.JERC.DP1.00033,31.194839,-84.468623,58,-0.201,2020-02-03
NEON.D03.OSBS.DP1.00033,29.689282,-81.993431,56,0.445,2020-02-03
NEON.D03.SUGG.DP1.20002,29.687054,-82.016171,28,0.445,2020-02-03
NEON.D04.CUPE.DP1.20002,18.11352,-66.98676,164,-9999.0,2020-02-03
NEON.D04.GUAN.DP1.00033,17.96955,-66.8687,136,-9999.0,2020-02-03
NEON.D04.GUIL.DP1.20002,18.1741,-66.79851,564,-9999.0,2020-02-03
NEON.D04.LAJA.DP1.00033,18.021261,-67.076889,22,-9999.0,2020-02-03
NEON.D05.CRAM.DP1.20002,46.21111,-89.47825,518,1.967,2020-02-03
NEON.D05.LIRO.DP1.20002,45.998269,-89.704767,495,1.848,2020-02-03
NEON.D05.STEI.DP1.00033,45.50894,-89.58637,476,1.517,2020-02-03
NEON.D05.TREE.DP1.00033,45.49373,-89.58572,474,1.517,2020-02-03
NEON.D05.UNDE.DP1.00033,46.23391,-89.537254,529,1.982,2020-02-03
NEON.D06.KING.DP1.20002,39.10506,-96.60336,339,0.362,2020-02-03
NEON.D06.KONA.DP1.00033,39.110446,-96.612935,443,0.362,2020-02-03
NEON.D06.KONZ.DP1.00033,39.10077,-96.56309,415,0.36,2020-02-03
NEON.D06.MCDI.DP1.20002,38.94428,-96.44197,376,0.538,2020-02-03
NEON.D06.UKFS.DP1.00033,39.040431,-95.19215,330,0.49,2020-02-03
NEON.D07.GRSM.DP1.00033,35.68896,-83.50195,589,0.804,2020-02-03
NEON.D07.LECO.DP1.20002,35.69043,-83.50379,578,0.804,2020-02-03
NEON.D07.MLBS.DP1.00033,37.378314,-80.524847,1177,-0.269,2020-02-03
NEON.D07.ORNL.DP1.00033,35.964128,-84.282588,351,1.144,2020-02-03
NEON.D07.WALK.DP1.20002,35.95947,-84.28041,274,1.109,2020-02-03
NEON.D08.BLWA.DP1.20002,32.541529,-87.798151,23,0.868,2020-02-03
NEON.D08.DELA.DP1.00033,32.541727,-87.803877,36,0.868,2020-02-03
NEON.D08.LENO.DP1.00033,31.85388,-88.16122,10,-0.063,2020-02-03
NEON.D08.MAYF.DP1.20002,32.959657,-87.408128,93,0.969,2020-02-03
NEON.D08.TALL.DP1.00033,32.95047,-87.393259,167,0.969,2020-02-03
NEON.D08.TOMB.DP1.20002,31.853431,-88.158872,10,-0.063,2020-02-03
NEON.D09.DCFS.DP1.00033,47.161647,-99.106556,574,1.245,2020-02-03
NEON.D09.NOGP.DP1.00033,46.76972,-100.91535,589,0.226,2020-02-03
NEON.D09.PRLA.DP1.20002,47.15909,-99.11388,563,1.184,2020-02-03
NEON.D09.PRPO.DP1.20002,47.12999,-99.250551,587,1.074,2020-02-03
NEON.D09.WOOD.DP1.00033,47.1282,-99.241334,585,1.074,2020-02-03
NEON.D10.ARIK.DP1.20002,39.758246,-102.447103,1188,-0.311,2020-02-03
NEON.D10.CPER.DP1.00033,40.81553,-104.7456,1600,0.99,2020-02-03
NEON.D10.HQTW.DP1.00033,40.016704,-105.245612,1601,0.0,2020-02-03
NEON.D10.RMNP.DP1.00033,40.275903,-105.545955,2751,-0.401,2020-02-03
NEON.D10.STER.DP1.00033,40.461894,-103.02929,1366,-0.286,2020-02-03
NEON.D11.BLUE.DP1.20002,34.444218,-96.624201,288,0.702,2020-02-03
NEON.D11.CLBJ.DP1.00033,33.40123,-97.57,279,0.441,2020-02-03
NEON.D11.OAES.DP1.00033,35.41059,-99.05879,520,-0.076,2020-02-03
NEON.D11.PRIN.DP1.20002,33.37859,-97.78226,255,0.089,2020-02-03
NEON.D12.BLDE.DP1.20002,44.95011,-110.58715,2035,-0.808,2020-02-03
NEON.D12.YELL.DP1.00033,44.95348,-110.53914,2130,-0.656,2020-02-03
NEON.D13.COMO.DP1.20002,40.03496,-105.54487,3036,-0.425,2020-02-03
NEON.D13.MOAB.DP1.00033,38.24833,-109.38827,1803,1.171,2020-02-03
NEON.D13.NIWO.DP1.00033,40.05425,-105.58237,3493,-0.464,2020-02-03
NEON.D13.WLOU.DP1.20002,39.891366,-105.915395,2920,-0.059,2020-02-03
NEON.D14.JORN.DP1.00033,32.59068,-106.84254,1321,0.816,2020-02-03
NEON.D14.SRER.DP1.00033,31.91068,-110.83549,999,1.078,2020-02-03
NEON.D14.SYCA.DP1.20002,33.749057,-111.506903,644,0.614,2020-02-03
NEON.D15.ONAQ.DP1.00033,40.177599,-112.452452,1655,0.071,2020-02-03
NEON.D15.REDB.DP1.20002,40.783934,-111.797887,1696,0.195,2020-02-03
NEON.D16.ABBY.DP1.00033,45.76243,-122.33033,390,0.135,2020-02-03
NEON.D16.MART.DP1.20002,45.791248,-121.931959,354,-0.28,2020-02-03
NEON.D16.MCRA.DP1.20002,44.259598,-122.165554,880,-0.608,2020-02-03
NEON.D16.WREF.DP1.00033,45.82049,-121.95191,368,-0.279,2020-02-03
NEON.D17.BIGC.DP1.20002,37.059719,-119.257549,1133,-0.601,2020-02-03
NEON.D17.SJER.DP1.00033,37.10878,-119.73228,398,-0.704,2020-02-03
NEON.D17.SOAP.DP1.00033,37.03337,-119.26219,1210,-0.628,2020-02-03
NEON.D17.TEAK.DP1.00033,37.00583,-119.00602,2149,-0.651,2020-02-03
NEON.D17.TECR.DP1.20002,36.955931,-119.027363,2053,-0.644,2020-02-03
NEON.D18.BARR.DP1.00033,71.28241,-156.61936,7,-9999.0,2020-02-03
NEON.D18.OKSR.DP1.20002,68.669753,-149.143018,773,-9999.0,2020-02-03
NEON.D18.TOOK.DP1.20002,68.629562,-149.610509,715,-9999.0,2020-02-03
NEON.D18.TOOL.DP1.00033,68.66109,-149.37047,827,-9999.0,2020-02-03
NEON.D19.BONA.DP1.00033,65.15401,-147.50258,233,-9999.0,2020-02-03
NEON.D19.CARI.DP1.20002,65.15306,-147.50246,229,-9999.0,2020-02-03
NEON.D19.DEJU.DP1.00033,63.88112,-145.75136,504,-9999.0,2020-02-03
NEON.D19.HEAL.DP1.00033,63.87569,-149.21334,409,-9999.0,2020-02-03
NEON.D20.PUUM.DP1.00033,19.55309,-155.31731,1683,-9999.0,2020-02-03
nevcansnk3a,39.0099,-114.3095,3063,0.354,2020-02-03
nevcanspg1a,38.9253,-114.4082,1792,0.232,2020-02-03
nevcanspg2a,38.8921,-114.3521,2203,0.31,2020-02-03
nevcanspg3a,38.8898,-114.3314,2820,0.312,2020-02-03
nevcanspg4a,38.9061,-114.3089,3360,0.312,2020-02-03
ninemileprairie,40.86801886,-96.82208066,381,0.857,2020-02-03
nist,39.139,-77.2125,100,-0.154,2020-02-03
niwot3,40.03286358,-105.5469702,3050,-0.425,2020-02-03
niwot5,40.03286358,-105.5469702,2993,-0.425,2020-02-03
northattleboroma,41.98369,-71.31056,60,-0.742,2020-02-03
northinletsaltmarsh,33.3455,-79.1957,1,0.241,2020-02-03
oakville,47.899334,-97.316139,268,1.642,2020-02-03
oregonMP,44.4523,-121.5574,1253,-0.644,2020-02-03
oregonYP,44.32384,-121.605993,977,-0.679,2020-02-03
oregonYPbud,44.3238,-121.606,977,-0.679,2020-02-03
othshardwood,44.934805,-68.6655,41,0.042,2020-02-03
othssoftwood,44.934527,-68.664888,41,0.042,2020-02-03
pace,37.9229,-78.2739,100,-0.323,2020-02-03
parkschoolbuffalo,42.9637,-78.7834,205,-0.31,2020-02-03
piedmontalpasture2,33.8875,-85.6935,238,0.531,2020-02-03
portal,31.9385,-109.0823,1330,1.514,2020-02-03
proctor,44.525,-72.866,403,-0.958,2020-02-03
readingma,42.5304,-71.1272,100,-0.374,2020-02-03
robinson,37.4671,-83.1576,483,1.309,2020-02-03
robinson2,37.4671,-83.1576,483,1.309,2020-02-03
rosemountcons,44.6946,-93.0578,283,0.83,2020-02-03
rosemountconv,44.691,-93.0576,283,0.83,2020-02-03
rosemountnprs,44.6781,-93.0723,274,0.855,2020-02-03
russellsage,32.456961,-91.974322,20,0.759,2020-02-03
sagehen,39.4315,-120.2398,1934,-0.507,2020-02-03
sagehen2,39.4307,-120.2407,1937,-0.507,2020-02-03
sagehen3,39.4311,-120.2405,1935,-0.507,2020-02-03
sanford,42.726777,-84.464482,268,1.769,2020-02-03
santacruz1,36.9741,-122.0308,11,0.051,2020-02-03
santacruz2,36.9741,-122.0308,11,0.051,2020-02-03
santaluciapreserve1,36.5265,-121.8682,500,0.095,2020-02-03
santaluciapreserve2,36.5265,-121.8682,500,0.095,2020-02-03
segaarboretum10,35.16209,-111.73151,2170,0.694,2020-02-03
segaarboretum2,35.16209,-111.73151,2170,0.694,2020-02-03
segaarboretum3,35.16209,-111.73151,2170,0.694,2020-02-03
segaarboretum4,35.16214,-111.73153,2170,0.694,2020-02-03
segaarboretum6,35.16209,-111.73151,2170,0.694,2020-02-03
segaarboretum9,35.16222,-111.73158,2170,0.694,2020-02-03
segaarboretumforest,35.1613,-111.7359,2173,0.694,2020-02-03
segaarboretummeadow,35.1621,-111.7316,2157,0.694,2020-02-03
segablackpoint,35.6814,-111.4754,1566,0.308,2020-02-03
segabluechute,35.5876,-111.9716,1930,0.779,2020-02-03
