site,lat,lon,elev,values,date
alligatorriver,35.7879,-75.9038,1,0.361,2011-01-03
arbutuslake,43.98207,-74.23322,535,0.173,2011-01-03
arbutuslakeinlet,43.99336,-74.24527,527,0.173,2011-01-03
archboldavir,27.176064,-81.21958,8,-0.37,2011-01-03
archboldavirx,27.166627,-81.219828,8,-0.37,2011-01-03
archboldbahia,27.1656,-81.216112,8,-0.37,2011-01-03
archboldpnot,27.187948,-81.200345,9,-0.37,2011-01-03
archboldpnotx,27.180677,-81.20068,9,-0.37,2011-01-03
arkansascornsoy,34.416,-91.6723,61,-1.755,2011-01-03
arsbrooks10,41.9749,-93.6905,312,1.306,2011-01-03
arsbrooks11,41.9744,-93.6937,313,1.306,2011-01-03
arscolesnorth,42.4884,-93.5225,356,0.638,2011-01-03
arscolessouth,42.4816,-93.5235,352,0.638,2011-01-03
arsgacp1,31.5109,-83.6179,96,-0.784,2011-01-03
arsgacp3,31.7563,-83.7516,139,-0.413,2011-01-03
arsgacp4,31.7093,-83.7287,127,-0.244,2011-01-03
arsgreatbasinltar098,43.1675,-116.7132,1426,0.031,2011-01-03
arsgreatbasinltar117,43.1432,-116.7357,1625,-0.084,2011-01-03
arsgreatbasinltar177,43.0645,-116.7484,2114,-0.074,2011-01-03
arsltarmdcr,39.0587,-75.8513,17,-0.033,2011-01-03
arsltarmdcrnatw,39.0575,-75.7531,16,-0.036,2011-01-03
arsltarmdcrprcw,39.0667,-75.7609,17,-0.036,2011-01-03
arsltarmdcrresw,39.0549,-75.7532,16,-0.036,2011-01-03
arsltarucbec1,40.7537,-78.0057,400,-1.024,2011-01-03
arsltarucbec2,40.7558,-77.9999,396,-1.024,2011-01-03
arsmnswanlake1,45.684508,-95.799703,370,0.572,2011-01-03
arsmorris1,45.6167,-96.1269,341,0.251,2011-01-03
arsmorris2,45.627,-96.127,338,0.251,2011-01-03
arsmorris3,45.6091,-96.1265,342,0.251,2011-01-03
arsope3ltar,39.0309,-76.8442,41,-0.1,2011-01-03
ashburnham,42.6029,-71.926,292,-0.27,2011-01-03
asuhighlands,36.2076,-81.7032,1016,-1.275,2011-01-03
austincary,29.738,-82.2188,44,-1.142,2011-01-03
barrow,71.28007453,-156.6091492,5,-9999.0,2011-01-03
bartlettir,44.0646,-71.2881,268,0.525,2011-01-03
bigtraillake,64.9194,-147.822,190,-9999.0,2011-01-03
bitterbrush001,48.154,-119.9456,667,0.76,2011-01-03
blackrockforest,41.3974,-74.0239,427,-0.174,2011-01-03
bnzblackspruce,64.6963,-148.3235,102,-9999.0,2011-01-03
bnzrichfen,64.70134,-148.31195,97,-9999.0,2011-01-03
bnzthermokarstbog,64.6955,-148.3208,104,-9999.0,2011-01-03
boglakepeatland,47.5051,-93.4893,416,-0.113,2011-01-03
bostoncommon,42.355912,-71.064145,10,0.181,2011-01-03
bostonu,42.35041,-71.10438,10,0.419,2011-01-03
bouldinalfalfa,38.0985,-121.4993,-5,1.07,2011-01-03
bouldincorn,38.109,-121.535,-5,1.083,2011-01-03
bozeman,45.783056,-110.777778,2332,1.005,2011-01-03
brackishimpoundment,33.2015,-79.2973,1,-1.193,2011-01-03
bullshoals,36.562833,-93.06663,260,-0.96,2011-01-03
burnssagebrush,43.4712,-119.6909,1398,0.613,2011-01-03
butte,45.95304,-112.47964,1682,0.69,2011-01-03
butterice,39.5793,-121.858,33,0.681,2011-01-03
cafboydnorthltar01,46.755104,-117.126052,795,0.176,2011-01-03
cafboydsouthltar01,46.751809,-117.128502,795,0.176,2011-01-03
cafcookeastltar01,46.78152,-117.0821,794,0.142,2011-01-03
cafcookwestltar01,46.784037,-117.09083,807,0.142,2011-01-03
caryinstitute,41.7839,-73.7341,127,-0.123,2011-01-03
centralredwoods1,38.632272,-123.301511,200,1.128,2011-01-03
centralredwoods2,38.632272,-123.301511,200,1.128,2011-01-03
cperagm,40.8402,-104.7672,1644,0.035,2011-01-03
cperheavy,40.8153,-104.7386,1652,0.425,2011-01-03
cpertgm,40.833,-104.76,1644,0.152,2011-01-03
cperuvb,40.8055764,-104.7558542,1641,0.152,2011-01-03
cuny,40.8162,-73.9507,42,-0.787,2011-01-03
doverdesaltmarsh,39.0888,-75.4368,0,-0.759,2011-01-03
downerwoods,43.07938,-87.88076,213,0.744,2011-01-03
dukehw,35.973583,-79.100371,400,-1.38,2011-01-03
ecb1,41.5348,-84.8068,275,-1.166,2011-01-03
ecb2,41.5321,-84.808,275,-1.166,2011-01-03
ecb4,41.1796,-83.0604,240,-0.994,2011-01-03
elverde,18.320654,-65.8199,312,-9999.0,2011-01-03
flagstaff,35.17961521,-111.6049032,6983,-0.289,2011-01-03
flagstaff2,35.179225,-111.604506,6983,-0.289,2011-01-03
flagstaffchimneysprings,35.257296,-111.678542,2250,-0.138,2011-01-03
forbes,39.232,-121.2972,360,0.924,2011-01-03
fortpaynealpasture1,34.3824,-85.6428,405,-1.105,2011-01-03
fortpaynealpasture2,34.3824,-85.6447,403,-1.105,2011-01-03
gcesapelo,31.4440444,-81.283528,0,-1.773,2011-01-03
gilberttract,38.0015,-121.6691,6,0.933,2011-01-03
glees,41.3644,-106.2394,3150,0.656,2011-01-03
glennorganicrice,39.6805,-122.0026,2,0.282,2011-01-03
glennrice,39.5944,-122.0253,36,0.378,2011-01-03
goodnow,43.96018,-74.20994,820,0.247,2011-01-03
goodwater,39.22848,-92.11936,264,1.126,2011-01-03
goodwaterbau,39.23115,-92.15216,274,1.195,2011-01-03
grandteton,43.915017,-110.578036,2054,0.253,2011-01-03
grca1pj,36.0241,-112.2211,1978,-0.194,2011-01-03
greenridge1,39.6905,-78.4067,285,-1.327,2011-01-03
harvard,42.5378,-72.1715,340,-1.357,2011-01-03
harvardbarn,42.53532,-72.1899,350,-1.42,2011-01-03
harvardbarn2,42.53532,-72.1899,350,-1.42,2011-01-03
harvardems2,42.5378,-72.1715,340,-1.357,2011-01-03
harvardfarmnorth,42.520465,-72.182242,355,-1.42,2011-01-03
harvardfarmsouth,42.522466,-72.182339,355,-1.42,2011-01-03
harvardgarden,42.5291,-72.1863,335,-1.42,2011-01-03
harvardhemlock,42.539,-72.18,355,-1.42,2011-01-03
harvardhemlock2,42.539407,-72.177976,355,-1.357,2011-01-03
harvardlph,42.542,-72.185,380,-1.42,2011-01-03
hawbeckereddy,40.6608,-77.848849,310,-1.11,2011-01-03
hobcawclearcutlongleaf,33.3486,-79.232,4,-0.816,2011-01-03
hobcawmaturelongleaf,33.3242,-79.2439,8,-0.816,2011-01-03
homesteadsprings,37.2009,-92.9937,452,0.545,2011-01-03
howland1,45.2041,-68.7403,80,-0.074,2011-01-03
howland2,45.2128,-68.7418,79,-0.074,2011-01-03
hubbardbrook,43.9438,-71.701,253,0.35,2011-01-03
humnokericea,34.585192,-91.751684,61,-1.456,2011-01-03
humnokericec,34.588853,-91.7516729,70,-1.456,2011-01-03
huyckpreserveny,42.5266,-74.1587,478,0.474,2011-01-03
hwmo1,20.0212,-155.7331,585,-9999.0,2011-01-03
hwmo2,19.9766,-155.8298,12,-9999.0,2011-01-03
hwmo5,20.1117,-155.8151,635,-9999.0,2011-01-03
ibp,32.589,-106.847,1325,-0.493,2011-01-03
imcrkfen,68.60583,-149.31101,900,-9999.0,2011-01-03
imcrkridge0,68.60681,-149.2958,951,-9999.0,2011-01-03
imcrkridge1,68.60681,-149.2958,951,-9999.0,2011-01-03
imcrktussock,68.60633,-149.30408,918,-9999.0,2011-01-03
jasperridge,37.402028,-122.22104,197,0.774,2011-01-03
jerbajada,32.57992,-106.633793,1402,-0.822,2011-01-03
jergrassland,32.5833,-106.8333,1331,-0.493,2011-01-03
jernort,32.619,-106.788,1328,-0.795,2011-01-03
jernovel,32.6335,-106.8334,1324,-0.595,2011-01-03
jernwern,32.6271,-106.7387,1325,-1.005,2011-01-03
jersand,32.515,-106.798,1363,-0.579,2011-01-03
jershrubland,32.6502,-106.8334,1328,-0.806,2011-01-03
junipersavannah,34.4254,-105.8615,1931,-0.787,2011-01-03
kamuela,20.015008,-155.661326,850,-9999.0,2011-01-03
kamuela2,20.014959,-155.661139,830,-9999.0,2011-01-03
kansas,39.0561,-95.1907,333,-0.145,2011-01-03
kelloggcorn,42.437536,-85.3225472,288,-0.789,2011-01-03
kempnrs,45.83992,-89.67755,539,0.465,2011-01-03
kendall,31.73652,-109.94185,1529,-0.732,2011-01-03
konza,39.0824,-96.5603,443,-0.346,2011-01-03
laupahoehoe,19.9322,-155.2912,1145,-9999.0,2011-01-03
ldeocam,41.0039,-73.9053,121,-0.678,2011-01-03
lostcreek,46.0827,-89.9792,480,0.662,2011-01-03
luckyhills,31.743896,-110.052023,1366,-0.832,2011-01-03
macleish,42.4484,-72.6804,251,-1.12,2011-01-03
macordway,44.8106,-93.0272,264,0.348,2011-01-03
mandanh5,46.775423,-100.95109,593,1.328,2011-01-03
mandani2,46.7614,-100.9257,590,1.312,2011-01-03
manilacotton,35.8872,-90.1371,73,-1.838,2011-01-03
marena,36.06434,-97.21271,327,-1.229,2011-01-03
mead1,41.1651,-96.4766,361,0.451,2011-01-03
mead2,41.1649,-96.4701,362,0.451,2011-01-03
mead3,41.1797,-96.4397,363,0.447,2011-01-03
meadpasture,41.1447,-96.4616,356,0.602,2011-01-03
meadpasturese,41.1447,-96.4616,356,0.602,2011-01-03
meadpasturesw,41.1447,-96.4616,356,0.602,2011-01-03
missouriozarks,38.7441,-92.2,219,0.61,2011-01-03
morganmonroe,39.3231,-86.4131,275,-1.245,2011-01-03
morganmonroe2,39.3231,-86.4131,275,-1.245,2011-01-03
nahuku,19.415187,-155.238383,1202,-9999.0,2011-01-03
nationalelkrefuge,43.488931,-110.737824,1899,0.355,2011-01-03
ncssm,36.018446,-78.92075,175,-0.941,2011-01-03
NEON.D01.BART.DP1.00033,44.063869,-71.287375,285,0.525,2011-01-03
NEON.D01.HARV.DP1.00033,42.536911,-72.17265,359,-1.357,2011-01-03
NEON.D01.HOPB.DP1.20002,42.471786,-72.329627,203,-1.317,2011-01-03
NEON.D02.BLAN.DP1.00033,39.033698,-78.041788,162,-0.804,2011-01-03
NEON.D02.LEWI.DP1.20002,39.09564,-77.98322,152,-1.041,2011-01-03
NEON.D02.POSE.DP1.20002,38.89332,-78.14678,293,-1.113,2011-01-03
NEON.D02.SCBI.DP1.00033,38.892925,-78.139494,364,-1.032,2011-01-03
NEON.D02.SERC.DP1.00033,38.89008,-76.56001,30,0.148,2011-01-03
NEON.D03.BARC.DP1.20002,29.676473,-82.009089,35,-1.265,2011-01-03
NEON.D03.DSNY.DP1.00033,28.12505,-81.43619,22,-0.034,2011-01-03
NEON.D03.FLNT.DP1.20002,31.185424,-84.437403,27,-1.148,2011-01-03
NEON.D03.JERC.DP1.00033,31.194839,-84.468623,58,-1.227,2011-01-03
NEON.D03.OSBS.DP1.00033,29.689282,-81.993431,56,-1.233,2011-01-03
NEON.D03.SUGG.DP1.20002,29.687054,-82.016171,28,-1.233,2011-01-03
NEON.D04.CUPE.DP1.20002,18.11352,-66.98676,164,-9999.0,2011-01-03
NEON.D04.GUAN.DP1.00033,17.96955,-66.8687,136,-9999.0,2011-01-03
NEON.D04.GUIL.DP1.20002,18.1741,-66.79851,564,-9999.0,2011-01-03
NEON.D04.LAJA.DP1.00033,18.021261,-67.076889,22,-9999.0,2011-01-03
NEON.D05.CRAM.DP1.20002,46.21111,-89.47825,518,0.569,2011-01-03
NEON.D05.LIRO.DP1.20002,45.998269,-89.704767,495,0.528,2011-01-03
NEON.D05.STEI.DP1.00033,45.50894,-89.58637,476,0.09,2011-01-03
NEON.D05.TREE.DP1.00033,45.49373,-89.58572,474,0.09,2011-01-03
NEON.D05.UNDE.DP1.00033,46.23391,-89.537254,529,0.481,2011-01-03
NEON.D06.KING.DP1.20002,39.10506,-96.60336,339,-0.334,2011-01-03
NEON.D06.KONA.DP1.00033,39.110446,-96.612935,443,-0.334,2011-01-03
NEON.D06.KONZ.DP1.00033,39.10077,-96.56309,415,-0.346,2011-01-03
NEON.D06.MCDI.DP1.20002,38.94428,-96.44197,376,-0.197,2011-01-03
NEON.D06.UKFS.DP1.00033,39.040431,-95.19215,330,-0.145,2011-01-03
NEON.D07.GRSM.DP1.00033,35.68896,-83.50195,589,-0.42,2011-01-03
NEON.D07.LECO.DP1.20002,35.69043,-83.50379,578,-0.42,2011-01-03
NEON.D07.MLBS.DP1.00033,37.378314,-80.524847,1177,-1.002,2011-01-03
NEON.D07.ORNL.DP1.00033,35.964128,-84.282588,351,-0.032,2011-01-03
NEON.D07.WALK.DP1.20002,35.95947,-84.28041,274,-0.037,2011-01-03
NEON.D08.BLWA.DP1.20002,32.541529,-87.798151,23,-0.429,2011-01-03
NEON.D08.DELA.DP1.00033,32.541727,-87.803877,36,-0.429,2011-01-03
NEON.D08.LENO.DP1.00033,31.85388,-88.16122,10,-1.255,2011-01-03
NEON.D08.MAYF.DP1.20002,32.959657,-87.408128,93,-0.631,2011-01-03
NEON.D08.TALL.DP1.00033,32.95047,-87.393259,167,-0.631,2011-01-03
NEON.D08.TOMB.DP1.20002,31.853431,-88.158872,10,-1.255,2011-01-03
NEON.D09.DCFS.DP1.00033,47.161647,-99.106556,574,0.655,2011-01-03
NEON.D09.NOGP.DP1.00033,46.76972,-100.91535,589,1.312,2011-01-03
NEON.D09.PRLA.DP1.20002,47.15909,-99.11388,563,0.557,2011-01-03
NEON.D09.PRPO.DP1.20002,47.12999,-99.250551,587,0.568,2011-01-03
NEON.D09.WOOD.DP1.00033,47.1282,-99.241334,585,0.568,2011-01-03
NEON.D10.ARIK.DP1.20002,39.758246,-102.447103,1188,-0.567,2011-01-03
NEON.D10.CPER.DP1.00033,40.81553,-104.7456,1600,0.152,2011-01-03
NEON.D10.HQTW.DP1.00033,40.016704,-105.245612,1601,-1.052,2011-01-03
NEON.D10.RMNP.DP1.00033,40.275903,-105.545955,2751,-0.578,2011-01-03
NEON.D10.STER.DP1.00033,40.461894,-103.02929,1366,-0.723,2011-01-03
NEON.D11.BLUE.DP1.20002,34.444218,-96.624201,288,-0.833,2011-01-03
NEON.D11.CLBJ.DP1.00033,33.40123,-97.57,279,0.095,2011-01-03
NEON.D11.OAES.DP1.00033,35.41059,-99.05879,520,-1.397,2011-01-03
NEON.D11.PRIN.DP1.20002,33.37859,-97.78226,255,-0.315,2011-01-03
NEON.D12.BLDE.DP1.20002,44.95011,-110.58715,2035,-0.81,2011-01-03
NEON.D12.YELL.DP1.00033,44.95348,-110.53914,2130,-0.684,2011-01-03
NEON.D13.COMO.DP1.20002,40.03496,-105.54487,3036,-0.991,2011-01-03
NEON.D13.MOAB.DP1.00033,38.24833,-109.38827,1803,-0.325,2011-01-03
NEON.D13.NIWO.DP1.00033,40.05425,-105.58237,3493,-0.741,2011-01-03
NEON.D13.WLOU.DP1.20002,39.891366,-105.915395,2920,-0.943,2011-01-03
NEON.D14.JORN.DP1.00033,32.59068,-106.84254,1321,-0.493,2011-01-03
NEON.D14.SRER.DP1.00033,31.91068,-110.83549,999,-0.727,2011-01-03
NEON.D14.SYCA.DP1.20002,33.749057,-111.506903,644,-0.338,2011-01-03
NEON.D15.ONAQ.DP1.00033,40.177599,-112.452452,1655,0.072,2011-01-03
NEON.D15.REDB.DP1.20002,40.783934,-111.797887,1696,0.775,2011-01-03
NEON.D16.ABBY.DP1.00033,45.76243,-122.33033,390,0.662,2011-01-03
NEON.D16.MART.DP1.20002,45.791248,-121.931959,354,0.847,2011-01-03
NEON.D16.MCRA.DP1.20002,44.259598,-122.165554,880,1.113,2011-01-03
NEON.D16.WREF.DP1.00033,45.82049,-121.95191,368,0.794,2011-01-03
NEON.D17.BIGC.DP1.20002,37.059719,-119.257549,1133,1.539,2011-01-03
NEON.D17.SJER.DP1.00033,37.10878,-119.73228,398,1.783,2011-01-03
NEON.D17.SOAP.DP1.00033,37.03337,-119.26219,1210,1.6,2011-01-03
NEON.D17.TEAK.DP1.00033,37.00583,-119.00602,2149,1.539,2011-01-03
NEON.D17.TECR.DP1.20002,36.955931,-119.027363,2053,1.437,2011-01-03
NEON.D18.BARR.DP1.00033,71.28241,-156.61936,7,-9999.0,2011-01-03
NEON.D18.OKSR.DP1.20002,68.669753,-149.143018,773,-9999.0,2011-01-03
NEON.D18.TOOK.DP1.20002,68.629562,-149.610509,715,-9999.0,2011-01-03
NEON.D18.TOOL.DP1.00033,68.66109,-149.37047,827,-9999.0,2011-01-03
NEON.D19.BONA.DP1.00033,65.15401,-147.50258,233,-9999.0,2011-01-03
NEON.D19.CARI.DP1.20002,65.15306,-147.50246,229,-9999.0,2011-01-03
NEON.D19.DEJU.DP1.00033,63.88112,-145.75136,504,-9999.0,2011-01-03
NEON.D19.HEAL.DP1.00033,63.87569,-149.21334,409,-9999.0,2011-01-03
NEON.D20.PUUM.DP1.00033,19.55309,-155.31731,1683,-9999.0,2011-01-03
nevcansnk3a,39.0099,-114.3095,3063,1.077,2011-01-03
nevcanspg1a,38.9253,-114.4082,1792,0.425,2011-01-03
nevcanspg2a,38.8921,-114.3521,2203,0.584,2011-01-03
nevcanspg3a,38.8898,-114.3314,2820,0.954,2011-01-03
nevcanspg4a,38.9061,-114.3089,3360,0.954,2011-01-03
ninemileprairie,40.86801886,-96.82208066,381,0.091,2011-01-03
nist,39.139,-77.2125,100,-0.262,2011-01-03
niwot3,40.03286358,-105.5469702,3050,-0.991,2011-01-03
niwot5,40.03286358,-105.5469702,2993,-0.991,2011-01-03
northattleboroma,41.98369,-71.31056,60,0.187,2011-01-03
northinletsaltmarsh,33.3455,-79.1957,1,-1.233,2011-01-03
oakville,47.899334,-97.316139,268,0.318,2011-01-03
oregonMP,44.4523,-121.5574,1253,0.518,2011-01-03
oregonYP,44.32384,-121.605993,977,0.318,2011-01-03
oregonYPbud,44.3238,-121.606,977,0.318,2011-01-03
othshardwood,44.934805,-68.6655,41,-0.297,2011-01-03
othssoftwood,44.934527,-68.664888,41,-0.297,2011-01-03
pace,37.9229,-78.2739,100,-1.168,2011-01-03
parkschoolbuffalo,42.9637,-78.7834,205,0.084,2011-01-03
piedmontalpasture2,33.8875,-85.6935,238,-0.974,2011-01-03
portal,31.9385,-109.0823,1330,-0.506,2011-01-03
proctor,44.525,-72.866,403,0.566,2011-01-03
readingma,42.5304,-71.1272,100,-0.336,2011-01-03
robinson,37.4671,-83.1576,483,-0.706,2011-01-03
robinson2,37.4671,-83.1576,483,-0.706,2011-01-03
rosemountcons,44.6946,-93.0578,283,1.046,2011-01-03
rosemountconv,44.691,-93.0576,283,1.046,2011-01-03
rosemountnprs,44.6781,-93.0723,274,1.274,2011-01-03
russellsage,32.456961,-91.974322,20,-2.121,2011-01-03
sagehen,39.4315,-120.2398,1934,0.895,2011-01-03
sagehen2,39.4307,-120.2407,1937,0.895,2011-01-03
sagehen3,39.4311,-120.2405,1935,0.895,2011-01-03
sanford,42.726777,-84.464482,268,-1.249,2011-01-03
santacruz1,36.9741,-122.0308,11,0.824,2011-01-03
santacruz2,36.9741,-122.0308,11,0.824,2011-01-03
santaluciapreserve1,36.5265,-121.8682,500,0.918,2011-01-03
santaluciapreserve2,36.5265,-121.8682,500,0.918,2011-01-03
segaarboretum10,35.16209,-111.73151,2170,-0.108,2011-01-03
segaarboretum2,35.16209,-111.73151,2170,-0.108,2011-01-03
segaarboretum3,35.16209,-111.73151,2170,-0.108,2011-01-03
segaarboretum4,35.16214,-111.73153,2170,-0.108,2011-01-03
segaarboretum6,35.16209,-111.73151,2170,-0.108,2011-01-03
segaarboretum9,35.16222,-111.73158,2170,-0.108,2011-01-03
segaarboretumforest,35.1613,-111.7359,2173,-0.108,2011-01-03
segaarboretummeadow,35.1621,-111.7316,2157,-0.108,2011-01-03
segablackpoint,35.6814,-111.4754,1566,-0.428,2011-01-03
segabluechute,35.5876,-111.9716,1930,-0.354,2011-01-03
segabluechute1,35.58759,-111.97115,1931,-0.354,2011-01-03
segabluechute2,35.58759,-111.97115,1931,-0.354,2011-01-03
segabluechute4,35.58759,-111.9716,1931,-0.354,2011-01-03
segabluechute6,35.58759,-111.97115,1931,-0.354,2011-01-03
segabluechute7,35.58759,-111.97115,1931,-0.354,2011-01-03
segabluechute8,35.58759,-111.97115,1931,-0.354,2011-01-03
segabradshaw,34.9109,-111.9285,1402,-0.332,2011-01-03
segahartprairie,35.3536,-111.7324,2585,-0.182,2011-01-03
segalcr,35.7231,-111.321,1275,-0.39,2011-01-03
segalcr2,35.7069,-111.36,1495,-0.435,2011-01-03
segalittlemountain,36.5865,-112.3634,2276,-0.227,2011-01-03
segasoapcreek,36.751,-111.716,1233,-0.065,2011-01-03
segawhitepockets,36.6081,-112.4082,2057,-0.188,2011-01-03
sevilletagrass,34.360444,-106.700186,1600,-0.998,2011-01-03
sevilletanewgrass,34.358,-106.6799,1603,-1.09,2011-01-03
sevilletashrub,34.334956,-106.744469,1603,-0.948,2011-01-03
sevMRME10L,34.3438,-106.7269,1604,-1.047,2011-01-03
sevMRME11C,34.3438,-106.7268,1604,-1.047,2011-01-03
sevMRME1S,34.3442,-106.7272,1604,-1.047,2011-01-03
sevpjrm12,34.38615,-106.52621,1905,-0.928,2011-01-03
sevpjrm13,34.38631,-106.52791,1914,-0.928,2011-01-03
shalehillsczo,40.6658,-77.9041,310,-1.047,2011-01-03
shenandoah,38.6167,-78.35,1037,-1.071,2011-01-03
silverton,44.9986,-122.6948,347,1.163,2011-01-03
siwetland,38.0369,-121.7546,-5,0.81,2011-01-03
slatefloodplain,38.9094,-107.0282,2725,-0.355,2011-01-03
snodgrass1,38.92619636,-106.9714376,3023,-0.516,2011-01-03
snodgrass2,38.92619636,-106.9714376,3023,-0.516,2011-01-03
snodgrass3,38.92839978,-106.9781196,3141,-0.516,2011-01-03
snodgrass4,38.92839978,-106.9781196,3141,-0.516,2011-01-03
snodgrass5,38.92744789,-106.9785209,3152,-0.516,2011-01-03
snodgrass6,38.92744789,-106.9785209,3152,-0.516,2011-01-03
snodgrass7,38.93142134,-106.9852388,3363,-0.358,2011-01-03
snodgrass8,38.93142134,-106.9852388,3363,-0.358,2011-01-03
southerngreatplains,36.6058,-97.4888,314,-0.816,2011-01-03
springfieldma,42.135162,-72.585972,56,-1.084,2011-01-03
spruceA0EMI,47.5049,-93.4541,413,-0.048,2011-01-03
spruceA0EMT,47.5049,-93.4541,418,-0.048,2011-01-03
spruceA0P07,47.50493,-93.45314,413,-0.048,2011-01-03
spruceA0P07SH,47.50493,-93.45314,413,-0.048,2011-01-03
spruceA0P21,47.50625,-93.45275,413,-0.048,2011-01-03
spruceA0P21SH,47.50625,-93.45275,413,-0.048,2011-01-03
srg,31.7894,-110.8276,1281,-0.54,2011-01-03
srm,31.8214,-110.8661,1116,-0.683,2011-01-03
statenrice1,38.1235,-121.549,-5,1.084,2011-01-03
stjones,39.088222,-75.43725,2,-0.759,2011-01-03
sweetbriar,37.57341,-79.08482,242,-0.869,2011-01-03
sweetbriarclearcut,37.5753,-79.0872,242,-0.869,2011-01-03
sweetbriargrass,37.5605,-79.0884,240,-0.869,2011-01-03
sylvania,46.242,-89.348,540,0.623,2011-01-03
templefieldstation1,40.1667,-75.1894,105,-0.809,2011-01-03
tfforest,43.1086,-70.9505,23,0.535,2011-01-03
tidmarshplymouth,41.9157,-70.5754,9,-0.375,2011-01-03
tonzi,38.43091667,-120.9658861,177,1.056,2011-01-03
townsenddemeadow,39.3917,-75.6281,11,-0.36,2011-01-03
tsubiology,36.1671,-86.8295,164,0.885,2011-01-03
tsubiology2,36.1171,-86.8295,100,0.749,2011-01-03
tuckerprairie,38.9491,-91.9952,274,0.951,2011-01-03
twodafo,29.1658,-95.829,16,0.196,2011-01-03
tworfaa,31.4777,-96.8882,167,-1.01,2011-01-03
tworfpr,31.4802,-96.8826,162,-0.909,2011-01-03
tworfta,31.4693,-96.8864,173,-1.01,2011-01-03
twosfpr,30.6176,-97.2938,157,-1.079,2011-01-03
ucnrsanzaborrego,33.2401,-116.3886,214,0.563,2011-01-03
ufona,27.3836,-81.950856,25,0.194,2011-01-03
uiefmaize2,40.0628,-88.1961,224,-0.562,2011-01-03
uiefmiscanthus2,40.0628,-88.1984,221,-0.562,2011-01-03
uiefprairie2,40.0637,-88.1973,224,-0.562,2011-01-03
uiefsorghum,40.0065,-88.2032,224,-0.471,2011-01-03
uiefswitchgrass2,40.0637,-88.1973,224,-0.562,2011-01-03
umichbiological,45.55984,-84.71382,230,0.539,2011-01-03
umichbiological2,45.5625,-84.6976,240,0.738,2011-01-03
unca,35.5951,-82.5515,650,-0.625,2011-01-03
usgseros,43.7343,-96.6234,448,1.094,2011-01-03
usmpj,34.43845,-106.2543606,2126,-1.015,2011-01-03
usof5,35.7297,-90.0406,70,-1.805,2011-01-03
usof6,35.7333,-90.0403,70,-1.805,2011-01-03
uwmfieldsta,43.38709,-88.0229,265,-0.249,2011-01-03
vaira,38.41328056,-120.9506361,129,1.056,2011-01-03
vallesburnedconifer,35.8884,-106.5321,3043,-1.2,2011-01-03
vallesmixedconifer,35.9192,-106.6142,2752,-1.123,2011-01-03
vallesponderosapine,35.864,-106.5964,2501,-1.095,2011-01-03
waahila,21.3017,-157.8152,55,-9999.0,2011-01-03
warrenwilson,35.6069,-82.4421,2198,-0.671,2011-01-03
willamettepoplar,44.1368,-123.1823,112,0.868,2011-01-03
willowcreek,45.805986,-90.07912,521,0.688,2011-01-03
windriver,45.8212833,-121.9520833,371,0.794,2011-01-03
windriverunderstory,45.8212833,-121.9520833,371,0.794,2011-01-03
wolfesneckfarm,43.8305,-70.0715,16,0.375,2011-01-03
worcester,42.2697,-71.8428,185,-0.603,2011-01-03
alligatorriver,35.7879,-75.9038,1,0.141,2011-01-10
arbutuslake,43.98207,-74.23322,535,0.197,2011-01-10
arbutuslakeinlet,43.99336,-74.24527,527,0.197,2011-01-10
archboldavir,27.176064,-81.21958,8,-0.383,2011-01-10
archboldavirx,27.166627,-81.219828,8,-0.383,2011-01-10
archboldbahia,27.1656,-81.216112,8,-0.383,2011-01-10
archboldpnot,27.187948,-81.200345,9,-0.383,2011-01-10
archboldpnotx,27.180677,-81.20068,9,-0.383,2011-01-10
arkansascornsoy,34.416,-91.6723,61,-1.841,2011-01-10
arsbrooks10,41.9749,-93.6905,312,1.301,2011-01-10
arsbrooks11,41.9744,-93.6937,313,1.301,2011-01-10
arscolesnorth,42.4884,-93.5225,356,0.631,2011-01-10
arscolessouth,42.4816,-93.5235,352,0.631,2011-01-10
arsgacp1,31.5109,-83.6179,96,-0.803,2011-01-10
arsgacp3,31.7563,-83.7516,139,-0.47,2011-01-10
arsgacp4,31.7093,-83.7287,127,-0.281,2011-01-10
arsgreatbasinltar098,43.1675,-116.7132,1426,-0.058,2011-01-10
arsgreatbasinltar117,43.1432,-116.7357,1625,-0.183,2011-01-10
arsgreatbasinltar177,43.0645,-116.7484,2114,-0.183,2011-01-10
arsltarmdcr,39.0587,-75.8513,17,-0.215,2011-01-10
arsltarmdcrnatw,39.0575,-75.7531,16,-0.2,2011-01-10
arsltarmdcrprcw,39.0667,-75.7609,17,-0.2,2011-01-10
arsltarmdcrresw,39.0549,-75.7532,16,-0.2,2011-01-10
arsltarucbec1,40.7537,-78.0057,400,-1.076,2011-01-10
arsltarucbec2,40.7558,-77.9999,396,-1.076,2011-01-10
arsmnswanlake1,45.684508,-95.799703,370,0.586,2011-01-10
arsmorris1,45.6167,-96.1269,341,0.298,2011-01-10
arsmorris2,45.627,-96.127,338,0.298,2011-01-10
arsmorris3,45.6091,-96.1265,342,0.298,2011-01-10
arsope3ltar,39.0309,-76.8442,41,-0.302,2011-01-10
ashburnham,42.6029,-71.926,292,-0.27,2011-01-10
asuhighlands,36.2076,-81.7032,1016,-1.452,2011-01-10
austincary,29.738,-82.2188,44,-1.114,2011-01-10
barrow,71.28007453,-156.6091492,5,-9999.0,2011-01-10
bartlettir,44.0646,-71.2881,268,0.559,2011-01-10
bigtraillake,64.9194,-147.822,190,-9999.0,2011-01-10
bitterbrush001,48.154,-119.9456,667,0.632,2011-01-10
blackrockforest,41.3974,-74.0239,427,-0.147,2011-01-10
bnzblackspruce,64.6963,-148.3235,102,-9999.0,2011-01-10
bnzrichfen,64.70134,-148.31195,97,-9999.0,2011-01-10
bnzthermokarstbog,64.6955,-148.3208,104,-9999.0,2011-01-10
boglakepeatland,47.5051,-93.4893,416,-0.089,2011-01-10
bostoncommon,42.355912,-71.064145,10,0.192,2011-01-10
bostonu,42.35041,-71.10438,10,0.432,2011-01-10
bouldinalfalfa,38.0985,-121.4993,-5,1.048,2011-01-10
bouldincorn,38.109,-121.535,-5,1.062,2011-01-10
bozeman,45.783056,-110.777778,2332,0.96,2011-01-10
brackishimpoundment,33.2015,-79.2973,1,-1.352,2011-01-10
bullshoals,36.562833,-93.06663,260,-1.07,2011-01-10
burnssagebrush,43.4712,-119.6909,1398,0.545,2011-01-10
butte,45.95304,-112.47964,1682,0.684,2011-01-10
butterice,39.5793,-121.858,33,0.586,2011-01-10
cafboydnorthltar01,46.755104,-117.126052,795,0.086,2011-01-10
cafboydsouthltar01,46.751809,-117.128502,795,0.086,2011-01-10
cafcookeastltar01,46.78152,-117.0821,794,0.03,2011-01-10
cafcookwestltar01,46.784037,-117.09083,807,0.03,2011-01-10
caryinstitute,41.7839,-73.7341,127,-0.116,2011-01-10
centralredwoods1,38.632272,-123.301511,200,0.957,2011-01-10
centralredwoods2,38.632272,-123.301511,200,0.957,2011-01-10
cperagm,40.8402,-104.7672,1644,0.029,2011-01-10
cperheavy,40.8153,-104.7386,1652,0.426,2011-01-10
cpertgm,40.833,-104.76,1644,0.148,2011-01-10
cperuvb,40.8055764,-104.7558542,1641,0.148,2011-01-10
cuny,40.8162,-73.9507,42,-0.792,2011-01-10
doverdesaltmarsh,39.0888,-75.4368,0,-0.902,2011-01-10
downerwoods,43.07938,-87.88076,213,0.646,2011-01-10
dukehw,35.973583,-79.100371,400,-1.578,2011-01-10
ecb1,41.5348,-84.8068,275,-1.149,2011-01-10
ecb2,41.5321,-84.808,275,-1.149,2011-01-10
ecb4,41.1796,-83.0604,240,-1.007,2011-01-10
elverde,18.320654,-65.8199,312,-9999.0,2011-01-10
flagstaff,35.17961521,-111.6049032,6983,-0.281,2011-01-10
flagstaff2,35.179225,-111.604506,6983,-0.281,2011-01-10
flagstaffchimneysprings,35.257296,-111.678542,2250,-0.133,2011-01-10
forbes,39.232,-121.2972,360,0.891,2011-01-10
fortpaynealpasture1,34.3824,-85.6428,405,-1.094,2011-01-10
fortpaynealpasture2,34.3824,-85.6447,403,-1.094,2011-01-10
gcesapelo,31.4440444,-81.283528,0,-1.756,2011-01-10
gilberttract,38.0015,-121.6691,6,0.926,2011-01-10
glees,41.3644,-106.2394,3150,0.615,2011-01-10
glennorganicrice,39.6805,-122.0026,2,0.181,2011-01-10
glennrice,39.5944,-122.0253,36,0.3,2011-01-10
goodnow,43.96018,-74.20994,820,0.271,2011-01-10
goodwater,39.22848,-92.11936,264,1.062,2011-01-10
goodwaterbau,39.23115,-92.15216,274,1.131,2011-01-10
grandteton,43.915017,-110.578036,2054,0.186,2011-01-10
grca1pj,36.0241,-112.2211,1978,-0.198,2011-01-10
greenridge1,39.6905,-78.4067,285,-1.434,2011-01-10
harvard,42.5378,-72.1715,340,-1.355,2011-01-10
harvardbarn,42.53532,-72.1899,350,-1.417,2011-01-10
harvardbarn2,42.53532,-72.1899,350,-1.417,2011-01-10
harvardems2,42.5378,-72.1715,340,-1.355,2011-01-10
harvardfarmnorth,42.520465,-72.182242,355,-1.417,2011-01-10
harvardfarmsouth,42.522466,-72.182339,355,-1.417,2011-01-10
harvardgarden,42.5291,-72.1863,335,-1.417,2011-01-10
harvardhemlock,42.539,-72.18,355,-1.417,2011-01-10
harvardhemlock2,42.539407,-72.177976,355,-1.355,2011-01-10
harvardlph,42.542,-72.185,380,-1.417,2011-01-10
hawbeckereddy,40.6608,-77.848849,310,-1.171,2011-01-10
hobcawclearcutlongleaf,33.3486,-79.232,4,-0.964,2011-01-10
hobcawmaturelongleaf,33.3242,-79.2439,8,-0.964,2011-01-10
homesteadsprings,37.2009,-92.9937,452,0.379,2011-01-10
howland1,45.2041,-68.7403,80,-0.025,2011-01-10
howland2,45.2128,-68.7418,79,-0.025,2011-01-10
hubbardbrook,43.9438,-71.701,253,0.396,2011-01-10
humnokericea,34.585192,-91.751684,61,-1.573,2011-01-10
humnokericec,34.588853,-91.7516729,70,-1.573,2011-01-10
huyckpreserveny,42.5266,-74.1587,478,0.469,2011-01-10
hwmo1,20.0212,-155.7331,585,-9999.0,2011-01-10
hwmo2,19.9766,-155.8298,12,-9999.0,2011-01-10
hwmo5,20.1117,-155.8151,635,-9999.0,2011-01-10
ibp,32.589,-106.847,1325,-0.678,2011-01-10
imcrkfen,68.60583,-149.31101,900,-9999.0,2011-01-10
imcrkridge0,68.60681,-149.2958,951,-9999.0,2011-01-10
imcrkridge1,68.60681,-149.2958,951,-9999.0,2011-01-10
imcrktussock,68.60633,-149.30408,918,-9999.0,2011-01-10
jasperridge,37.402028,-122.22104,197,0.64,2011-01-10
jerbajada,32.57992,-106.633793,1402,-0.928,2011-01-10
jergrassland,32.5833,-106.8333,1331,-0.678,2011-01-10
jernort,32.619,-106.788,1328,-0.954,2011-01-10
jernovel,32.6335,-106.8334,1324,-0.775,2011-01-10
jernwern,32.6271,-106.7387,1325,-1.095,2011-01-10
jersand,32.515,-106.798,1363,-0.742,2011-01-10
jershrubland,32.6502,-106.8334,1328,-0.97,2011-01-10
junipersavannah,34.4254,-105.8615,1931,-0.92,2011-01-10
kamuela,20.015008,-155.661326,850,-9999.0,2011-01-10
kamuela2,20.014959,-155.661139,830,-9999.0,2011-01-10
kansas,39.0561,-95.1907,333,-0.209,2011-01-10
kelloggcorn,42.437536,-85.3225472,288,-0.793,2011-01-10
kempnrs,45.83992,-89.67755,539,0.467,2011-01-10
kendall,31.73652,-109.94185,1529,-0.855,2011-01-10
konza,39.0824,-96.5603,443,-0.406,2011-01-10
laupahoehoe,19.9322,-155.2912,1145,-9999.0,2011-01-10
ldeocam,41.0039,-73.9053,121,-0.681,2011-01-10
lostcreek,46.0827,-89.9792,480,0.677,2011-01-10
luckyhills,31.743896,-110.052023,1366,-0.947,2011-01-10
macleish,42.4484,-72.6804,251,-1.112,2011-01-10
macordway,44.8106,-93.0272,264,0.304,2011-01-10
mandanh5,46.775423,-100.95109,593,1.275,2011-01-10
mandani2,46.7614,-100.9257,590,1.259,2011-01-10
manilacotton,35.8872,-90.1371,73,-1.88,2011-01-10
marena,36.06434,-97.21271,327,-1.325,2011-01-10
mead1,41.1651,-96.4766,361,0.392,2011-01-10
mead2,41.1649,-96.4701,362,0.392,2011-01-10
mead3,41.1797,-96.4397,363,0.388,2011-01-10
meadpasture,41.1447,-96.4616,356,0.547,2011-01-10
meadpasturese,41.1447,-96.4616,356,0.547,2011-01-10
meadpasturesw,41.1447,-96.4616,356,0.547,2011-01-10
missouriozarks,38.7441,-92.2,219,0.549,2011-01-10
morganmonroe,39.3231,-86.4131,275,-1.229,2011-01-10
morganmonroe2,39.3231,-86.4131,275,-1.229,2011-01-10
nahuku,19.415187,-155.238383,1202,-9999.0,2011-01-10
nationalelkrefuge,43.488931,-110.737824,1899,0.302,2011-01-10
ncssm,36.018446,-78.92075,175,-1.187,2011-01-10
NEON.D01.BART.DP1.00033,44.063869,-71.287375,285,0.559,2011-01-10
NEON.D01.HARV.DP1.00033,42.536911,-72.17265,359,-1.355,2011-01-10
NEON.D01.HOPB.DP1.20002,42.471786,-72.329627,203,-1.32,2011-01-10
NEON.D02.BLAN.DP1.00033,39.033698,-78.041788,162,-1.016,2011-01-10
NEON.D02.LEWI.DP1.20002,39.09564,-77.98322,152,-1.23,2011-01-10
NEON.D02.POSE.DP1.20002,38.89332,-78.14678,293,-1.297,2011-01-10
NEON.D02.SCBI.DP1.00033,38.892925,-78.139494,364,-1.224,2011-01-10
NEON.D02.SERC.DP1.00033,38.89008,-76.56001,30,-0.038,2011-01-10
NEON.D03.BARC.DP1.20002,29.676473,-82.009089,35,-1.238,2011-01-10
NEON.D03.DSNY.DP1.00033,28.12505,-81.43619,22,-0.203,2011-01-10
NEON.D03.FLNT.DP1.20002,31.185424,-84.437403,27,-1.159,2011-01-10
NEON.D03.JERC.DP1.00033,31.194839,-84.468623,58,-1.239,2011-01-10
NEON.D03.OSBS.DP1.00033,29.689282,-81.993431,56,-1.211,2011-01-10
NEON.D03.SUGG.DP1.20002,29.687054,-82.016171,28,-1.211,2011-01-10
NEON.D04.CUPE.DP1.20002,18.11352,-66.98676,164,-9999.0,2011-01-10
NEON.D04.GUAN.DP1.00033,17.96955,-66.8687,136,-9999.0,2011-01-10
NEON.D04.GUIL.DP1.20002,18.1741,-66.79851,564,-9999.0,2011-01-10
NEON.D04.LAJA.DP1.00033,18.021261,-67.076889,22,-9999.0,2011-01-10
NEON.D05.CRAM.DP1.20002,46.21111,-89.47825,518,0.559,2011-01-10
NEON.D05.LIRO.DP1.20002,45.998269,-89.704767,495,0.532,2011-01-10
NEON.D05.STEI.DP1.00033,45.50894,-89.58637,476,0.093,2011-01-10
NEON.D05.TREE.DP1.00033,45.49373,-89.58572,474,0.093,2011-01-10
NEON.D05.UNDE.DP1.00033,46.23391,-89.537254,529,0.475,2011-01-10
NEON.D06.KING.DP1.20002,39.10506,-96.60336,339,-0.393,2011-01-10
NEON.D06.KONA.DP1.00033,39.110446,-96.612935,443,-0.393,2011-01-10
NEON.D06.KONZ.DP1.00033,39.10077,-96.56309,415,-0.406,2011-01-10
NEON.D06.MCDI.DP1.20002,38.94428,-96.44197,376,-0.26,2011-01-10
NEON.D06.UKFS.DP1.00033,39.040431,-95.19215,330,-0.209,2011-01-10
NEON.D07.GRSM.DP1.00033,35.68896,-83.50195,589,-0.506,2011-01-10
NEON.D07.LECO.DP1.20002,35.69043,-83.50379,578,-0.506,2011-01-10
NEON.D07.MLBS.DP1.00033,37.378314,-80.524847,1177,-1.204,2011-01-10
NEON.D07.ORNL.DP1.00033,35.964128,-84.282588,351,-0.046,2011-01-10
NEON.D07.WALK.DP1.20002,35.95947,-84.28041,274,-0.056,2011-01-10
NEON.D08.BLWA.DP1.20002,32.541529,-87.798151,23,-0.514,2011-01-10
NEON.D08.DELA.DP1.00033,32.541727,-87.803877,36,-0.514,2011-01-10
NEON.D08.LENO.DP1.00033,31.85388,-88.16122,10,-1.379,2011-01-10
NEON.D08.MAYF.DP1.20002,32.959657,-87.408128,93,-0.691,2011-01-10
NEON.D08.TALL.DP1.00033,32.95047,-87.393259,167,-0.691,2011-01-10
NEON.D08.TOMB.DP1.20002,31.853431,-88.158872,10,-1.379,2011-01-10
NEON.D09.DCFS.DP1.00033,47.161647,-99.106556,574,0.648,2011-01-10
NEON.D09.NOGP.DP1.00033,46.76972,-100.91535,589,1.259,2011-01-10
NEON.D09.PRLA.DP1.20002,47.15909,-99.11388,563,0.552,2011-01-10
NEON.D09.PRPO.DP1.20002,47.12999,-99.250551,587,0.559,2011-01-10
NEON.D09.WOOD.DP1.00033,47.1282,-99.241334,585,0.559,2011-01-10
NEON.D10.ARIK.DP1.20002,39.758246,-102.447103,1188,-0.572,2011-01-10
NEON.D10.CPER.DP1.00033,40.81553,-104.7456,1600,0.148,2011-01-10
NEON.D10.HQTW.DP1.00033,40.016704,-105.245612,1601,-1.029,2011-01-10
NEON.D10.RMNP.DP1.00033,40.275903,-105.545955,2751,-0.536,2011-01-10
NEON.D10.STER.DP1.00033,40.461894,-103.02929,1366,-0.726,2011-01-10
NEON.D11.BLUE.DP1.20002,34.444218,-96.624201,288,-0.923,2011-01-10
NEON.D11.CLBJ.DP1.00033,33.40123,-97.57,279,0.004,2011-01-10
NEON.D11.OAES.DP1.00033,35.41059,-99.05879,520,-1.471,2011-01-10
NEON.D11.PRIN.DP1.20002,33.37859,-97.78226,255,-0.398,2011-01-10
NEON.D12.BLDE.DP1.20002,44.95011,-110.58715,2035,-0.791,2011-01-10
NEON.D12.YELL.DP1.00033,44.95348,-110.53914,2130,-0.675,2011-01-10
NEON.D13.COMO.DP1.20002,40.03496,-105.54487,3036,-0.926,2011-01-10
NEON.D13.MOAB.DP1.00033,38.24833,-109.38827,1803,-0.343,2011-01-10
NEON.D13.NIWO.DP1.00033,40.05425,-105.58237,3493,-0.659,2011-01-10
NEON.D13.WLOU.DP1.20002,39.891366,-105.915395,2920,-0.885,2011-01-10
NEON.D14.JORN.DP1.00033,32.59068,-106.84254,1321,-0.678,2011-01-10
NEON.D14.SRER.DP1.00033,31.91068,-110.83549,999,-0.782,2011-01-10
NEON.D14.SYCA.DP1.20002,33.749057,-111.506903,644,-0.352,2011-01-10
NEON.D15.ONAQ.DP1.00033,40.177599,-112.452452,1655,0.087,2011-01-10
NEON.D15.REDB.DP1.20002,40.783934,-111.797887,1696,0.747,2011-01-10
NEON.D16.ABBY.DP1.00033,45.76243,-122.33033,390,0.504,2011-01-10
NEON.D16.MART.DP1.20002,45.791248,-121.931959,354,0.679,2011-01-10
NEON.D16.MCRA.DP1.20002,44.259598,-122.165554,880,0.947,2011-01-10
NEON.D16.WREF.DP1.00033,45.82049,-121.95191,368,0.632,2011-01-10
NEON.D17.BIGC.DP1.20002,37.059719,-119.257549,1133,1.53,2011-01-10
NEON.D17.SJER.DP1.00033,37.10878,-119.73228,398,1.84,2011-01-10
NEON.D17.SOAP.DP1.00033,37.03337,-119.26219,1210,1.607,2011-01-10
NEON.D17.TEAK.DP1.00033,37.00583,-119.00602,2149,1.526,2011-01-10
NEON.D17.TECR.DP1.20002,36.955931,-119.027363,2053,1.44,2011-01-10
NEON.D18.BARR.DP1.00033,71.28241,-156.61936,7,-9999.0,2011-01-10
NEON.D18.OKSR.DP1.20002,68.669753,-149.143018,773,-9999.0,2011-01-10
NEON.D18.TOOK.DP1.20002,68.629562,-149.610509,715,-9999.0,2011-01-10
NEON.D18.TOOL.DP1.00033,68.66109,-149.37047,827,-9999.0,2011-01-10
NEON.D19.BONA.DP1.00033,65.15401,-147.50258,233,-9999.0,2011-01-10
NEON.D19.CARI.DP1.20002,65.15306,-147.50246,229,-9999.0,2011-01-10
NEON.D19.DEJU.DP1.00033,63.88112,-145.75136,504,-9999.0,2011-01-10
NEON.D19.HEAL.DP1.00033,63.87569,-149.21334,409,-9999.0,2011-01-10
NEON.D20.PUUM.DP1.00033,19.55309,-155.31731,1683,-9999.0,2011-01-10
nevcansnk3a,39.0099,-114.3095,3063,1.053,2011-01-10
nevcanspg1a,38.9253,-114.4082,1792,0.409,2011-01-10
nevcanspg2a,38.8921,-114.3521,2203,0.566,2011-01-10
nevcanspg3a,38.8898,-114.3314,2820,0.921,2011-01-10
nevcanspg4a,38.9061,-114.3089,3360,0.921,2011-01-10
ninemileprairie,40.86801886,-96.82208066,381,0.018,2011-01-10
nist,39.139,-77.2125,100,-0.466,2011-01-10
niwot3,40.03286358,-105.5469702,3050,-0.926,2011-01-10
niwot5,40.03286358,-105.5469702,2993,-0.926,2011-01-10
northattleboroma,41.98369,-71.31056,60,0.211,2011-01-10
northinletsaltmarsh,33.3455,-79.1957,1,-1.358,2011-01-10
oakville,47.899334,-97.316139,268,0.34,2011-01-10
oregonMP,44.4523,-121.5574,1253,0.401,2011-01-10
oregonYP,44.32384,-121.605993,977,0.194,2011-01-10
oregonYPbud,44.3238,-121.606,977,0.194,2011-01-10
othshardwood,44.934805,-68.6655,41,-0.248,2011-01-10
othssoftwood,44.934527,-68.664888,41,-0.248,2011-01-10
pace,37.9229,-78.2739,100,-1.343,2011-01-10
parkschoolbuffalo,42.9637,-78.7834,205,0.151,2011-01-10
piedmontalpasture2,33.8875,-85.6935,238,-1.003,2011-01-10
portal,31.9385,-109.0823,1330,-0.629,2011-01-10
proctor,44.525,-72.866,403,0.545,2011-01-10
readingma,42.5304,-71.1272,100,-0.352,2011-01-10
robinson,37.4671,-83.1576,483,-0.793,2011-01-10
robinson2,37.4671,-83.1576,483,-0.793,2011-01-10
rosemountcons,44.6946,-93.0578,283,1.001,2011-01-10
rosemountconv,44.691,-93.0576,283,1.001,2011-01-10
rosemountnprs,44.6781,-93.0723,274,1.245,2011-01-10
russellsage,32.456961,-91.974322,20,-2.066,2011-01-10
sagehen,39.4315,-120.2398,1934,0.794,2011-01-10
sagehen2,39.4307,-120.2407,1937,0.794,2011-01-10
sagehen3,39.4311,-120.2405,1935,0.794,2011-01-10
sanford,42.726777,-84.464482,268,-1.251,2011-01-10
santacruz1,36.9741,-122.0308,11,0.678,2011-01-10
santacruz2,36.9741,-122.0308,11,0.678,2011-01-10
santaluciapreserve1,36.5265,-121.8682,500,0.959,2011-01-10
santaluciapreserve2,36.5265,-121.8682,500,0.959,2011-01-10
segaarboretum10,35.16209,-111.73151,2170,-0.099,2011-01-10
segaarboretum2,35.16209,-111.73151,2170,-0.099,2011-01-10
segaarboretum3,35.16209,-111.73151,2170,-0.099,2011-01-10
segaarboretum4,35.16214,-111.73153,2170,-0.099,2011-01-10
segaarboretum6,35.16209,-111.73151,2170,-0.099,2011-01-10
segaarboretum9,35.16222,-111.73158,2170,-0.099,2011-01-10
segaarboretumforest,35.1613,-111.7359,2173,-0.099,2011-01-10
segaarboretummeadow,35.1621,-111.7316,2157,-0.099,2011-01-10
segablackpoint,35.6814,-111.4754,1566,-0.406,2011-01-10
segabluechute,35.5876,-111.9716,1930,-0.341,2011-01-10
segabluechute1,35.58759,-111.97115,1931,-0.341,2011-01-10
segabluechute2,35.58759,-111.97115,1931,-0.341,2011-01-10
segabluechute4,35.58759,-111.9716,1931,-0.341,2011-01-10
segabluechute6,35.58759,-111.97115,1931,-0.341,2011-01-10
segabluechute7,35.58759,-111.97115,1931,-0.341,2011-01-10
segabluechute8,35.58759,-111.97115,1931,-0.341,2011-01-10
segabradshaw,34.9109,-111.9285,1402,-0.326,2011-01-10
segahartprairie,35.3536,-111.7324,2585,-0.168,2011-01-10
segalcr,35.7231,-111.321,1275,-0.374,2011-01-10
segalcr2,35.7069,-111.36,1495,-0.418,2011-01-10
segalittlemountain,36.5865,-112.3634,2276,-0.248,2011-01-10
segasoapcreek,36.751,-111.716,1233,-0.05,2011-01-10
segawhitepockets,36.6081,-112.4082,2057,-0.209,2011-01-10
sevilletagrass,34.360444,-106.700186,1600,-1.071,2011-01-10
sevilletanewgrass,34.358,-106.6799,1603,-1.164,2011-01-10
sevilletashrub,34.334956,-106.744469,1603,-1.027,2011-01-10
sevMRME10L,34.3438,-106.7269,1604,-1.127,2011-01-10
sevMRME11C,34.3438,-106.7268,1604,-1.127,2011-01-10
sevMRME1S,34.3442,-106.7272,1604,-1.127,2011-01-10
sevpjrm12,34.38615,-106.52621,1905,-1.027,2011-01-10
sevpjrm13,34.38631,-106.52791,1914,-1.027,2011-01-10
shalehillsczo,40.6658,-77.9041,310,-1.105,2011-01-10
shenandoah,38.6167,-78.35,1037,-1.248,2011-01-10
silverton,44.9986,-122.6948,347,1.002,2011-01-10
siwetland,38.0369,-121.7546,-5,0.803,2011-01-10
slatefloodplain,38.9094,-107.0282,2725,-0.335,2011-01-10
snodgrass1,38.92619636,-106.9714376,3023,-0.51,2011-01-10
snodgrass2,38.92619636,-106.9714376,3023,-0.51,2011-01-10
snodgrass3,38.92839978,-106.9781196,3141,-0.51,2011-01-10
snodgrass4,38.92839978,-106.9781196,3141,-0.51,2011-01-10
snodgrass5,38.92744789,-106.9785209,3152,-0.51,2011-01-10
snodgrass6,38.92744789,-106.9785209,3152,-0.51,2011-01-10
snodgrass7,38.93142134,-106.9852388,3363,-0.344,2011-01-10
snodgrass8,38.93142134,-106.9852388,3363,-0.344,2011-01-10
southerngreatplains,36.6058,-97.4888,314,-0.895,2011-01-10
springfieldma,42.135162,-72.585972,56,-1.091,2011-01-10
spruceA0EMI,47.5049,-93.4541,413,-0.027,2011-01-10
spruceA0EMT,47.5049,-93.4541,418,-0.027,2011-01-10
spruceA0P07,47.50493,-93.45314,413,-0.027,2011-01-10
spruceA0P07SH,47.50493,-93.45314,413,-0.027,2011-01-10
spruceA0P21,47.50625,-93.45275,413,-0.027,2011-01-10
spruceA0P21SH,47.50625,-93.45275,413,-0.027,2011-01-10
srg,31.7894,-110.8276,1281,-0.613,2011-01-10
srm,31.8214,-110.8661,1116,-0.733,2011-01-10
statenrice1,38.1235,-121.549,-5,1.058,2011-01-10
stjones,39.088222,-75.43725,2,-0.902,2011-01-10
sweetbriar,37.57341,-79.08482,242,-1.064,2011-01-10
sweetbriarclearcut,37.5753,-79.0872,242,-1.064,2011-01-10
sweetbriargrass,37.5605,-79.0884,240,-1.064,2011-01-10
sylvania,46.242,-89.348,540,0.617,2011-01-10
templefieldstation1,40.1667,-75.1894,105,-0.862,2011-01-10
tfforest,43.1086,-70.9505,23,0.547,2011-01-10
tidmarshplymouth,41.9157,-70.5754,9,-0.369,2011-01-10
tonzi,38.43091667,-120.9658861,177,1.05,2011-01-10
townsenddemeadow,39.3917,-75.6281,11,-0.516,2011-01-10
tsubiology,36.1671,-86.8295,164,0.748,2011-01-10
tsubiology2,36.1171,-86.8295,100,0.631,2011-01-10
tuckerprairie,38.9491,-91.9952,274,0.903,2011-01-10
twodafo,29.1658,-95.829,16,0.052,2011-01-10
tworfaa,31.4777,-96.8882,167,-1.193,2011-01-10
tworfpr,31.4802,-96.8826,162,-1.099,2011-01-10
tworfta,31.4693,-96.8864,173,-1.193,2011-01-10
twosfpr,30.6176,-97.2938,157,-1.21,2011-01-10
ucnrsanzaborrego,33.2401,-116.3886,214,0.569,2011-01-10
ufona,27.3836,-81.950856,25,0.146,2011-01-10
uiefmaize2,40.0628,-88.1961,224,-0.615,2011-01-10
uiefmiscanthus2,40.0628,-88.1984,221,-0.615,2011-01-10
uiefprairie2,40.0637,-88.1973,224,-0.615,2011-01-10
uiefsorghum,40.0065,-88.2032,224,-0.528,2011-01-10
uiefswitchgrass2,40.0637,-88.1973,224,-0.615,2011-01-10
umichbiological,45.55984,-84.71382,230,0.569,2011-01-10
umichbiological2,45.5625,-84.6976,240,0.776,2011-01-10
unca,35.5951,-82.5515,650,-0.853,2011-01-10
usgseros,43.7343,-96.6234,448,1.068,2011-01-10
usmpj,34.43845,-106.2543606,2126,-1.136,2011-01-10
usof5,35.7297,-90.0406,70,-1.825,2011-01-10
usof6,35.7333,-90.0403,70,-1.825,2011-01-10
uwmfieldsta,43.38709,-88.0229,265,-0.309,2011-01-10
vaira,38.41328056,-120.9506361,129,1.05,2011-01-10
vallesburnedconifer,35.8884,-106.5321,3043,-1.202,2011-01-10
vallesmixedconifer,35.9192,-106.6142,2752,-1.125,2011-01-10
vallesponderosapine,35.864,-106.5964,2501,-1.093,2011-01-10
waahila,21.3017,-157.8152,55,-9999.0,2011-01-10
warrenwilson,35.6069,-82.4421,2198,-0.862,2011-01-10
willamettepoplar,44.1368,-123.1823,112,0.665,2011-01-10
willowcreek,45.805986,-90.07912,521,0.69,2011-01-10
windriver,45.8212833,-121.9520833,371,0.632,2011-01-10
windriverunderstory,45.8212833,-121.9520833,371,0.632,2011-01-10
wolfesneckfarm,43.8305,-70.0715,16,0.407,2011-01-10
worcester,42.2697,-71.8428,185,-0.6,2011-01-10
alligatorriver,35.7879,-75.9038,1,-0.033,2011-01-17
arbutuslake,43.98207,-74.23322,535,0.31,2011-01-17
arbutuslakeinlet,43.99336,-74.24527,527,0.31,2011-01-17
archboldavir,27.176064,-81.21958,8,-0.539,2011-01-17
archboldavirx,27.166627,-81.219828,8,-0.539,2011-01-17
archboldbahia,27.1656,-81.216112,8,-0.539,2011-01-17
archboldpnot,27.187948,-81.200345,9,-0.539,2011-01-17
archboldpnotx,27.180677,-81.20068,9,-0.539,2011-01-17
arkansascornsoy,34.416,-91.6723,61,-1.915,2011-01-17
arsbrooks10,41.9749,-93.6905,312,1.294,2011-01-17
arsbrooks11,41.9744,-93.6937,313,1.294,2011-01-17
arscolesnorth,42.4884,-93.5225,356,0.618,2011-01-17
arscolessouth,42.4816,-93.5235,352,0.618,2011-01-17
arsgacp1,31.5109,-83.6179,96,-0.921,2011-01-17
arsgacp3,31.7563,-83.7516,139,-0.543,2011-01-17
arsgacp4,31.7093,-83.7287,127,-0.368,2011-01-17
arsgreatbasinltar098,43.1675,-116.7132,1426,-0.019,2011-01-17
arsgreatbasinltar117,43.1432,-116.7357,1625,-0.144,2011-01-17
arsgreatbasinltar177,43.0645,-116.7484,2114,-0.138,2011-01-17
arsltarmdcr,39.0587,-75.8513,17,-0.511,2011-01-17
arsltarmdcrnatw,39.0575,-75.7531,16,-0.469,2011-01-17
arsltarmdcrprcw,39.0667,-75.7609,17,-0.469,2011-01-17
arsltarmdcrresw,39.0549,-75.7532,16,-0.469,2011-01-17
arsltarucbec1,40.7537,-78.0057,400,-1.184,2011-01-17
arsltarucbec2,40.7558,-77.9999,396,-1.184,2011-01-17
arsmnswanlake1,45.684508,-95.799703,370,0.568,2011-01-17
arsmorris1,45.6167,-96.1269,341,0.32,2011-01-17
arsmorris2,45.627,-96.127,338,0.32,2011-01-17
arsmorris3,45.6091,-96.1265,342,0.32,2011-01-17
arsope3ltar,39.0309,-76.8442,41,-0.599,2011-01-17
ashburnham,42.6029,-71.926,292,-0.063,2011-01-17
asuhighlands,36.2076,-81.7032,1016,-1.487,2011-01-17
austincary,29.738,-82.2188,44,-1.258,2011-01-17
barrow,71.28007453,-156.6091492,5,-9999.0,2011-01-17
bartlettir,44.0646,-71.2881,268,0.721,2011-01-17
bigtraillake,64.9194,-147.822,190,-9999.0,2011-01-17
bitterbrush001,48.154,-119.9456,667,0.632,2011-01-17
blackrockforest,41.3974,-74.0239,427,-0.091,2011-01-17
bnzblackspruce,64.6963,-148.3235,102,-9999.0,2011-01-17
bnzrichfen,64.70134,-148.31195,97,-9999.0,2011-01-17
bnzthermokarstbog,64.6955,-148.3208,104,-9999.0,2011-01-17
boglakepeatland,47.5051,-93.4893,416,-0.03,2011-01-17
bostoncommon,42.355912,-71.064145,10,0.505,2011-01-17
bostonu,42.35041,-71.10438,10,0.747,2011-01-17
bouldinalfalfa,38.0985,-121.4993,-5,1.077,2011-01-17
bouldincorn,38.109,-121.535,-5,1.089,2011-01-17
bozeman,45.783056,-110.777778,2332,0.934,2011-01-17
brackishimpoundment,33.2015,-79.2973,1,-1.401,2011-01-17
bullshoals,36.562833,-93.06663,260,-1.102,2011-01-17
burnssagebrush,43.4712,-119.6909,1398,0.56,2011-01-17
butte,45.95304,-112.47964,1682,0.688,2011-01-17
butterice,39.5793,-121.858,33,0.579,2011-01-17
cafboydnorthltar01,46.755104,-117.126052,795,0.122,2011-01-17
cafboydsouthltar01,46.751809,-117.128502,795,0.122,2011-01-17
cafcookeastltar01,46.78152,-117.0821,794,0.067,2011-01-17
cafcookwestltar01,46.784037,-117.09083,807,0.067,2011-01-17
caryinstitute,41.7839,-73.7341,127,-0.024,2011-01-17
centralredwoods1,38.632272,-123.301511,200,0.96,2011-01-17
centralredwoods2,38.632272,-123.301511,200,0.96,2011-01-17
cperagm,40.8402,-104.7672,1644,0.036,2011-01-17
cperheavy,40.8153,-104.7386,1652,0.416,2011-01-17
cpertgm,40.833,-104.76,1644,0.141,2011-01-17
cperuvb,40.8055764,-104.7558542,1641,0.141,2011-01-17
cuny,40.8162,-73.9507,42,-0.827,2011-01-17
doverdesaltmarsh,39.0888,-75.4368,0,-1.073,2011-01-17
downerwoods,43.07938,-87.88076,213,0.557,2011-01-17
dukehw,35.973583,-79.100371,400,-1.638,2011-01-17
ecb1,41.5348,-84.8068,275,-1.183,2011-01-17
ecb2,41.5321,-84.808,275,-1.183,2011-01-17
ecb4,41.1796,-83.0604,240,-1.027,2011-01-17
elverde,18.320654,-65.8199,312,-9999.0,2011-01-17
flagstaff,35.17961521,-111.6049032,6983,-0.413,2011-01-17
flagstaff2,35.179225,-111.604506,6983,-0.413,2011-01-17
flagstaffchimneysprings,35.257296,-111.678542,2250,-0.29,2011-01-17
forbes,39.232,-121.2972,360,0.951,2011-01-17
fortpaynealpasture1,34.3824,-85.6428,405,-1.153,2011-01-17
fortpaynealpasture2,34.3824,-85.6447,403,-1.153,2011-01-17
gcesapelo,31.4440444,-81.283528,0,-1.776,2011-01-17
gilberttract,38.0015,-121.6691,6,0.961,2011-01-17
glees,41.3644,-106.2394,3150,0.594,2011-01-17
glennorganicrice,39.6805,-122.0026,2,0.158,2011-01-17
glennrice,39.5944,-122.0253,36,0.283,2011-01-17
goodnow,43.96018,-74.20994,820,0.381,2011-01-17
goodwater,39.22848,-92.11936,264,1.072,2011-01-17
goodwaterbau,39.23115,-92.15216,274,1.142,2011-01-17
grandteton,43.915017,-110.578036,2054,0.197,2011-01-17
grca1pj,36.0241,-112.2211,1978,-0.296,2011-01-17
greenridge1,39.6905,-78.4067,285,-1.609,2011-01-17
harvard,42.5378,-72.1715,340,-1.233,2011-01-17
harvardbarn,42.53532,-72.1899,350,-1.299,2011-01-17
harvardbarn2,42.53532,-72.1899,350,-1.299,2011-01-17
harvardems2,42.5378,-72.1715,340,-1.233,2011-01-17
harvardfarmnorth,42.520465,-72.182242,355,-1.299,2011-01-17
harvardfarmsouth,42.522466,-72.182339,355,-1.299,2011-01-17
harvardgarden,42.5291,-72.1863,335,-1.299,2011-01-17
harvardhemlock,42.539,-72.18,355,-1.299,2011-01-17
harvardhemlock2,42.539407,-72.177976,355,-1.233,2011-01-17
harvardlph,42.542,-72.185,380,-1.299,2011-01-17
hawbeckereddy,40.6608,-77.848849,310,-1.273,2011-01-17
hobcawclearcutlongleaf,33.3486,-79.232,4,-0.999,2011-01-17
hobcawmaturelongleaf,33.3242,-79.2439,8,-0.999,2011-01-17
homesteadsprings,37.2009,-92.9937,452,0.351,2011-01-17
howland1,45.2041,-68.7403,80,0.063,2011-01-17
howland2,45.2128,-68.7418,79,0.063,2011-01-17
hubbardbrook,43.9438,-71.701,253,0.574,2011-01-17
humnokericea,34.585192,-91.751684,61,-1.676,2011-01-17
humnokericec,34.588853,-91.7516729,70,-1.676,2011-01-17
huyckpreserveny,42.5266,-74.1587,478,0.535,2011-01-17
hwmo1,20.0212,-155.7331,585,-9999.0,2011-01-17
hwmo2,19.9766,-155.8298,12,-9999.0,2011-01-17
hwmo5,20.1117,-155.8151,635,-9999.0,2011-01-17
ibp,32.589,-106.847,1325,-0.709,2011-01-17
imcrkfen,68.60583,-149.31101,900,-9999.0,2011-01-17
imcrkridge0,68.60681,-149.2958,951,-9999.0,2011-01-17
imcrkridge1,68.60681,-149.2958,951,-9999.0,2011-01-17
imcrktussock,68.60633,-149.30408,918,-9999.0,2011-01-17
jasperridge,37.402028,-122.22104,197,0.661,2011-01-17
jerbajada,32.57992,-106.633793,1402,-0.957,2011-01-17
jergrassland,32.5833,-106.8333,1331,-0.709,2011-01-17
jernort,32.619,-106.788,1328,-0.98,2011-01-17
jernovel,32.6335,-106.8334,1324,-0.808,2011-01-17
jernwern,32.6271,-106.7387,1325,-1.119,2011-01-17
jersand,32.515,-106.798,1363,-0.773,2011-01-17
jershrubland,32.6502,-106.8334,1328,-0.99,2011-01-17
junipersavannah,34.4254,-105.8615,1931,-0.953,2011-01-17
kamuela,20.015008,-155.661326,850,-9999.0,2011-01-17
kamuela2,20.014959,-155.661139,830,-9999.0,2011-01-17
kansas,39.0561,-95.1907,333,-0.188,2011-01-17
kelloggcorn,42.437536,-85.3225472,288,-0.856,2011-01-17
kempnrs,45.83992,-89.67755,539,0.502,2011-01-17
kendall,31.73652,-109.94185,1529,-0.902,2011-01-17
konza,39.0824,-96.5603,443,-0.338,2011-01-17
laupahoehoe,19.9322,-155.2912,1145,-9999.0,2011-01-17
ldeocam,41.0039,-73.9053,121,-0.737,2011-01-17
lostcreek,46.0827,-89.9792,480,0.708,2011-01-17
luckyhills,31.743896,-110.052023,1366,-0.99,2011-01-17
macleish,42.4484,-72.6804,251,-0.948,2011-01-17
macordway,44.8106,-93.0272,264,0.27,2011-01-17
mandanh5,46.775423,-100.95109,593,1.261,2011-01-17
mandani2,46.7614,-100.9257,590,1.241,2011-01-17
manilacotton,35.8872,-90.1371,73,-1.91,2011-01-17
marena,36.06434,-97.21271,327,-1.324,2011-01-17
mead1,41.1651,-96.4766,361,0.428,2011-01-17
mead2,41.1649,-96.4701,362,0.428,2011-01-17
mead3,41.1797,-96.4397,363,0.423,2011-01-17
meadpasture,41.1447,-96.4616,356,0.578,2011-01-17
meadpasturese,41.1447,-96.4616,356,0.578,2011-01-17
meadpasturesw,41.1447,-96.4616,356,0.578,2011-01-17
missouriozarks,38.7441,-92.2,219,0.556,2011-01-17
morganmonroe,39.3231,-86.4131,275,-1.246,2011-01-17
morganmonroe2,39.3231,-86.4131,275,-1.246,2011-01-17
nahuku,19.415187,-155.238383,1202,-9999.0,2011-01-17
nationalelkrefuge,43.488931,-110.737824,1899,0.305,2011-01-17
ncssm,36.018446,-78.92075,175,-1.348,2011-01-17
NEON.D01.BART.DP1.00033,44.063869,-71.287375,285,0.721,2011-01-17
NEON.D01.HARV.DP1.00033,42.536911,-72.17265,359,-1.233,2011-01-17
NEON.D01.HOPB.DP1.20002,42.471786,-72.329627,203,-1.182,2011-01-17
NEON.D02.BLAN.DP1.00033,39.033698,-78.041788,162,-1.252,2011-01-17
NEON.D02.LEWI.DP1.20002,39.09564,-77.98322,152,-1.445,2011-01-17
NEON.D02.POSE.DP1.20002,38.89332,-78.14678,293,-1.507,2011-01-17
NEON.D02.SCBI.DP1.00033,38.892925,-78.139494,364,-1.432,2011-01-17
NEON.D02.SERC.DP1.00033,38.89008,-76.56001,30,-0.341,2011-01-17
NEON.D03.BARC.DP1.20002,29.676473,-82.009089,35,-1.378,2011-01-17
NEON.D03.DSNY.DP1.00033,28.12505,-81.43619,22,-0.355,2011-01-17
NEON.D03.FLNT.DP1.20002,31.185424,-84.437403,27,-1.257,2011-01-17
NEON.D03.JERC.DP1.00033,31.194839,-84.468623,58,-1.331,2011-01-17
NEON.D03.OSBS.DP1.00033,29.689282,-81.993431,56,-1.342,2011-01-17
NEON.D03.SUGG.DP1.20002,29.687054,-82.016171,28,-1.342,2011-01-17
NEON.D04.CUPE.DP1.20002,18.11352,-66.98676,164,-9999.0,2011-01-17
NEON.D04.GUAN.DP1.00033,17.96955,-66.8687,136,-9999.0,2011-01-17
NEON.D04.GUIL.DP1.20002,18.1741,-66.79851,564,-9999.0,2011-01-17
NEON.D04.LAJA.DP1.00033,18.021261,-67.076889,22,-9999.0,2011-01-17
NEON.D05.CRAM.DP1.20002,46.21111,-89.47825,518,0.606,2011-01-17
NEON.D05.LIRO.DP1.20002,45.998269,-89.704767,495,0.576,2011-01-17
NEON.D05.STEI.DP1.00033,45.50894,-89.58637,476,0.126,2011-01-17
NEON.D05.TREE.DP1.00033,45.49373,-89.58572,474,0.126,2011-01-17
NEON.D05.UNDE.DP1.00033,46.23391,-89.537254,529,0.532,2011-01-17
NEON.D06.KING.DP1.20002,39.10506,-96.60336,339,-0.326,2011-01-17
NEON.D06.KONA.DP1.00033,39.110446,-96.612935,443,-0.326,2011-01-17
NEON.D06.KONZ.DP1.00033,39.10077,-96.56309,415,-0.338,2011-01-17
NEON.D06.MCDI.DP1.20002,38.94428,-96.44197,376,-0.191,2011-01-17
NEON.D06.UKFS.DP1.00033,39.040431,-95.19215,330,-0.188,2011-01-17
NEON.D07.GRSM.DP1.00033,35.68896,-83.50195,589,-0.545,2011-01-17
NEON.D07.LECO.DP1.20002,35.69043,-83.50379,578,-0.545,2011-01-17
NEON.D07.MLBS.DP1.00033,37.378314,-80.524847,1177,-1.332,2011-01-17
NEON.D07.ORNL.DP1.00033,35.964128,-84.282588,351,-0.119,2011-01-17
NEON.D07.WALK.DP1.20002,35.95947,-84.28041,274,-0.126,2011-01-17
NEON.D08.BLWA.DP1.20002,32.541529,-87.798151,23,-0.537,2011-01-17
NEON.D08.DELA.DP1.00033,32.541727,-87.803877,36,-0.537,2011-01-17
NEON.D08.LENO.DP1.00033,31.85388,-88.16122,10,-1.443,2011-01-17
NEON.D08.MAYF.DP1.20002,32.959657,-87.408128,93,-0.74,2011-01-17
NEON.D08.TALL.DP1.00033,32.95047,-87.393259,167,-0.74,2011-01-17
NEON.D08.TOMB.DP1.20002,31.853431,-88.158872,10,-1.443,2011-01-17
NEON.D09.DCFS.DP1.00033,47.161647,-99.106556,574,0.614,2011-01-17
NEON.D09.NOGP.DP1.00033,46.76972,-100.91535,589,1.241,2011-01-17
NEON.D09.PRLA.DP1.20002,47.15909,-99.11388,563,0.511,2011-01-17
NEON.D09.PRPO.DP1.20002,47.12999,-99.250551,587,0.533,2011-01-17
NEON.D09.WOOD.DP1.00033,47.1282,-99.241334,585,0.533,2011-01-17
NEON.D10.ARIK.DP1.20002,39.758246,-102.447103,1188,-0.494,2011-01-17
NEON.D10.CPER.DP1.00033,40.81553,-104.7456,1600,0.141,2011-01-17
NEON.D10.HQTW.DP1.00033,40.016704,-105.245612,1601,-1.0,2011-01-17
NEON.D10.RMNP.DP1.00033,40.275903,-105.545955,2751,-0.503,2011-01-17
NEON.D10.STER.DP1.00033,40.461894,-103.02929,1366,-0.665,2011-01-17
NEON.D11.BLUE.DP1.20002,34.444218,-96.624201,288,-1.018,2011-01-17
NEON.D11.CLBJ.DP1.00033,33.40123,-97.57,279,-0.182,2011-01-17
NEON.D11.OAES.DP1.00033,35.41059,-99.05879,520,-1.529,2011-01-17
NEON.D11.PRIN.DP1.20002,33.37859,-97.78226,255,-0.57,2011-01-17
NEON.D12.BLDE.DP1.20002,44.95011,-110.58715,2035,-0.753,2011-01-17
NEON.D12.YELL.DP1.00033,44.95348,-110.53914,2130,-0.64,2011-01-17
NEON.D13.COMO.DP1.20002,40.03496,-105.54487,3036,-0.926,2011-01-17
NEON.D13.MOAB.DP1.00033,38.24833,-109.38827,1803,-0.406,2011-01-17
NEON.D13.NIWO.DP1.00033,40.05425,-105.58237,3493,-0.663,2011-01-17
NEON.D13.WLOU.DP1.20002,39.891366,-105.915395,2920,-0.845,2011-01-17
NEON.D14.JORN.DP1.00033,32.59068,-106.84254,1321,-0.709,2011-01-17
NEON.D14.SRER.DP1.00033,31.91068,-110.83549,999,-0.883,2011-01-17
NEON.D14.SYCA.DP1.20002,33.749057,-111.506903,644,-0.408,2011-01-17
NEON.D15.ONAQ.DP1.00033,40.177599,-112.452452,1655,0.129,2011-01-17
NEON.D15.REDB.DP1.20002,40.783934,-111.797887,1696,0.776,2011-01-17
NEON.D16.ABBY.DP1.00033,45.76243,-122.33033,390,0.582,2011-01-17
NEON.D16.MART.DP1.20002,45.791248,-121.931959,354,0.844,2011-01-17
NEON.D16.MCRA.DP1.20002,44.259598,-122.165554,880,0.968,2011-01-17
NEON.D16.WREF.DP1.00033,45.82049,-121.95191,368,0.768,2011-01-17
NEON.D17.BIGC.DP1.20002,37.059719,-119.257549,1133,1.465,2011-01-17
NEON.D17.SJER.DP1.00033,37.10878,-119.73228,398,1.806,2011-01-17
NEON.D17.SOAP.DP1.00033,37.03337,-119.26219,1210,1.545,2011-01-17
NEON.D17.TEAK.DP1.00033,37.00583,-119.00602,2149,1.456,2011-01-17
NEON.D17.TECR.DP1.20002,36.955931,-119.027363,2053,1.365,2011-01-17
NEON.D18.BARR.DP1.00033,71.28241,-156.61936,7,-9999.0,2011-01-17
NEON.D18.OKSR.DP1.20002,68.669753,-149.143018,773,-9999.0,2011-01-17
NEON.D18.TOOK.DP1.20002,68.629562,-149.610509,715,-9999.0,2011-01-17
NEON.D18.TOOL.DP1.00033,68.66109,-149.37047,827,-9999.0,2011-01-17
NEON.D19.BONA.DP1.00033,65.15401,-147.50258,233,-9999.0,2011-01-17
NEON.D19.CARI.DP1.20002,65.15306,-147.50246,229,-9999.0,2011-01-17
NEON.D19.DEJU.DP1.00033,63.88112,-145.75136,504,-9999.0,2011-01-17
NEON.D19.HEAL.DP1.00033,63.87569,-149.21334,409,-9999.0,2011-01-17
NEON.D20.PUUM.DP1.00033,19.55309,-155.31731,1683,-9999.0,2011-01-17
nevcansnk3a,39.0099,-114.3095,3063,0.992,2011-01-17
nevcanspg1a,38.9253,-114.4082,1792,0.359,2011-01-17
nevcanspg2a,38.8921,-114.3521,2203,0.52,2011-01-17
nevcanspg3a,38.8898,-114.3314,2820,0.874,2011-01-17
nevcanspg4a,38.9061,-114.3089,3360,0.874,2011-01-17
ninemileprairie,40.86801886,-96.82208066,381,0.068,2011-01-17
nist,39.139,-77.2125,100,-0.752,2011-01-17
niwot3,40.03286358,-105.5469702,3050,-0.926,2011-01-17
niwot5,40.03286358,-105.5469702,2993,-0.926,2011-01-17
northattleboroma,41.98369,-71.31056,60,0.49,2011-01-17
northinletsaltmarsh,33.3455,-79.1957,1,-1.393,2011-01-17
oakville,47.899334,-97.316139,268,0.31,2011-01-17
oregonMP,44.4523,-121.5574,1253,0.461,2011-01-17
oregonYP,44.32384,-121.605993,977,0.212,2011-01-17
oregonYPbud,44.3238,-121.606,977,0.212,2011-01-17
othshardwood,44.934805,-68.6655,41,-0.158,2011-01-17
othssoftwood,44.934527,-68.664888,41,-0.158,2011-01-17
pace,37.9229,-78.2739,100,-1.482,2011-01-17
parkschoolbuffalo,42.9637,-78.7834,205,0.185,2011-01-17
piedmontalpasture2,33.8875,-85.6935,238,-1.021,2011-01-17
portal,31.9385,-109.0823,1330,-0.654,2011-01-17
proctor,44.525,-72.866,403,0.711,2011-01-17
readingma,42.5304,-71.1272,100,-0.072,2011-01-17
robinson,37.4671,-83.1576,483,-0.886,2011-01-17
robinson2,37.4671,-83.1576,483,-0.886,2011-01-17
rosemountcons,44.6946,-93.0578,283,0.932,2011-01-17
rosemountconv,44.691,-93.0576,283,0.932,2011-01-17
rosemountnprs,44.6781,-93.0723,274,1.17,2011-01-17
russellsage,32.456961,-91.974322,20,-2.107,2011-01-17
sagehen,39.4315,-120.2398,1934,0.831,2011-01-17
sagehen2,39.4307,-120.2407,1937,0.831,2011-01-17
sagehen3,39.4311,-120.2405,1935,0.831,2011-01-17
sanford,42.726777,-84.464482,268,-1.293,2011-01-17
santacruz1,36.9741,-122.0308,11,0.663,2011-01-17
santacruz2,36.9741,-122.0308,11,0.663,2011-01-17
santaluciapreserve1,36.5265,-121.8682,500,0.874,2011-01-17
santaluciapreserve2,36.5265,-121.8682,500,0.874,2011-01-17
segaarboretum10,35.16209,-111.73151,2170,-0.255,2011-01-17
segaarboretum2,35.16209,-111.73151,2170,-0.255,2011-01-17
segaarboretum3,35.16209,-111.73151,2170,-0.255,2011-01-17
segaarboretum4,35.16214,-111.73153,2170,-0.255,2011-01-17
segaarboretum6,35.16209,-111.73151,2170,-0.255,2011-01-17
segaarboretum9,35.16222,-111.73158,2170,-0.255,2011-01-17
segaarboretumforest,35.1613,-111.7359,2173,-0.255,2011-01-17
segaarboretummeadow,35.1621,-111.7316,2157,-0.255,2011-01-17
segablackpoint,35.6814,-111.4754,1566,-0.481,2011-01-17
segabluechute,35.5876,-111.9716,1930,-0.461,2011-01-17
segabluechute1,35.58759,-111.97115,1931,-0.461,2011-01-17
segabluechute2,35.58759,-111.97115,1931,-0.461,2011-01-17
segabluechute4,35.58759,-111.9716,1931,-0.461,2011-01-17
segabluechute6,35.58759,-111.97115,1931,-0.461,2011-01-17
segabluechute7,35.58759,-111.97115,1931,-0.461,2011-01-17
segabluechute8,35.58759,-111.97115,1931,-0.461,2011-01-17
segabradshaw,34.9109,-111.9285,1402,-0.496,2011-01-17
segahartprairie,35.3536,-111.7324,2585,-0.35,2011-01-17
segalcr,35.7231,-111.321,1275,-0.436,2011-01-17
segalcr2,35.7069,-111.36,1495,-0.48,2011-01-17
segalittlemountain,36.5865,-112.3634,2276,-0.404,2011-01-17
segasoapcreek,36.751,-111.716,1233,-0.153,2011-01-17
segawhitepockets,36.6081,-112.4082,2057,-0.366,2011-01-17
sevilletagrass,34.360444,-106.700186,1600,-1.083,2011-01-17
sevilletanewgrass,34.358,-106.6799,1603,-1.18,2011-01-17
sevilletashrub,34.334956,-106.744469,1603,-1.039,2011-01-17
sevMRME10L,34.3438,-106.7269,1604,-1.139,2011-01-17
sevMRME11C,34.3438,-106.7268,1604,-1.139,2011-01-17
sevMRME1S,34.3442,-106.7272,1604,-1.139,2011-01-17
sevpjrm12,34.38615,-106.52621,1905,-1.044,2011-01-17
sevpjrm13,34.38631,-106.52791,1914,-1.044,2011-01-17
shalehillsczo,40.6658,-77.9041,310,-1.217,2011-01-17
shenandoah,38.6167,-78.35,1037,-1.435,2011-01-17
silverton,44.9986,-122.6948,347,1.063,2011-01-17
siwetland,38.0369,-121.7546,-5,0.841,2011-01-17
slatefloodplain,38.9094,-107.0282,2725,-0.3,2011-01-17
snodgrass1,38.92619636,-106.9714376,3023,-0.49,2011-01-17
snodgrass2,38.92619636,-106.9714376,3023,-0.49,2011-01-17
snodgrass3,38.92839978,-106.9781196,3141,-0.49,2011-01-17
snodgrass4,38.92839978,-106.9781196,3141,-0.49,2011-01-17
snodgrass5,38.92744789,-106.9785209,3152,-0.49,2011-01-17
snodgrass6,38.92744789,-106.9785209,3152,-0.49,2011-01-17
snodgrass7,38.93142134,-106.9852388,3363,-0.321,2011-01-17
snodgrass8,38.93142134,-106.9852388,3363,-0.321,2011-01-17
southerngreatplains,36.6058,-97.4888,314,-0.884,2011-01-17
springfieldma,42.135162,-72.585972,56,-0.925,2011-01-17
spruceA0EMI,47.5049,-93.4541,413,0.051,2011-01-17
spruceA0EMT,47.5049,-93.4541,418,0.051,2011-01-17
spruceA0P07,47.50493,-93.45314,413,0.051,2011-01-17
spruceA0P07SH,47.50493,-93.45314,413,0.051,2011-01-17
spruceA0P21,47.50625,-93.45275,413,0.051,2011-01-17
spruceA0P21SH,47.50625,-93.45275,413,0.051,2011-01-17
srg,31.7894,-110.8276,1281,-0.719,2011-01-17
srm,31.8214,-110.8661,1116,-0.822,2011-01-17
statenrice1,38.1235,-121.549,-5,1.09,2011-01-17
stjones,39.088222,-75.43725,2,-1.073,2011-01-17
sweetbriar,37.57341,-79.08482,242,-1.173,2011-01-17
sweetbriarclearcut,37.5753,-79.0872,242,-1.173,2011-01-17
sweetbriargrass,37.5605,-79.0884,240,-1.173,2011-01-17
sylvania,46.242,-89.348,540,0.644,2011-01-17
templefieldstation1,40.1667,-75.1894,105,-1.072,2011-01-17
tfforest,43.1086,-70.9505,23,0.724,2011-01-17
tidmarshplymouth,41.9157,-70.5754,9,-0.285,2011-01-17
tonzi,38.43091667,-120.9658861,177,1.072,2011-01-17
townsenddemeadow,39.3917,-75.6281,11,-0.769,2011-01-17
tsubiology,36.1671,-86.8295,164,0.683,2011-01-17
tsubiology2,36.1171,-86.8295,100,0.557,2011-01-17
tuckerprairie,38.9491,-91.9952,274,0.92,2011-01-17
twodafo,29.1658,-95.829,16,-0.037,2011-01-17
tworfaa,31.4777,-96.8882,167,-1.138,2011-01-17
tworfpr,31.4802,-96.8826,162,-1.034,2011-01-17
tworfta,31.4693,-96.8864,173,-1.138,2011-01-17
twosfpr,30.6176,-97.2938,157,-1.237,2011-01-17
ucnrsanzaborrego,33.2401,-116.3886,214,0.471,2011-01-17
ufona,27.3836,-81.950856,25,-0.031,2011-01-17
uiefmaize2,40.0628,-88.1961,224,-0.667,2011-01-17
uiefmiscanthus2,40.0628,-88.1984,221,-0.667,2011-01-17
uiefprairie2,40.0637,-88.1973,224,-0.667,2011-01-17
uiefsorghum,40.0065,-88.2032,224,-0.582,2011-01-17
uiefswitchgrass2,40.0637,-88.1973,224,-0.667,2011-01-17
umichbiological,45.55984,-84.71382,230,0.562,2011-01-17
umichbiological2,45.5625,-84.6976,240,0.766,2011-01-17
unca,35.5951,-82.5515,650,-0.884,2011-01-17
usgseros,43.7343,-96.6234,448,1.086,2011-01-17
usmpj,34.43845,-106.2543606,2126,-1.148,2011-01-17
usof5,35.7297,-90.0406,70,-1.879,2011-01-17
usof6,35.7333,-90.0403,70,-1.879,2011-01-17
uwmfieldsta,43.38709,-88.0229,265,-0.391,2011-01-17
vaira,38.41328056,-120.9506361,129,1.072,2011-01-17
vallesburnedconifer,35.8884,-106.5321,3043,-1.199,2011-01-17
vallesmixedconifer,35.9192,-106.6142,2752,-1.124,2011-01-17
vallesponderosapine,35.864,-106.5964,2501,-1.096,2011-01-17
waahila,21.3017,-157.8152,55,-9999.0,2011-01-17
warrenwilson,35.6069,-82.4421,2198,-0.899,2011-01-17
willamettepoplar,44.1368,-123.1823,112,0.646,2011-01-17
willowcreek,45.805986,-90.07912,521,0.728,2011-01-17
windriver,45.8212833,-121.9520833,371,0.768,2011-01-17
windriverunderstory,45.8212833,-121.9520833,371,0.768,2011-01-17
wolfesneckfarm,43.8305,-70.0715,16,0.614,2011-01-17
worcester,42.2697,-71.8428,185,-0.41,2011-01-17
alligatorriver,35.7879,-75.9038,1,0.262,2011-01-24
arbutuslake,43.98207,-74.23322,535,0.417,2011-01-24
arbutuslakeinlet,43.99336,-74.24527,527,0.417,2011-01-24
archboldavir,27.176064,-81.21958,8,-0.486,2011-01-24
archboldavirx,27.166627,-81.219828,8,-0.486,2011-01-24
archboldbahia,27.1656,-81.216112,8,-0.486,2011-01-24
archboldpnot,27.187948,-81.200345,9,-0.486,2011-01-24
archboldpnotx,27.180677,-81.20068,9,-0.486,2011-01-24
arkansascornsoy,34.416,-91.6723,61,-1.947,2011-01-24
arsbrooks10,41.9749,-93.6905,312,1.301,2011-01-24
arsbrooks11,41.9744,-93.6937,313,1.301,2011-01-24
arscolesnorth,42.4884,-93.5225,356,0.62,2011-01-24
arscolessouth,42.4816,-93.5235,352,0.62,2011-01-24
arsgacp1,31.5109,-83.6179,96,-0.816,2011-01-24
arsgacp3,31.7563,-83.7516,139,-0.448,2011-01-24
arsgacp4,31.7093,-83.7287,127,-0.274,2011-01-24
arsgreatbasinltar098,43.1675,-116.7132,1426,0.102,2011-01-24
arsgreatbasinltar117,43.1432,-116.7357,1625,0.007,2011-01-24
arsgreatbasinltar177,43.0645,-116.7484,2114,0.014,2011-01-24
arsltarmdcr,39.0587,-75.8513,17,-0.389,2011-01-24
arsltarmdcrnatw,39.0575,-75.7531,16,-0.348,2011-01-24
arsltarmdcrprcw,39.0667,-75.7609,17,-0.348,2011-01-24
arsltarmdcrresw,39.0549,-75.7532,16,-0.348,2011-01-24
arsltarucbec1,40.7537,-78.0057,400,-1.118,2011-01-24
arsltarucbec2,40.7558,-77.9999,396,-1.118,2011-01-24
arsmnswanlake1,45.684508,-95.799703,370,0.567,2011-01-24
arsmorris1,45.6167,-96.1269,341,0.314,2011-01-24
arsmorris2,45.627,-96.127,338,0.314,2011-01-24
arsmorris3,45.6091,-96.1265,342,0.314,2011-01-24
arsope3ltar,39.0309,-76.8442,41,-0.517,2011-01-24
ashburnham,42.6029,-71.926,292,0.073,2011-01-24
asuhighlands,36.2076,-81.7032,1016,-1.437,2011-01-24
austincary,29.738,-82.2188,44,-1.195,2011-01-24
barrow,71.28007453,-156.6091492,5,-9999.0,2011-01-24
bartlettir,44.0646,-71.2881,268,0.881,2011-01-24
bigtraillake,64.9194,-147.822,190,-9999.0,2011-01-24
bitterbrush001,48.154,-119.9456,667,0.732,2011-01-24
blackrockforest,41.3974,-74.0239,427,0.11,2011-01-24
bnzblackspruce,64.6963,-148.3235,102,-9999.0,2011-01-24
bnzrichfen,64.70134,-148.31195,97,-9999.0,2011-01-24
bnzthermokarstbog,64.6955,-148.3208,104,-9999.0,2011-01-24
boglakepeatland,47.5051,-93.4893,416,0.114,2011-01-24
bostoncommon,42.355912,-71.064145,10,0.679,2011-01-24
bostonu,42.35041,-71.10438,10,0.944,2011-01-24
bouldinalfalfa,38.0985,-121.4993,-5,1.108,2011-01-24
bouldincorn,38.109,-121.535,-5,1.122,2011-01-24
bozeman,45.783056,-110.777778,2332,0.951,2011-01-24
brackishimpoundment,33.2015,-79.2973,1,-1.413,2011-01-24
bullshoals,36.562833,-93.06663,260,-1.016,2011-01-24
burnssagebrush,43.4712,-119.6909,1398,0.665,2011-01-24
butte,45.95304,-112.47964,1682,0.728,2011-01-24
butterice,39.5793,-121.858,33,0.565,2011-01-24
cafboydnorthltar01,46.755104,-117.126052,795,0.383,2011-01-24
cafboydsouthltar01,46.751809,-117.128502,795,0.383,2011-01-24
cafcookeastltar01,46.78152,-117.0821,794,0.318,2011-01-24
cafcookwestltar01,46.784037,-117.09083,807,0.318,2011-01-24
caryinstitute,41.7839,-73.7341,127,0.13,2011-01-24
centralredwoods1,38.632272,-123.301511,200,0.98,2011-01-24
centralredwoods2,38.632272,-123.301511,200,0.98,2011-01-24
cperagm,40.8402,-104.7672,1644,-0.063,2011-01-24
cperheavy,40.8153,-104.7386,1652,0.311,2011-01-24
cpertgm,40.833,-104.76,1644,0.036,2011-01-24
cperuvb,40.8055764,-104.7558542,1641,0.036,2011-01-24
cuny,40.8162,-73.9507,42,-0.65,2011-01-24
doverdesaltmarsh,39.0888,-75.4368,0,-0.958,2011-01-24
downerwoods,43.07938,-87.88076,213,0.634,2011-01-24
dukehw,35.973583,-79.100371,400,-1.625,2011-01-24
ecb1,41.5348,-84.8068,275,-1.201,2011-01-24
ecb2,41.5321,-84.808,275,-1.201,2011-01-24
ecb4,41.1796,-83.0604,240,-1.036,2011-01-24
elverde,18.320654,-65.8199,312,-9999.0,2011-01-24
flagstaff,35.17961521,-111.6049032,6983,-0.401,2011-01-24
flagstaff2,35.179225,-111.604506,6983,-0.401,2011-01-24
flagstaffchimneysprings,35.257296,-111.678542,2250,-0.271,2011-01-24
forbes,39.232,-121.2972,360,0.932,2011-01-24
fortpaynealpasture1,34.3824,-85.6428,405,-1.121,2011-01-24
fortpaynealpasture2,34.3824,-85.6447,403,-1.121,2011-01-24
gcesapelo,31.4440444,-81.283528,0,-1.753,2011-01-24
gilberttract,38.0015,-121.6691,6,0.999,2011-01-24
glees,41.3644,-106.2394,3150,0.785,2011-01-24
glennorganicrice,39.6805,-122.0026,2,0.142,2011-01-24
glennrice,39.5944,-122.0253,36,0.272,2011-01-24
goodnow,43.96018,-74.20994,820,0.487,2011-01-24
goodwater,39.22848,-92.11936,264,1.104,2011-01-24
goodwaterbau,39.23115,-92.15216,274,1.171,2011-01-24
grandteton,43.915017,-110.578036,2054,0.42,2011-01-24
grca1pj,36.0241,-112.2211,1978,-0.284,2011-01-24
greenridge1,39.6905,-78.4067,285,-1.577,2011-01-24
harvard,42.5378,-72.1715,340,-1.14,2011-01-24
harvardbarn,42.53532,-72.1899,350,-1.211,2011-01-24
harvardbarn2,42.53532,-72.1899,350,-1.211,2011-01-24
harvardems2,42.5378,-72.1715,340,-1.14,2011-01-24
harvardfarmnorth,42.520465,-72.182242,355,-1.211,2011-01-24
harvardfarmsouth,42.522466,-72.182339,355,-1.211,2011-01-24
harvardgarden,42.5291,-72.1863,335,-1.211,2011-01-24
harvardhemlock,42.539,-72.18,355,-1.211,2011-01-24
harvardhemlock2,42.539407,-72.177976,355,-1.14,2011-01-24
harvardlph,42.542,-72.185,380,-1.211,2011-01-24
hawbeckereddy,40.6608,-77.848849,310,-1.21,2011-01-24
hobcawclearcutlongleaf,33.3486,-79.232,4,-0.962,2011-01-24
hobcawmaturelongleaf,33.3242,-79.2439,8,-0.962,2011-01-24
homesteadsprings,37.2009,-92.9937,452,0.421,2011-01-24
howland1,45.2041,-68.7403,80,0.2,2011-01-24
howland2,45.2128,-68.7418,79,0.2,2011-01-24
hubbardbrook,43.9438,-71.701,253,0.733,2011-01-24
humnokericea,34.585192,-91.751684,61,-1.673,2011-01-24
humnokericec,34.588853,-91.7516729,70,-1.673,2011-01-24
huyckpreserveny,42.5266,-74.1587,478,0.693,2011-01-24
hwmo1,20.0212,-155.7331,585,-9999.0,2011-01-24
hwmo2,19.9766,-155.8298,12,-9999.0,2011-01-24
hwmo5,20.1117,-155.8151,635,-9999.0,2011-01-24
ibp,32.589,-106.847,1325,-0.747,2011-01-24
imcrkfen,68.60583,-149.31101,900,-9999.0,2011-01-24
imcrkridge0,68.60681,-149.2958,951,-9999.0,2011-01-24
imcrkridge1,68.60681,-149.2958,951,-9999.0,2011-01-24
imcrktussock,68.60633,-149.30408,918,-9999.0,2011-01-24
jasperridge,37.402028,-122.22104,197,0.655,2011-01-24
jerbajada,32.57992,-106.633793,1402,-0.984,2011-01-24
jergrassland,32.5833,-106.8333,1331,-0.747,2011-01-24
jernort,32.619,-106.788,1328,-1.002,2011-01-24
jernovel,32.6335,-106.8334,1324,-0.834,2011-01-24
jernwern,32.6271,-106.7387,1325,-1.132,2011-01-24
jersand,32.515,-106.798,1363,-0.803,2011-01-24
jershrubland,32.6502,-106.8334,1328,-1.007,2011-01-24
junipersavannah,34.4254,-105.8615,1931,-0.982,2011-01-24
kamuela,20.015008,-155.661326,850,-9999.0,2011-01-24
kamuela2,20.014959,-155.661139,830,-9999.0,2011-01-24
kansas,39.0561,-95.1907,333,-0.167,2011-01-24
kelloggcorn,42.437536,-85.3225472,288,-0.843,2011-01-24
kempnrs,45.83992,-89.67755,539,0.508,2011-01-24
kendall,31.73652,-109.94185,1529,-0.892,2011-01-24
konza,39.0824,-96.5603,443,-0.312,2011-01-24
laupahoehoe,19.9322,-155.2912,1145,-9999.0,2011-01-24
ldeocam,41.0039,-73.9053,121,-0.545,2011-01-24
lostcreek,46.0827,-89.9792,480,0.713,2011-01-24
luckyhills,31.743896,-110.052023,1366,-0.981,2011-01-24
macleish,42.4484,-72.6804,251,-0.765,2011-01-24
macordway,44.8106,-93.0272,264,0.283,2011-01-24
mandanh5,46.775423,-100.95109,593,1.273,2011-01-24
mandani2,46.7614,-100.9257,590,1.247,2011-01-24
manilacotton,35.8872,-90.1371,73,-1.883,2011-01-24
marena,36.06434,-97.21271,327,-1.322,2011-01-24
mead1,41.1651,-96.4766,361,0.427,2011-01-24
mead2,41.1649,-96.4701,362,0.427,2011-01-24
mead3,41.1797,-96.4397,363,0.426,2011-01-24
meadpasture,41.1447,-96.4616,356,0.578,2011-01-24
meadpasturese,41.1447,-96.4616,356,0.578,2011-01-24
meadpasturesw,41.1447,-96.4616,356,0.578,2011-01-24
missouriozarks,38.7441,-92.2,219,0.615,2011-01-24
morganmonroe,39.3231,-86.4131,275,-1.252,2011-01-24
morganmonroe2,39.3231,-86.4131,275,-1.252,2011-01-24
nahuku,19.415187,-155.238383,1202,-9999.0,2011-01-24
nationalelkrefuge,43.488931,-110.737824,1899,0.452,2011-01-24
ncssm,36.018446,-78.92075,175,-1.342,2011-01-24
NEON.D01.BART.DP1.00033,44.063869,-71.287375,285,0.881,2011-01-24
NEON.D01.HARV.DP1.00033,42.536911,-72.17265,359,-1.14,2011-01-24
NEON.D01.HOPB.DP1.20002,42.471786,-72.329627,203,-1.092,2011-01-24
NEON.D02.BLAN.DP1.00033,39.033698,-78.041788,162,-1.181,2011-01-24
NEON.D02.LEWI.DP1.20002,39.09564,-77.98322,152,-1.381,2011-01-24
NEON.D02.POSE.DP1.20002,38.89332,-78.14678,293,-1.428,2011-01-24
NEON.D02.SCBI.DP1.00033,38.892925,-78.139494,364,-1.356,2011-01-24
NEON.D02.SERC.DP1.00033,38.89008,-76.56001,30,-0.281,2011-01-24
NEON.D03.BARC.DP1.20002,29.676473,-82.009089,35,-1.305,2011-01-24
NEON.D03.DSNY.DP1.00033,28.12505,-81.43619,22,-0.111,2011-01-24
NEON.D03.FLNT.DP1.20002,31.185424,-84.437403,27,-1.185,2011-01-24
NEON.D03.JERC.DP1.00033,31.194839,-84.468623,58,-1.27,2011-01-24
NEON.D03.OSBS.DP1.00033,29.689282,-81.993431,56,-1.273,2011-01-24
NEON.D03.SUGG.DP1.20002,29.687054,-82.016171,28,-1.273,2011-01-24
NEON.D04.CUPE.DP1.20002,18.11352,-66.98676,164,-9999.0,2011-01-24
NEON.D04.GUAN.DP1.00033,17.96955,-66.8687,136,-9999.0,2011-01-24
NEON.D04.GUIL.DP1.20002,18.1741,-66.79851,564,-9999.0,2011-01-24
NEON.D04.LAJA.DP1.00033,18.021261,-67.076889,22,-9999.0,2011-01-24
NEON.D05.CRAM.DP1.20002,46.21111,-89.47825,518,0.602,2011-01-24
NEON.D05.LIRO.DP1.20002,45.998269,-89.704767,495,0.578,2011-01-24
NEON.D05.STEI.DP1.00033,45.50894,-89.58637,476,0.135,2011-01-24
NEON.D05.TREE.DP1.00033,45.49373,-89.58572,474,0.135,2011-01-24
NEON.D05.UNDE.DP1.00033,46.23391,-89.537254,529,0.531,2011-01-24
NEON.D06.KING.DP1.20002,39.10506,-96.60336,339,-0.295,2011-01-24
NEON.D06.KONA.DP1.00033,39.110446,-96.612935,443,-0.295,2011-01-24
NEON.D06.KONZ.DP1.00033,39.10077,-96.56309,415,-0.312,2011-01-24
NEON.D06.MCDI.DP1.20002,38.94428,-96.44197,376,-0.179,2011-01-24
NEON.D06.UKFS.DP1.00033,39.040431,-95.19215,330,-0.167,2011-01-24
NEON.D07.GRSM.DP1.00033,35.68896,-83.50195,589,-0.54,2011-01-24
NEON.D07.LECO.DP1.20002,35.69043,-83.50379,578,-0.54,2011-01-24
NEON.D07.MLBS.DP1.00033,37.378314,-80.524847,1177,-1.309,2011-01-24
NEON.D07.ORNL.DP1.00033,35.964128,-84.282588,351,-0.109,2011-01-24
NEON.D07.WALK.DP1.20002,35.95947,-84.28041,274,-0.125,2011-01-24
NEON.D08.BLWA.DP1.20002,32.541529,-87.798151,23,-0.527,2011-01-24
NEON.D08.DELA.DP1.00033,32.541727,-87.803877,36,-0.527,2011-01-24
NEON.D08.LENO.DP1.00033,31.85388,-88.16122,10,-1.407,2011-01-24
NEON.D08.MAYF.DP1.20002,32.959657,-87.408128,93,-0.719,2011-01-24
NEON.D08.TALL.DP1.00033,32.95047,-87.393259,167,-0.719,2011-01-24
NEON.D08.TOMB.DP1.20002,31.853431,-88.158872,10,-1.407,2011-01-24
NEON.D09.DCFS.DP1.00033,47.161647,-99.106556,574,0.591,2011-01-24
NEON.D09.NOGP.DP1.00033,46.76972,-100.91535,589,1.247,2011-01-24
NEON.D09.PRLA.DP1.20002,47.15909,-99.11388,563,0.494,2011-01-24
NEON.D09.PRPO.DP1.20002,47.12999,-99.250551,587,0.517,2011-01-24
NEON.D09.WOOD.DP1.00033,47.1282,-99.241334,585,0.517,2011-01-24
NEON.D10.ARIK.DP1.20002,39.758246,-102.447103,1188,-0.501,2011-01-24
NEON.D10.CPER.DP1.00033,40.81553,-104.7456,1600,0.036,2011-01-24
NEON.D10.HQTW.DP1.00033,40.016704,-105.245612,1601,-1.101,2011-01-24
NEON.D10.RMNP.DP1.00033,40.275903,-105.545955,2751,-0.459,2011-01-24
NEON.D10.STER.DP1.00033,40.461894,-103.02929,1366,-0.696,2011-01-24
NEON.D11.BLUE.DP1.20002,34.444218,-96.624201,288,-0.991,2011-01-24
NEON.D11.CLBJ.DP1.00033,33.40123,-97.57,279,-0.144,2011-01-24
NEON.D11.OAES.DP1.00033,35.41059,-99.05879,520,-1.526,2011-01-24
NEON.D11.PRIN.DP1.20002,33.37859,-97.78226,255,-0.541,2011-01-24
NEON.D12.BLDE.DP1.20002,44.95011,-110.58715,2035,-0.695,2011-01-24
NEON.D12.YELL.DP1.00033,44.95348,-110.53914,2130,-0.565,2011-01-24
NEON.D13.COMO.DP1.20002,40.03496,-105.54487,3036,-0.894,2011-01-24
NEON.D13.MOAB.DP1.00033,38.24833,-109.38827,1803,-0.462,2011-01-24
NEON.D13.NIWO.DP1.00033,40.05425,-105.58237,3493,-0.575,2011-01-24
NEON.D13.WLOU.DP1.20002,39.891366,-105.915395,2920,-0.842,2011-01-24
NEON.D14.JORN.DP1.00033,32.59068,-106.84254,1321,-0.747,2011-01-24
NEON.D14.SRER.DP1.00033,31.91068,-110.83549,999,-0.861,2011-01-24
NEON.D14.SYCA.DP1.20002,33.749057,-111.506903,644,-0.436,2011-01-24
NEON.D15.ONAQ.DP1.00033,40.177599,-112.452452,1655,0.143,2011-01-24
NEON.D15.REDB.DP1.20002,40.783934,-111.797887,1696,0.837,2011-01-24
NEON.D16.ABBY.DP1.00033,45.76243,-122.33033,390,1.06,2011-01-24
NEON.D16.MART.DP1.20002,45.791248,-121.931959,354,1.234,2011-01-24
NEON.D16.MCRA.DP1.20002,44.259598,-122.165554,880,1.38,2011-01-24
NEON.D16.WREF.DP1.00033,45.82049,-121.95191,368,1.136,2011-01-24
NEON.D17.BIGC.DP1.20002,37.059719,-119.257549,1133,1.514,2011-01-24
NEON.D17.SJER.DP1.00033,37.10878,-119.73228,398,1.876,2011-01-24
NEON.D17.SOAP.DP1.00033,37.03337,-119.26219,1210,1.603,2011-01-24
NEON.D17.TEAK.DP1.00033,37.00583,-119.00602,2149,1.514,2011-01-24
NEON.D17.TECR.DP1.20002,36.955931,-119.027363,2053,1.422,2011-01-24
NEON.D18.BARR.DP1.00033,71.28241,-156.61936,7,-9999.0,2011-01-24
NEON.D18.OKSR.DP1.20002,68.669753,-149.143018,773,-9999.0,2011-01-24
NEON.D18.TOOK.DP1.20002,68.629562,-149.610509,715,-9999.0,2011-01-24
NEON.D18.TOOL.DP1.00033,68.66109,-149.37047,827,-9999.0,2011-01-24
NEON.D19.BONA.DP1.00033,65.15401,-147.50258,233,-9999.0,2011-01-24
NEON.D19.CARI.DP1.20002,65.15306,-147.50246,229,-9999.0,2011-01-24
NEON.D19.DEJU.DP1.00033,63.88112,-145.75136,504,-9999.0,2011-01-24
NEON.D19.HEAL.DP1.00033,63.87569,-149.21334,409,-9999.0,2011-01-24
NEON.D20.PUUM.DP1.00033,19.55309,-155.31731,1683,-9999.0,2011-01-24
nevcansnk3a,39.0099,-114.3095,3063,0.938,2011-01-24
nevcanspg1a,38.9253,-114.4082,1792,0.33,2011-01-24
nevcanspg2a,38.8921,-114.3521,2203,0.498,2011-01-24
nevcanspg3a,38.8898,-114.3314,2820,0.835,2011-01-24
nevcanspg4a,38.9061,-114.3089,3360,0.835,2011-01-24
ninemileprairie,40.86801886,-96.82208066,381,0.08,2011-01-24
nist,39.139,-77.2125,100,-0.654,2011-01-24
niwot3,40.03286358,-105.5469702,3050,-0.894,2011-01-24
niwot5,40.03286358,-105.5469702,2993,-0.894,2011-01-24
northattleboroma,41.98369,-71.31056,60,0.675,2011-01-24
northinletsaltmarsh,33.3455,-79.1957,1,-1.386,2011-01-24
oakville,47.899334,-97.316139,268,0.366,2011-01-24
oregonMP,44.4523,-121.5574,1253,0.75,2011-01-24
oregonYP,44.32384,-121.605993,977,0.499,2011-01-24
oregonYPbud,44.3238,-121.606,977,0.499,2011-01-24
othshardwood,44.934805,-68.6655,41,-0.026,2011-01-24
othssoftwood,44.934527,-68.664888,41,-0.026,2011-01-24
pace,37.9229,-78.2739,100,-1.434,2011-01-24
parkschoolbuffalo,42.9637,-78.7834,205,0.166,2011-01-24
piedmontalpasture2,33.8875,-85.6935,238,-1.01,2011-01-24
portal,31.9385,-109.0823,1330,-0.651,2011-01-24
proctor,44.525,-72.866,403,0.772,2011-01-24
readingma,42.5304,-71.1272,100,0.128,2011-01-24
robinson,37.4671,-83.1576,483,-0.895,2011-01-24
robinson2,37.4671,-83.1576,483,-0.895,2011-01-24
rosemountcons,44.6946,-93.0578,283,0.939,2011-01-24
rosemountconv,44.691,-93.0576,283,0.939,2011-01-24
rosemountnprs,44.6781,-93.0723,274,1.182,2011-01-24
russellsage,32.456961,-91.974322,20,-2.024,2011-01-24
sagehen,39.4315,-120.2398,1934,0.837,2011-01-24
sagehen2,39.4307,-120.2407,1937,0.837,2011-01-24
sagehen3,39.4311,-120.2405,1935,0.837,2011-01-24
sanford,42.726777,-84.464482,268,-1.292,2011-01-24
santacruz1,36.9741,-122.0308,11,0.687,2011-01-24
santacruz2,36.9741,-122.0308,11,0.687,2011-01-24
santaluciapreserve1,36.5265,-121.8682,500,0.934,2011-01-24
santaluciapreserve2,36.5265,-121.8682,500,0.934,2011-01-24
segaarboretum10,35.16209,-111.73151,2170,-0.244,2011-01-24
segaarboretum2,35.16209,-111.73151,2170,-0.244,2011-01-24
segaarboretum3,35.16209,-111.73151,2170,-0.244,2011-01-24
segaarboretum4,35.16214,-111.73153,2170,-0.244,2011-01-24
segaarboretum6,35.16209,-111.73151,2170,-0.244,2011-01-24
segaarboretum9,35.16222,-111.73158,2170,-0.244,2011-01-24
segaarboretumforest,35.1613,-111.7359,2173,-0.244,2011-01-24
segaarboretummeadow,35.1621,-111.7316,2157,-0.244,2011-01-24
segablackpoint,35.6814,-111.4754,1566,-0.507,2011-01-24
segabluechute,35.5876,-111.9716,1930,-0.459,2011-01-24
segabluechute1,35.58759,-111.97115,1931,-0.459,2011-01-24
segabluechute2,35.58759,-111.97115,1931,-0.459,2011-01-24
segabluechute4,35.58759,-111.9716,1931,-0.459,2011-01-24
segabluechute6,35.58759,-111.97115,1931,-0.459,2011-01-24
segabluechute7,35.58759,-111.97115,1931,-0.459,2011-01-24
segabluechute8,35.58759,-111.97115,1931,-0.459,2011-01-24
segabradshaw,34.9109,-111.9285,1402,-0.474,2011-01-24
segahartprairie,35.3536,-111.7324,2585,-0.31,2011-01-24
segalcr,35.7231,-111.321,1275,-0.468,2011-01-24
segalcr2,35.7069,-111.36,1495,-0.513,2011-01-24
segalittlemountain,36.5865,-112.3634,2276,-0.398,2011-01-24
segasoapcreek,36.751,-111.716,1233,-0.198,2011-01-24
segawhitepockets,36.6081,-112.4082,2057,-0.361,2011-01-24
sevilletagrass,34.360444,-106.700186,1600,-1.111,2011-01-24
sevilletanewgrass,34.358,-106.6799,1603,-1.205,2011-01-24
sevilletashrub,34.334956,-106.744469,1603,-1.066,2011-01-24
sevMRME10L,34.3438,-106.7269,1604,-1.166,2011-01-24
sevMRME11C,34.3438,-106.7268,1604,-1.166,2011-01-24
sevMRME1S,34.3442,-106.7272,1604,-1.166,2011-01-24
sevpjrm12,34.38615,-106.52621,1905,-1.06,2011-01-24
sevpjrm13,34.38631,-106.52791,1914,-1.06,2011-01-24
shalehillsczo,40.6658,-77.9041,310,-1.153,2011-01-24
shenandoah,38.6167,-78.35,1037,-1.366,2011-01-24
silverton,44.9986,-122.6948,347,1.296,2011-01-24
siwetland,38.0369,-121.7546,-5,0.868,2011-01-24
slatefloodplain,38.9094,-107.0282,2725,-0.301,2011-01-24
snodgrass1,38.92619636,-106.9714376,3023,-0.493,2011-01-24
snodgrass2,38.92619636,-106.9714376,3023,-0.493,2011-01-24
snodgrass3,38.92839978,-106.9781196,3141,-0.493,2011-01-24
snodgrass4,38.92839978,-106.9781196,3141,-0.493,2011-01-24
snodgrass5,38.92744789,-106.9785209,3152,-0.493,2011-01-24
snodgrass6,38.92744789,-106.9785209,3152,-0.493,2011-01-24
snodgrass7,38.93142134,-106.9852388,3363,-0.337,2011-01-24
snodgrass8,38.93142134,-106.9852388,3363,-0.337,2011-01-24
southerngreatplains,36.6058,-97.4888,314,-0.887,2011-01-24
springfieldma,42.135162,-72.585972,56,-0.807,2011-01-24
spruceA0EMI,47.5049,-93.4541,413,0.178,2011-01-24
spruceA0EMT,47.5049,-93.4541,418,0.178,2011-01-24
spruceA0P07,47.50493,-93.45314,413,0.178,2011-01-24
spruceA0P07SH,47.50493,-93.45314,413,0.178,2011-01-24
spruceA0P21,47.50625,-93.45275,413,0.178,2011-01-24
spruceA0P21SH,47.50625,-93.45275,413,0.178,2011-01-24
srg,31.7894,-110.8276,1281,-0.707,2011-01-24
srm,31.8214,-110.8661,1116,-0.8,2011-01-24
statenrice1,38.1235,-121.549,-5,1.132,2011-01-24
stjones,39.088222,-75.43725,2,-0.958,2011-01-24
sweetbriar,37.57341,-79.08482,242,-1.141,2011-01-24
sweetbriarclearcut,37.5753,-79.0872,242,-1.141,2011-01-24
sweetbriargrass,37.5605,-79.0884,240,-1.141,2011-01-24
sylvania,46.242,-89.348,540,0.644,2011-01-24
templefieldstation1,40.1667,-75.1894,105,-0.873,2011-01-24
tfforest,43.1086,-70.9505,23,0.873,2011-01-24
tidmarshplymouth,41.9157,-70.5754,9,-0.171,2011-01-24
tonzi,38.43091667,-120.9658861,177,1.09,2011-01-24
townsenddemeadow,39.3917,-75.6281,11,-0.648,2011-01-24
tsubiology,36.1671,-86.8295,164,0.739,2011-01-24
tsubiology2,36.1171,-86.8295,100,0.603,2011-01-24
tuckerprairie,38.9491,-91.9952,274,0.981,2011-01-24
twodafo,29.1658,-95.829,16,-0.049,2011-01-24
tworfaa,31.4777,-96.8882,167,-1.009,2011-01-24
tworfpr,31.4802,-96.8826,162,-0.898,2011-01-24
tworfta,31.4693,-96.8864,173,-1.009,2011-01-24
twosfpr,30.6176,-97.2938,157,-1.154,2011-01-24
ucnrsanzaborrego,33.2401,-116.3886,214,0.422,2011-01-24
ufona,27.3836,-81.950856,25,0.014,2011-01-24
uiefmaize2,40.0628,-88.1961,224,-0.671,2011-01-24
uiefmiscanthus2,40.0628,-88.1984,221,-0.671,2011-01-24
uiefprairie2,40.0637,-88.1973,224,-0.671,2011-01-24
uiefsorghum,40.0065,-88.2032,224,-0.592,2011-01-24
uiefswitchgrass2,40.0637,-88.1973,224,-0.671,2011-01-24
umichbiological,45.55984,-84.71382,230,0.711,2011-01-24
umichbiological2,45.5625,-84.6976,240,0.915,2011-01-24
unca,35.5951,-82.5515,650,-0.845,2011-01-24
usgseros,43.7343,-96.6234,448,1.093,2011-01-24
usmpj,34.43845,-106.2543606,2126,-1.167,2011-01-24
usof5,35.7297,-90.0406,70,-1.85,2011-01-24
usof6,35.7333,-90.0403,70,-1.85,2011-01-24
uwmfieldsta,43.38709,-88.0229,265,-0.336,2011-01-24
vaira,38.41328056,-120.9506361,129,1.09,2011-01-24
vallesburnedconifer,35.8884,-106.5321,3043,-1.214,2011-01-24
vallesmixedconifer,35.9192,-106.6142,2752,-1.137,2011-01-24
vallesponderosapine,35.864,-106.5964,2501,-1.107,2011-01-24
waahila,21.3017,-157.8152,55,-9999.0,2011-01-24
warrenwilson,35.6069,-82.4421,2198,-0.858,2011-01-24
willamettepoplar,44.1368,-123.1823,112,0.836,2011-01-24
willowcreek,45.805986,-90.07912,521,0.729,2011-01-24
windriver,45.8212833,-121.9520833,371,1.136,2011-01-24
windriverunderstory,45.8212833,-121.9520833,371,1.136,2011-01-24
wolfesneckfarm,43.8305,-70.0715,16,0.781,2011-01-24
worcester,42.2697,-71.8428,185,-0.275,2011-01-24
alligatorriver,35.7879,-75.9038,1,0.276,2011-01-31
arbutuslake,43.98207,-74.23322,535,0.115,2011-01-31
arbutuslakeinlet,43.99336,-74.24527,527,0.115,2011-01-31
archboldavir,27.176064,-81.21958,8,-0.353,2011-01-31
archboldavirx,27.166627,-81.219828,8,-0.353,2011-01-31
archboldbahia,27.1656,-81.216112,8,-0.353,2011-01-31
archboldpnot,27.187948,-81.200345,9,-0.353,2011-01-31
archboldpnotx,27.180677,-81.20068,9,-0.353,2011-01-31
arkansascornsoy,34.416,-91.6723,61,-2.025,2011-01-31
arsbrooks10,41.9749,-93.6905,312,1.275,2011-01-31
arsbrooks11,41.9744,-93.6937,313,1.275,2011-01-31
arscolesnorth,42.4884,-93.5225,356,0.588,2011-01-31
arscolessouth,42.4816,-93.5235,352,0.588,2011-01-31
arsgacp1,31.5109,-83.6179,96,-0.844,2011-01-31
arsgacp3,31.7563,-83.7516,139,-0.45,2011-01-31
arsgacp4,31.7093,-83.7287,127,-0.266,2011-01-31
arsgreatbasinltar098,43.1675,-116.7132,1426,0.056,2011-01-31
arsgreatbasinltar117,43.1432,-116.7357,1625,-0.067,2011-01-31
arsgreatbasinltar177,43.0645,-116.7484,2114,-0.071,2011-01-31
arsltarmdcr,39.0587,-75.8513,17,-0.379,2011-01-31
arsltarmdcrnatw,39.0575,-75.7531,16,-0.349,2011-01-31
arsltarmdcrprcw,39.0667,-75.7609,17,-0.349,2011-01-31
arsltarmdcrresw,39.0549,-75.7532,16,-0.349,2011-01-31
arsltarucbec1,40.7537,-78.0057,400,-1.13,2011-01-31
arsltarucbec2,40.7558,-77.9999,396,-1.13,2011-01-31
arsmnswanlake1,45.684508,-95.799703,370,0.547,2011-01-31
arsmorris1,45.6167,-96.1269,341,0.301,2011-01-31
arsmorris2,45.627,-96.127,338,0.301,2011-01-31
arsmorris3,45.6091,-96.1265,342,0.301,2011-01-31
arsope3ltar,39.0309,-76.8442,41,-0.395,2011-01-31
ashburnham,42.6029,-71.926,292,-0.592,2011-01-31
asuhighlands,36.2076,-81.7032,1016,-1.427,2011-01-31
austincary,29.738,-82.2188,44,-1.084,2011-01-31
barrow,71.28007453,-156.6091492,5,-9999.0,2011-01-31
bartlettir,44.0646,-71.2881,268,0.445,2011-01-31
bigtraillake,64.9194,-147.822,190,-9999.0,2011-01-31
bitterbrush001,48.154,-119.9456,667,0.665,2011-01-31
blackrockforest,41.3974,-74.0239,427,-0.446,2011-01-31
bnzblackspruce,64.6963,-148.3235,102,-9999.0,2011-01-31
bnzrichfen,64.70134,-148.31195,97,-9999.0,2011-01-31
bnzthermokarstbog,64.6955,-148.3208,104,-9999.0,2011-01-31
boglakepeatland,47.5051,-93.4893,416,0.124,2011-01-31
bostoncommon,42.355912,-71.064145,10,0.37,2011-01-31
bostonu,42.35041,-71.10438,10,0.587,2011-01-31
bouldinalfalfa,38.0985,-121.4993,-5,0.923,2011-01-31
bouldincorn,38.109,-121.535,-5,0.94,2011-01-31
bozeman,45.783056,-110.777778,2332,1.02,2011-01-31
brackishimpoundment,33.2015,-79.2973,1,-1.433,2011-01-31
bullshoals,36.562833,-93.06663,260,-1.144,2011-01-31
burnssagebrush,43.4712,-119.6909,1398,0.654,2011-01-31
butte,45.95304,-112.47964,1682,0.745,2011-01-31
butterice,39.5793,-121.858,33,0.363,2011-01-31
cafboydnorthltar01,46.755104,-117.126052,795,0.453,2011-01-31
cafboydsouthltar01,46.751809,-117.128502,795,0.453,2011-01-31
cafcookeastltar01,46.78152,-117.0821,794,0.396,2011-01-31
cafcookwestltar01,46.784037,-117.09083,807,0.396,2011-01-31
caryinstitute,41.7839,-73.7341,127,-0.438,2011-01-31
centralredwoods1,38.632272,-123.301511,200,0.762,2011-01-31
centralredwoods2,38.632272,-123.301511,200,0.762,2011-01-31
cperagm,40.8402,-104.7672,1644,-0.26,2011-01-31
cperheavy,40.8153,-104.7386,1652,0.096,2011-01-31
cpertgm,40.833,-104.76,1644,-0.156,2011-01-31
cperuvb,40.8055764,-104.7558542,1641,-0.156,2011-01-31
cuny,40.8162,-73.9507,42,-0.939,2011-01-31
doverdesaltmarsh,39.0888,-75.4368,0,-1.029,2011-01-31
downerwoods,43.07938,-87.88076,213,0.616,2011-01-31
dukehw,35.973583,-79.100371,400,-1.701,2011-01-31
ecb1,41.5348,-84.8068,275,-1.285,2011-01-31
ecb2,41.5321,-84.808,275,-1.285,2011-01-31
ecb4,41.1796,-83.0604,240,-1.123,2011-01-31
elverde,18.320654,-65.8199,312,-9999.0,2011-01-31
flagstaff,35.17961521,-111.6049032,6983,-0.544,2011-01-31
flagstaff2,35.179225,-111.604506,6983,-0.544,2011-01-31
flagstaffchimneysprings,35.257296,-111.678542,2250,-0.415,2011-01-31
forbes,39.232,-121.2972,360,0.749,2011-01-31
fortpaynealpasture1,34.3824,-85.6428,405,-1.125,2011-01-31
fortpaynealpasture2,34.3824,-85.6447,403,-1.125,2011-01-31
gcesapelo,31.4440444,-81.283528,0,-1.692,2011-01-31
gilberttract,38.0015,-121.6691,6,0.823,2011-01-31
glees,41.3644,-106.2394,3150,0.805,2011-01-31
glennorganicrice,39.6805,-122.0026,2,-0.08,2011-01-31
glennrice,39.5944,-122.0253,36,0.044,2011-01-31
goodnow,43.96018,-74.20994,820,0.211,2011-01-31
goodwater,39.22848,-92.11936,264,0.991,2011-01-31
goodwaterbau,39.23115,-92.15216,274,1.065,2011-01-31
grandteton,43.915017,-110.578036,2054,0.531,2011-01-31
grca1pj,36.0241,-112.2211,1978,-0.381,2011-01-31
greenridge1,39.6905,-78.4067,285,-1.553,2011-01-31
harvard,42.5378,-72.1715,340,-1.49,2011-01-31
harvardbarn,42.53532,-72.1899,350,-1.545,2011-01-31
harvardbarn2,42.53532,-72.1899,350,-1.545,2011-01-31
harvardems2,42.5378,-72.1715,340,-1.49,2011-01-31
harvardfarmnorth,42.520465,-72.182242,355,-1.545,2011-01-31
harvardfarmsouth,42.522466,-72.182339,355,-1.545,2011-01-31
harvardgarden,42.5291,-72.1863,335,-1.545,2011-01-31
harvardhemlock,42.539,-72.18,355,-1.545,2011-01-31
harvardhemlock2,42.539407,-72.177976,355,-1.49,2011-01-31
harvardlph,42.542,-72.185,380,-1.545,2011-01-31
hawbeckereddy,40.6608,-77.848849,310,-1.223,2011-01-31
hobcawclearcutlongleaf,33.3486,-79.232,4,-0.983,2011-01-31
hobcawmaturelongleaf,33.3242,-79.2439,8,-0.983,2011-01-31
homesteadsprings,37.2009,-92.9937,452,0.333,2011-01-31
howland1,45.2041,-68.7403,80,0.023,2011-01-31
howland2,45.2128,-68.7418,79,0.023,2011-01-31
hubbardbrook,43.9438,-71.701,253,0.401,2011-01-31
humnokericea,34.585192,-91.751684,61,-1.765,2011-01-31
humnokericec,34.588853,-91.7516729,70,-1.765,2011-01-31
huyckpreserveny,42.5266,-74.1587,478,-0.003,2011-01-31
hwmo1,20.0212,-155.7331,585,-9999.0,2011-01-31
hwmo2,19.9766,-155.8298,12,-9999.0,2011-01-31
hwmo5,20.1117,-155.8151,635,-9999.0,2011-01-31
ibp,32.589,-106.847,1325,-0.767,2011-01-31
imcrkfen,68.60583,-149.31101,900,-9999.0,2011-01-31
imcrkridge0,68.60681,-149.2958,951,-9999.0,2011-01-31
imcrkridge1,68.60681,-149.2958,951,-9999.0,2011-01-31
imcrktussock,68.60633,-149.30408,918,-9999.0,2011-01-31
jasperridge,37.402028,-122.22104,197,0.405,2011-01-31
jerbajada,32.57992,-106.633793,1402,-1.002,2011-01-31
jergrassland,32.5833,-106.8333,1331,-0.767,2011-01-31
jernort,32.619,-106.788,1328,-1.018,2011-01-31
jernovel,32.6335,-106.8334,1324,-0.855,2011-01-31
jernwern,32.6271,-106.7387,1325,-1.146,2011-01-31
jersand,32.515,-106.798,1363,-0.824,2011-01-31
jershrubland,32.6502,-106.8334,1328,-1.028,2011-01-31
junipersavannah,34.4254,-105.8615,1931,-1.064,2011-01-31
kamuela,20.015008,-155.661326,850,-9999.0,2011-01-31
kamuela2,20.014959,-155.661139,830,-9999.0,2011-01-31
kansas,39.0561,-95.1907,333,-0.266,2011-01-31
kelloggcorn,42.437536,-85.3225472,288,-0.969,2011-01-31
kempnrs,45.83992,-89.67755,539,0.519,2011-01-31
kendall,31.73652,-109.94185,1529,-1.013,2011-01-31
konza,39.0824,-96.5603,443,-0.353,2011-01-31
laupahoehoe,19.9322,-155.2912,1145,-9999.0,2011-01-31
ldeocam,41.0039,-73.9053,121,-0.894,2011-01-31
lostcreek,46.0827,-89.9792,480,0.699,2011-01-31
luckyhills,31.743896,-110.052023,1366,-1.087,2011-01-31
macleish,42.4484,-72.6804,251,-1.212,2011-01-31
macordway,44.8106,-93.0272,264,0.291,2011-01-31
mandanh5,46.775423,-100.95109,593,1.285,2011-01-31
mandani2,46.7614,-100.9257,590,1.258,2011-01-31
manilacotton,35.8872,-90.1371,73,-1.933,2011-01-31
marena,36.06434,-97.21271,327,-1.444,2011-01-31
mead1,41.1651,-96.4766,361,0.408,2011-01-31
mead2,41.1649,-96.4701,362,0.408,2011-01-31
mead3,41.1797,-96.4397,363,0.407,2011-01-31
meadpasture,41.1447,-96.4616,356,0.562,2011-01-31
meadpasturese,41.1447,-96.4616,356,0.562,2011-01-31
meadpasturesw,41.1447,-96.4616,356,0.562,2011-01-31
missouriozarks,38.7441,-92.2,219,0.479,2011-01-31
morganmonroe,39.3231,-86.4131,275,-1.279,2011-01-31
morganmonroe2,39.3231,-86.4131,275,-1.279,2011-01-31
nahuku,19.415187,-155.238383,1202,-9999.0,2011-01-31
nationalelkrefuge,43.488931,-110.737824,1899,0.495,2011-01-31
ncssm,36.018446,-78.92075,175,-1.417,2011-01-31
NEON.D01.BART.DP1.00033,44.063869,-71.287375,285,0.445,2011-01-31
NEON.D01.HARV.DP1.00033,42.536911,-72.17265,359,-1.49,2011-01-31
NEON.D01.HOPB.DP1.20002,42.471786,-72.329627,203,-1.467,2011-01-31
NEON.D02.BLAN.DP1.00033,39.033698,-78.041788,162,-1.134,2011-01-31
NEON.D02.LEWI.DP1.20002,39.09564,-77.98322,152,-1.343,2011-01-31
NEON.D02.POSE.DP1.20002,38.89332,-78.14678,293,-1.411,2011-01-31
NEON.D02.SCBI.DP1.00033,38.892925,-78.139494,364,-1.333,2011-01-31
NEON.D02.SERC.DP1.00033,38.89008,-76.56001,30,-0.173,2011-01-31
NEON.D03.BARC.DP1.20002,29.676473,-82.009089,35,-1.245,2011-01-31
NEON.D03.DSNY.DP1.00033,28.12505,-81.43619,22,-0.039,2011-01-31
NEON.D03.FLNT.DP1.20002,31.185424,-84.437403,27,-1.252,2011-01-31
NEON.D03.JERC.DP1.00033,31.194839,-84.468623,58,-1.335,2011-01-31
NEON.D03.OSBS.DP1.00033,29.689282,-81.993431,56,-1.203,2011-01-31
NEON.D03.SUGG.DP1.20002,29.687054,-82.016171,28,-1.203,2011-01-31
NEON.D04.CUPE.DP1.20002,18.11352,-66.98676,164,-9999.0,2011-01-31
NEON.D04.GUAN.DP1.00033,17.96955,-66.8687,136,-9999.0,2011-01-31
NEON.D04.GUIL.DP1.20002,18.1741,-66.79851,564,-9999.0,2011-01-31
NEON.D04.LAJA.DP1.00033,18.021261,-67.076889,22,-9999.0,2011-01-31
NEON.D05.CRAM.DP1.20002,46.21111,-89.47825,518,0.599,2011-01-31
NEON.D05.LIRO.DP1.20002,45.998269,-89.704767,495,0.585,2011-01-31
NEON.D05.STEI.DP1.00033,45.50894,-89.58637,476,0.142,2011-01-31
NEON.D05.TREE.DP1.00033,45.49373,-89.58572,474,0.142,2011-01-31
NEON.D05.UNDE.DP1.00033,46.23391,-89.537254,529,0.519,2011-01-31
NEON.D06.KING.DP1.20002,39.10506,-96.60336,339,-0.333,2011-01-31
NEON.D06.KONA.DP1.00033,39.110446,-96.612935,443,-0.333,2011-01-31
NEON.D06.KONZ.DP1.00033,39.10077,-96.56309,415,-0.353,2011-01-31
NEON.D06.MCDI.DP1.20002,38.94428,-96.44197,376,-0.237,2011-01-31
NEON.D06.UKFS.DP1.00033,39.040431,-95.19215,330,-0.266,2011-01-31
NEON.D07.GRSM.DP1.00033,35.68896,-83.50195,589,-0.581,2011-01-31
NEON.D07.LECO.DP1.20002,35.69043,-83.50379,578,-0.581,2011-01-31
NEON.D07.MLBS.DP1.00033,37.378314,-80.524847,1177,-1.323,2011-01-31
NEON.D07.ORNL.DP1.00033,35.964128,-84.282588,351,-0.149,2011-01-31
NEON.D07.WALK.DP1.20002,35.95947,-84.28041,274,-0.169,2011-01-31
NEON.D08.BLWA.DP1.20002,32.541529,-87.798151,23,-0.54,2011-01-31
NEON.D08.DELA.DP1.00033,32.541727,-87.803877,36,-0.54,2011-01-31
NEON.D08.LENO.DP1.00033,31.85388,-88.16122,10,-1.436,2011-01-31
NEON.D08.MAYF.DP1.20002,32.959657,-87.408128,93,-0.759,2011-01-31
NEON.D08.TALL.DP1.00033,32.95047,-87.393259,167,-0.759,2011-01-31
NEON.D08.TOMB.DP1.20002,31.853431,-88.158872,10,-1.436,2011-01-31
NEON.D09.DCFS.DP1.00033,47.161647,-99.106556,574,0.599,2011-01-31
NEON.D09.NOGP.DP1.00033,46.76972,-100.91535,589,1.258,2011-01-31
NEON.D09.PRLA.DP1.20002,47.15909,-99.11388,563,0.495,2011-01-31
NEON.D09.PRPO.DP1.20002,47.12999,-99.250551,587,0.514,2011-01-31
NEON.D09.WOOD.DP1.00033,47.1282,-99.241334,585,0.514,2011-01-31
NEON.D10.ARIK.DP1.20002,39.758246,-102.447103,1188,-0.724,2011-01-31
NEON.D10.CPER.DP1.00033,40.81553,-104.7456,1600,-0.156,2011-01-31
NEON.D10.HQTW.DP1.00033,40.016704,-105.245612,1601,-1.242,2011-01-31
NEON.D10.RMNP.DP1.00033,40.275903,-105.545955,2751,-0.4,2011-01-31
NEON.D10.STER.DP1.00033,40.461894,-103.02929,1366,-0.868,2011-01-31
NEON.D11.BLUE.DP1.20002,34.444218,-96.624201,288,-1.094,2011-01-31
NEON.D11.CLBJ.DP1.00033,33.40123,-97.57,279,-0.223,2011-01-31
NEON.D11.OAES.DP1.00033,35.41059,-99.05879,520,-1.625,2011-01-31
NEON.D11.PRIN.DP1.20002,33.37859,-97.78226,255,-0.639,2011-01-31
NEON.D12.BLDE.DP1.20002,44.95011,-110.58715,2035,-0.605,2011-01-31
NEON.D12.YELL.DP1.00033,44.95348,-110.53914,2130,-0.463,2011-01-31
NEON.D13.COMO.DP1.20002,40.03496,-105.54487,3036,-0.82,2011-01-31
NEON.D13.MOAB.DP1.00033,38.24833,-109.38827,1803,-0.644,2011-01-31
NEON.D13.NIWO.DP1.00033,40.05425,-105.58237,3493,-0.402,2011-01-31
NEON.D13.WLOU.DP1.20002,39.891366,-105.915395,2920,-0.875,2011-01-31
NEON.D14.JORN.DP1.00033,32.59068,-106.84254,1321,-0.767,2011-01-31
NEON.D14.SRER.DP1.00033,31.91068,-110.83549,999,-0.981,2011-01-31
NEON.D14.SYCA.DP1.20002,33.749057,-111.506903,644,-0.62,2011-01-31
NEON.D15.ONAQ.DP1.00033,40.177599,-112.452452,1655,0.117,2011-01-31
NEON.D15.REDB.DP1.20002,40.783934,-111.797887,1696,0.789,2011-01-31
NEON.D16.ABBY.DP1.00033,45.76243,-122.33033,390,0.998,2011-01-31
NEON.D16.MART.DP1.20002,45.791248,-121.931959,354,1.157,2011-01-31
NEON.D16.MCRA.DP1.20002,44.259598,-122.165554,880,1.27,2011-01-31
NEON.D16.WREF.DP1.00033,45.82049,-121.95191,368,1.052,2011-01-31
NEON.D17.BIGC.DP1.20002,37.059719,-119.257549,1133,1.242,2011-01-31
NEON.D17.SJER.DP1.00033,37.10878,-119.73228,398,1.628,2011-01-31
NEON.D17.SOAP.DP1.00033,37.03337,-119.26219,1210,1.34,2011-01-31
NEON.D17.TEAK.DP1.00033,37.00583,-119.00602,2149,1.256,2011-01-31
NEON.D17.TECR.DP1.20002,36.955931,-119.027363,2053,1.162,2011-01-31
NEON.D18.BARR.DP1.00033,71.28241,-156.61936,7,-9999.0,2011-01-31
NEON.D18.OKSR.DP1.20002,68.669753,-149.143018,773,-9999.0,2011-01-31
NEON.D18.TOOK.DP1.20002,68.629562,-149.610509,715,-9999.0,2011-01-31
NEON.D18.TOOL.DP1.00033,68.66109,-149.37047,827,-9999.0,2011-01-31
NEON.D19.BONA.DP1.00033,65.15401,-147.50258,233,-9999.0,2011-01-31
NEON.D19.CARI.DP1.20002,65.15306,-147.50246,229,-9999.0,2011-01-31
NEON.D19.DEJU.DP1.00033,63.88112,-145.75136,504,-9999.0,2011-01-31
NEON.D19.HEAL.DP1.00033,63.87569,-149.21334,409,-9999.0,2011-01-31
NEON.D20.PUUM.DP1.00033,19.55309,-155.31731,1683,-9999.0,2011-01-31
nevcansnk3a,39.0099,-114.3095,3063,0.872,2011-01-31
nevcanspg1a,38.9253,-114.4082,1792,0.282,2011-01-31
nevcanspg2a,38.8921,-114.3521,2203,0.455,2011-01-31
nevcanspg3a,38.8898,-114.3314,2820,0.785,2011-01-31
nevcanspg4a,38.9061,-114.3089,3360,0.785,2011-01-31
ninemileprairie,40.86801886,-96.82208066,381,0.065,2011-01-31
nist,39.139,-77.2125,100,-0.53,2011-01-31
niwot3,40.03286358,-105.5469702,3050,-0.82,2011-01-31
niwot5,40.03286358,-105.5469702,2993,-0.82,2011-01-31
northattleboroma,41.98369,-71.31056,60,0.265,2011-01-31
northinletsaltmarsh,33.3455,-79.1957,1,-1.409,2011-01-31
oakville,47.899334,-97.316139,268,0.379,2011-01-31
oregonMP,44.4523,-121.5574,1253,0.713,2011-01-31
oregonYP,44.32384,-121.605993,977,0.467,2011-01-31
oregonYPbud,44.3238,-121.606,977,0.467,2011-01-31
othshardwood,44.934805,-68.6655,41,-0.171,2011-01-31
othssoftwood,44.934527,-68.664888,41,-0.171,2011-01-31
pace,37.9229,-78.2739,100,-1.43,2011-01-31
parkschoolbuffalo,42.9637,-78.7834,205,0.039,2011-01-31
piedmontalpasture2,33.8875,-85.6935,238,-1.017,2011-01-31
portal,31.9385,-109.0823,1330,-0.743,2011-01-31
proctor,44.525,-72.866,403,0.394,2011-01-31
readingma,42.5304,-71.1272,100,-0.377,2011-01-31
robinson,37.4671,-83.1576,483,-0.811,2011-01-31
robinson2,37.4671,-83.1576,483,-0.811,2011-01-31
rosemountcons,44.6946,-93.0578,283,0.954,2011-01-31
rosemountconv,44.691,-93.0576,283,0.954,2011-01-31
rosemountnprs,44.6781,-93.0723,274,1.194,2011-01-31
russellsage,32.456961,-91.974322,20,-2.015,2011-01-31
sagehen,39.4315,-120.2398,1934,0.719,2011-01-31
sagehen2,39.4307,-120.2407,1937,0.719,2011-01-31
sagehen3,39.4311,-120.2405,1935,0.719,2011-01-31
sanford,42.726777,-84.464482,268,-1.394,2011-01-31
santacruz1,36.9741,-122.0308,11,0.361,2011-01-31
santacruz2,36.9741,-122.0308,11,0.361,2011-01-31
santaluciapreserve1,36.5265,-121.8682,500,0.655,2011-01-31
santaluciapreserve2,36.5265,-121.8682,500,0.655,2011-01-31
segaarboretum10,35.16209,-111.73151,2170,-0.385,2011-01-31
