site,lat,lon,elev,values,date
alligatorriver,35.7879,-75.9038,1,0.588,2015-01-05
arbutuslake,43.98207,-74.23322,535,-0.16,2015-01-05
arbutuslakeinlet,43.99336,-74.24527,527,-0.16,2015-01-05
archboldavir,27.176064,-81.21958,8,0.037,2015-01-05
archboldavirx,27.166627,-81.219828,8,0.037,2015-01-05
archboldbahia,27.1656,-81.216112,8,0.037,2015-01-05
archboldpnot,27.187948,-81.200345,9,0.037,2015-01-05
archboldpnotx,27.180677,-81.20068,9,0.037,2015-01-05
arkansascornsoy,34.416,-91.6723,61,-1.006,2015-01-05
arsbrooks10,41.9749,-93.6905,312,0.295,2015-01-05
arsbrooks11,41.9744,-93.6937,313,0.295,2015-01-05
arscolesnorth,42.4884,-93.5225,356,-0.202,2015-01-05
arscolessouth,42.4816,-93.5235,352,-0.202,2015-01-05
arsgacp1,31.5109,-83.6179,96,0.194,2015-01-05
arsgacp3,31.7563,-83.7516,139,-0.005,2015-01-05
arsgacp4,31.7093,-83.7287,127,0.219,2015-01-05
arsgreatbasinltar098,43.1675,-116.7132,1426,0.806,2015-01-05
arsgreatbasinltar117,43.1432,-116.7357,1625,0.671,2015-01-05
arsgreatbasinltar177,43.0645,-116.7484,2114,0.29,2015-01-05
arsltarmdcr,39.0587,-75.8513,17,-0.494,2015-01-05
arsltarmdcrnatw,39.0575,-75.7531,16,-0.557,2015-01-05
arsltarmdcrprcw,39.0667,-75.7609,17,-0.557,2015-01-05
arsltarmdcrresw,39.0549,-75.7532,16,-0.557,2015-01-05
arsltarucbec1,40.7537,-78.0057,400,-0.793,2015-01-05
arsltarucbec2,40.7558,-77.9999,396,-0.793,2015-01-05
arsmnswanlake1,45.684508,-95.799703,370,-0.65,2015-01-05
arsmorris1,45.6167,-96.1269,341,-0.461,2015-01-05
arsmorris2,45.627,-96.127,338,-0.461,2015-01-05
arsmorris3,45.6091,-96.1265,342,-0.461,2015-01-05
arsope3ltar,39.0309,-76.8442,41,-0.693,2015-01-05
ashburnham,42.6029,-71.926,292,-0.159,2015-01-05
asuhighlands,36.2076,-81.7032,1016,0.372,2015-01-05
austincary,29.738,-82.2188,44,-0.258,2015-01-05
barrow,71.28007453,-156.6091492,5,-9999.0,2015-01-05
bartlettir,44.0646,-71.2881,268,0.122,2015-01-05
bigtraillake,64.9194,-147.822,190,-9999.0,2015-01-05
bitterbrush001,48.154,-119.9456,667,1.122,2015-01-05
blackrockforest,41.3974,-74.0239,427,-1.594,2015-01-05
bnzblackspruce,64.6963,-148.3235,102,-9999.0,2015-01-05
bnzrichfen,64.70134,-148.31195,97,-9999.0,2015-01-05
bnzthermokarstbog,64.6955,-148.3208,104,-9999.0,2015-01-05
boglakepeatland,47.5051,-93.4893,416,-1.0,2015-01-05
bostoncommon,42.355912,-71.064145,10,-0.383,2015-01-05
bostonu,42.35041,-71.10438,10,-0.321,2015-01-05
bouldinalfalfa,38.0985,-121.4993,-5,0.368,2015-01-05
bouldincorn,38.109,-121.535,-5,0.375,2015-01-05
bozeman,45.783056,-110.777778,2332,0.89,2015-01-05
brackishimpoundment,33.2015,-79.2973,1,0.308,2015-01-05
bullshoals,36.562833,-93.06663,260,-0.763,2015-01-05
burnssagebrush,43.4712,-119.6909,1398,0.452,2015-01-05
butte,45.95304,-112.47964,1682,1.117,2015-01-05
butterice,39.5793,-121.858,33,0.429,2015-01-05
cafboydnorthltar01,46.755104,-117.126052,795,-0.753,2015-01-05
cafboydsouthltar01,46.751809,-117.128502,795,-0.753,2015-01-05
cafcookeastltar01,46.78152,-117.0821,794,-0.766,2015-01-05
cafcookwestltar01,46.784037,-117.09083,807,-0.766,2015-01-05
caryinstitute,41.7839,-73.7341,127,-1.47,2015-01-05
centralredwoods1,38.632272,-123.301511,200,0.855,2015-01-05
centralredwoods2,38.632272,-123.301511,200,0.855,2015-01-05
cperagm,40.8402,-104.7672,1644,0.477,2015-01-05
cperheavy,40.8153,-104.7386,1652,0.486,2015-01-05
cpertgm,40.833,-104.76,1644,0.368,2015-01-05
cperuvb,40.8055764,-104.7558542,1641,0.368,2015-01-05
cuny,40.8162,-73.9507,42,-1.09,2015-01-05
doverdesaltmarsh,39.0888,-75.4368,0,-0.271,2015-01-05
downerwoods,43.07938,-87.88076,213,-0.82,2015-01-05
dukehw,35.973583,-79.100371,400,-0.167,2015-01-05
ecb1,41.5348,-84.8068,275,-0.983,2015-01-05
ecb2,41.5321,-84.808,275,-0.983,2015-01-05
ecb4,41.1796,-83.0604,240,-1.376,2015-01-05
elverde,18.320654,-65.8199,312,-9999.0,2015-01-05
flagstaff,35.17961521,-111.6049032,6983,0.513,2015-01-05
flagstaff2,35.179225,-111.604506,6983,0.513,2015-01-05
flagstaffchimneysprings,35.257296,-111.678542,2250,0.272,2015-01-05
forbes,39.232,-121.2972,360,0.44,2015-01-05
fortpaynealpasture1,34.3824,-85.6428,405,-0.377,2015-01-05
fortpaynealpasture2,34.3824,-85.6447,403,-0.377,2015-01-05
gcesapelo,31.4440444,-81.283528,0,-0.315,2015-01-05
gilberttract,38.0015,-121.6691,6,0.691,2015-01-05
glees,41.3644,-106.2394,3150,0.713,2015-01-05
glennorganicrice,39.6805,-122.0026,2,0.882,2015-01-05
glennrice,39.5944,-122.0253,36,0.513,2015-01-05
goodnow,43.96018,-74.20994,820,-0.141,2015-01-05
goodwater,39.22848,-92.11936,264,0.147,2015-01-05
goodwaterbau,39.23115,-92.15216,274,0.127,2015-01-05
grandteton,43.915017,-110.578036,2054,1.479,2015-01-05
grca1pj,36.0241,-112.2211,1978,0.352,2015-01-05
greenridge1,39.6905,-78.4067,285,-1.049,2015-01-05
harvard,42.5378,-72.1715,340,-0.439,2015-01-05
harvardbarn,42.53532,-72.1899,350,-0.436,2015-01-05
harvardbarn2,42.53532,-72.1899,350,-0.436,2015-01-05
harvardems2,42.5378,-72.1715,340,-0.439,2015-01-05
harvardfarmnorth,42.520465,-72.182242,355,-0.436,2015-01-05
harvardfarmsouth,42.522466,-72.182339,355,-0.436,2015-01-05
harvardgarden,42.5291,-72.1863,335,-0.436,2015-01-05
harvardhemlock,42.539,-72.18,355,-0.436,2015-01-05
harvardhemlock2,42.539407,-72.177976,355,-0.439,2015-01-05
harvardlph,42.542,-72.185,380,-0.436,2015-01-05
hawbeckereddy,40.6608,-77.848849,310,-0.695,2015-01-05
hobcawclearcutlongleaf,33.3486,-79.232,4,0.393,2015-01-05
hobcawmaturelongleaf,33.3242,-79.2439,8,0.393,2015-01-05
homesteadsprings,37.2009,-92.9937,452,-0.885,2015-01-05
howland1,45.2041,-68.7403,80,0.304,2015-01-05
howland2,45.2128,-68.7418,79,0.304,2015-01-05
hubbardbrook,43.9438,-71.701,253,-0.133,2015-01-05
humnokericea,34.585192,-91.751684,61,-0.945,2015-01-05
humnokericec,34.588853,-91.7516729,70,-0.945,2015-01-05
huyckpreserveny,42.5266,-74.1587,478,-1.087,2015-01-05
hwmo1,20.0212,-155.7331,585,-9999.0,2015-01-05
hwmo2,19.9766,-155.8298,12,-9999.0,2015-01-05
hwmo5,20.1117,-155.8151,635,-9999.0,2015-01-05
ibp,32.589,-106.847,1325,0.809,2015-01-05
imcrkfen,68.60583,-149.31101,900,-9999.0,2015-01-05
imcrkridge0,68.60681,-149.2958,951,-9999.0,2015-01-05
imcrkridge1,68.60681,-149.2958,951,-9999.0,2015-01-05
imcrktussock,68.60633,-149.30408,918,-9999.0,2015-01-05
jasperridge,37.402028,-122.22104,197,1.116,2015-01-05
jerbajada,32.57992,-106.633793,1402,1.046,2015-01-05
jergrassland,32.5833,-106.8333,1331,0.809,2015-01-05
jernort,32.619,-106.788,1328,0.709,2015-01-05
jernovel,32.6335,-106.8334,1324,0.799,2015-01-05
jernwern,32.6271,-106.7387,1325,0.787,2015-01-05
jersand,32.515,-106.798,1363,0.83,2015-01-05
jershrubland,32.6502,-106.8334,1328,0.883,2015-01-05
junipersavannah,34.4254,-105.8615,1931,0.674,2015-01-05
kamuela,20.015008,-155.661326,850,-9999.0,2015-01-05
kamuela2,20.014959,-155.661139,830,-9999.0,2015-01-05
kansas,39.0561,-95.1907,333,-0.239,2015-01-05
kelloggcorn,42.437536,-85.3225472,288,-0.924,2015-01-05
kempnrs,45.83992,-89.67755,539,1.335,2015-01-05
kendall,31.73652,-109.94185,1529,1.664,2015-01-05
konza,39.0824,-96.5603,443,-0.775,2015-01-05
laupahoehoe,19.9322,-155.2912,1145,-9999.0,2015-01-05
ldeocam,41.0039,-73.9053,121,-1.227,2015-01-05
lostcreek,46.0827,-89.9792,480,0.961,2015-01-05
luckyhills,31.743896,-110.052023,1366,1.67,2015-01-05
macleish,42.4484,-72.6804,251,-0.113,2015-01-05
macordway,44.8106,-93.0272,264,-0.878,2015-01-05
mandanh5,46.775423,-100.95109,593,0.726,2015-01-05
mandani2,46.7614,-100.9257,590,0.71,2015-01-05
manilacotton,35.8872,-90.1371,73,-0.675,2015-01-05
marena,36.06434,-97.21271,327,-0.669,2015-01-05
mead1,41.1651,-96.4766,361,0.793,2015-01-05
mead2,41.1649,-96.4701,362,0.793,2015-01-05
mead3,41.1797,-96.4397,363,0.786,2015-01-05
meadpasture,41.1447,-96.4616,356,0.778,2015-01-05
meadpasturese,41.1447,-96.4616,356,0.778,2015-01-05
meadpasturesw,41.1447,-96.4616,356,0.778,2015-01-05
missouriozarks,38.7441,-92.2,219,-0.059,2015-01-05
morganmonroe,39.3231,-86.4131,275,0.041,2015-01-05
morganmonroe2,39.3231,-86.4131,275,0.041,2015-01-05
nahuku,19.415187,-155.238383,1202,-9999.0,2015-01-05
nationalelkrefuge,43.488931,-110.737824,1899,1.941,2015-01-05
ncssm,36.018446,-78.92075,175,0.211,2015-01-05
NEON.D01.BART.DP1.00033,44.063869,-71.287375,285,0.122,2015-01-05
NEON.D01.HARV.DP1.00033,42.536911,-72.17265,359,-0.439,2015-01-05
NEON.D01.HOPB.DP1.20002,42.471786,-72.329627,203,-0.614,2015-01-05
NEON.D02.BLAN.DP1.00033,39.033698,-78.041788,162,-0.602,2015-01-05
NEON.D02.LEWI.DP1.20002,39.09564,-77.98322,152,-0.648,2015-01-05
NEON.D02.POSE.DP1.20002,38.89332,-78.14678,293,-0.593,2015-01-05
NEON.D02.SCBI.DP1.00033,38.892925,-78.139494,364,-0.638,2015-01-05
NEON.D02.SERC.DP1.00033,38.89008,-76.56001,30,-0.698,2015-01-05
NEON.D03.BARC.DP1.20002,29.676473,-82.009089,35,-0.523,2015-01-05
NEON.D03.DSNY.DP1.00033,28.12505,-81.43619,22,-0.561,2015-01-05
NEON.D03.FLNT.DP1.20002,31.185424,-84.437403,27,-0.254,2015-01-05
NEON.D03.JERC.DP1.00033,31.194839,-84.468623,58,-0.313,2015-01-05
NEON.D03.OSBS.DP1.00033,29.689282,-81.993431,56,-0.495,2015-01-05
NEON.D03.SUGG.DP1.20002,29.687054,-82.016171,28,-0.495,2015-01-05
NEON.D04.CUPE.DP1.20002,18.11352,-66.98676,164,-9999.0,2015-01-05
NEON.D04.GUAN.DP1.00033,17.96955,-66.8687,136,-9999.0,2015-01-05
NEON.D04.GUIL.DP1.20002,18.1741,-66.79851,564,-9999.0,2015-01-05
NEON.D04.LAJA.DP1.00033,18.021261,-67.076889,22,-9999.0,2015-01-05
NEON.D05.CRAM.DP1.20002,46.21111,-89.47825,518,1.051,2015-01-05
NEON.D05.LIRO.DP1.20002,45.998269,-89.704767,495,1.115,2015-01-05
NEON.D05.STEI.DP1.00033,45.50894,-89.58637,476,1.356,2015-01-05
NEON.D05.TREE.DP1.00033,45.49373,-89.58572,474,1.356,2015-01-05
NEON.D05.UNDE.DP1.00033,46.23391,-89.537254,529,1.036,2015-01-05
NEON.D06.KING.DP1.20002,39.10506,-96.60336,339,-0.798,2015-01-05
NEON.D06.KONA.DP1.00033,39.110446,-96.612935,443,-0.798,2015-01-05
NEON.D06.KONZ.DP1.00033,39.10077,-96.56309,415,-0.775,2015-01-05
NEON.D06.MCDI.DP1.20002,38.94428,-96.44197,376,-0.67,2015-01-05
NEON.D06.UKFS.DP1.00033,39.040431,-95.19215,330,-0.239,2015-01-05
NEON.D07.GRSM.DP1.00033,35.68896,-83.50195,589,0.756,2015-01-05
NEON.D07.LECO.DP1.20002,35.69043,-83.50379,578,0.756,2015-01-05
NEON.D07.MLBS.DP1.00033,37.378314,-80.524847,1177,0.592,2015-01-05
NEON.D07.ORNL.DP1.00033,35.964128,-84.282588,351,0.247,2015-01-05
NEON.D07.WALK.DP1.20002,35.95947,-84.28041,274,0.191,2015-01-05
NEON.D08.BLWA.DP1.20002,32.541529,-87.798151,23,-1.199,2015-01-05
NEON.D08.DELA.DP1.00033,32.541727,-87.803877,36,-1.199,2015-01-05
NEON.D08.LENO.DP1.00033,31.85388,-88.16122,10,-1.182,2015-01-05
NEON.D08.MAYF.DP1.20002,32.959657,-87.408128,93,-0.792,2015-01-05
NEON.D08.TALL.DP1.00033,32.95047,-87.393259,167,-0.792,2015-01-05
NEON.D08.TOMB.DP1.20002,31.853431,-88.158872,10,-1.182,2015-01-05
NEON.D09.DCFS.DP1.00033,47.161647,-99.106556,574,-0.307,2015-01-05
NEON.D09.NOGP.DP1.00033,46.76972,-100.91535,589,0.71,2015-01-05
NEON.D09.PRLA.DP1.20002,47.15909,-99.11388,563,-0.295,2015-01-05
NEON.D09.PRPO.DP1.20002,47.12999,-99.250551,587,-0.26,2015-01-05
NEON.D09.WOOD.DP1.00033,47.1282,-99.241334,585,-0.26,2015-01-05
NEON.D10.ARIK.DP1.20002,39.758246,-102.447103,1188,0.04,2015-01-05
NEON.D10.CPER.DP1.00033,40.81553,-104.7456,1600,0.368,2015-01-05
NEON.D10.HQTW.DP1.00033,40.016704,-105.245612,1601,0.46,2015-01-05
NEON.D10.RMNP.DP1.00033,40.275903,-105.545955,2751,0.479,2015-01-05
NEON.D10.STER.DP1.00033,40.461894,-103.02929,1366,0.854,2015-01-05
NEON.D11.BLUE.DP1.20002,34.444218,-96.624201,288,-0.601,2015-01-05
NEON.D11.CLBJ.DP1.00033,33.40123,-97.57,279,-0.566,2015-01-05
NEON.D11.OAES.DP1.00033,35.41059,-99.05879,520,-0.617,2015-01-05
NEON.D11.PRIN.DP1.20002,33.37859,-97.78226,255,-0.684,2015-01-05
NEON.D12.BLDE.DP1.20002,44.95011,-110.58715,2035,0.793,2015-01-05
NEON.D12.YELL.DP1.00033,44.95348,-110.53914,2130,1.078,2015-01-05
NEON.D13.COMO.DP1.20002,40.03496,-105.54487,3036,0.183,2015-01-05
NEON.D13.MOAB.DP1.00033,38.24833,-109.38827,1803,0.941,2015-01-05
NEON.D13.NIWO.DP1.00033,40.05425,-105.58237,3493,0.688,2015-01-05
NEON.D13.WLOU.DP1.20002,39.891366,-105.915395,2920,0.956,2015-01-05
NEON.D14.JORN.DP1.00033,32.59068,-106.84254,1321,0.809,2015-01-05
NEON.D14.SRER.DP1.00033,31.91068,-110.83549,999,0.836,2015-01-05
NEON.D14.SYCA.DP1.20002,33.749057,-111.506903,644,0.814,2015-01-05
NEON.D15.ONAQ.DP1.00033,40.177599,-112.452452,1655,1.189,2015-01-05
NEON.D15.REDB.DP1.20002,40.783934,-111.797887,1696,1.062,2015-01-05
NEON.D16.ABBY.DP1.00033,45.76243,-122.33033,390,-0.247,2015-01-05
NEON.D16.MART.DP1.20002,45.791248,-121.931959,354,0.019,2015-01-05
NEON.D16.MCRA.DP1.20002,44.259598,-122.165554,880,0.578,2015-01-05
NEON.D16.WREF.DP1.00033,45.82049,-121.95191,368,0.042,2015-01-05
NEON.D17.BIGC.DP1.20002,37.059719,-119.257549,1133,-0.6,2015-01-05
NEON.D17.SJER.DP1.00033,37.10878,-119.73228,398,-0.683,2015-01-05
NEON.D17.SOAP.DP1.00033,37.03337,-119.26219,1210,-0.608,2015-01-05
NEON.D17.TEAK.DP1.00033,37.00583,-119.00602,2149,-0.707,2015-01-05
NEON.D17.TECR.DP1.20002,36.955931,-119.027363,2053,-0.743,2015-01-05
NEON.D18.BARR.DP1.00033,71.28241,-156.61936,7,-9999.0,2015-01-05
NEON.D18.OKSR.DP1.20002,68.669753,-149.143018,773,-9999.0,2015-01-05
NEON.D18.TOOK.DP1.20002,68.629562,-149.610509,715,-9999.0,2015-01-05
NEON.D18.TOOL.DP1.00033,68.66109,-149.37047,827,-9999.0,2015-01-05
NEON.D19.BONA.DP1.00033,65.15401,-147.50258,233,-9999.0,2015-01-05
NEON.D19.CARI.DP1.20002,65.15306,-147.50246,229,-9999.0,2015-01-05
NEON.D19.DEJU.DP1.00033,63.88112,-145.75136,504,-9999.0,2015-01-05
NEON.D19.HEAL.DP1.00033,63.87569,-149.21334,409,-9999.0,2015-01-05
NEON.D20.PUUM.DP1.00033,19.55309,-155.31731,1683,-9999.0,2015-01-05
nevcansnk3a,39.0099,-114.3095,3063,1.152,2015-01-05
nevcanspg1a,38.9253,-114.4082,1792,1.69,2015-01-05
nevcanspg2a,38.8921,-114.3521,2203,1.532,2015-01-05
nevcanspg3a,38.8898,-114.3314,2820,1.215,2015-01-05
nevcanspg4a,38.9061,-114.3089,3360,1.215,2015-01-05
ninemileprairie,40.86801886,-96.82208066,381,0.952,2015-01-05
nist,39.139,-77.2125,100,-0.537,2015-01-05
niwot3,40.03286358,-105.5469702,3050,0.183,2015-01-05
niwot5,40.03286358,-105.5469702,2993,0.183,2015-01-05
northattleboroma,41.98369,-71.31056,60,-0.863,2015-01-05
northinletsaltmarsh,33.3455,-79.1957,1,0.412,2015-01-05
oakville,47.899334,-97.316139,268,-0.581,2015-01-05
oregonMP,44.4523,-121.5574,1253,0.908,2015-01-05
oregonYP,44.32384,-121.605993,977,0.741,2015-01-05
oregonYPbud,44.3238,-121.606,977,0.741,2015-01-05
othshardwood,44.934805,-68.6655,41,0.527,2015-01-05
othssoftwood,44.934527,-68.664888,41,0.527,2015-01-05
pace,37.9229,-78.2739,100,-0.619,2015-01-05
parkschoolbuffalo,42.9637,-78.7834,205,-0.739,2015-01-05
piedmontalpasture2,33.8875,-85.6935,238,-0.405,2015-01-05
portal,31.9385,-109.0823,1330,1.516,2015-01-05
proctor,44.525,-72.866,403,-0.576,2015-01-05
readingma,42.5304,-71.1272,100,-0.012,2015-01-05
robinson,37.4671,-83.1576,483,0.827,2015-01-05
robinson2,37.4671,-83.1576,483,0.827,2015-01-05
rosemountcons,44.6946,-93.0578,283,-0.913,2015-01-05
rosemountconv,44.691,-93.0576,283,-0.913,2015-01-05
rosemountnprs,44.6781,-93.0723,274,-0.868,2015-01-05
russellsage,32.456961,-91.974322,20,-0.382,2015-01-05
sagehen,39.4315,-120.2398,1934,0.089,2015-01-05
sagehen2,39.4307,-120.2407,1937,0.089,2015-01-05
sagehen3,39.4311,-120.2405,1935,0.089,2015-01-05
sanford,42.726777,-84.464482,268,-0.59,2015-01-05
santacruz1,36.9741,-122.0308,11,0.525,2015-01-05
santacruz2,36.9741,-122.0308,11,0.525,2015-01-05
santaluciapreserve1,36.5265,-121.8682,500,1.277,2015-01-05
santaluciapreserve2,36.5265,-121.8682,500,1.277,2015-01-05
segaarboretum10,35.16209,-111.73151,2170,0.472,2015-01-05
segaarboretum2,35.16209,-111.73151,2170,0.472,2015-01-05
segaarboretum3,35.16209,-111.73151,2170,0.472,2015-01-05
segaarboretum4,35.16214,-111.73153,2170,0.472,2015-01-05
segaarboretum6,35.16209,-111.73151,2170,0.472,2015-01-05
segaarboretum9,35.16222,-111.73158,2170,0.472,2015-01-05
segaarboretumforest,35.1613,-111.7359,2173,0.472,2015-01-05
segaarboretummeadow,35.1621,-111.7316,2157,0.472,2015-01-05
segablackpoint,35.6814,-111.4754,1566,0.406,2015-01-05
segabluechute,35.5876,-111.9716,1930,0.25,2015-01-05
segabluechute1,35.58759,-111.97115,1931,0.25,2015-01-05
segabluechute2,35.58759,-111.97115,1931,0.25,2015-01-05
segabluechute4,35.58759,-111.9716,1931,0.25,2015-01-05
segabluechute6,35.58759,-111.97115,1931,0.25,2015-01-05
segabluechute7,35.58759,-111.97115,1931,0.25,2015-01-05
segabluechute8,35.58759,-111.97115,1931,0.25,2015-01-05
segabradshaw,34.9109,-111.9285,1402,0.604,2015-01-05
segahartprairie,35.3536,-111.7324,2585,-0.028,2015-01-05
segalcr,35.7231,-111.321,1275,0.248,2015-01-05
segalcr2,35.7069,-111.36,1495,0.262,2015-01-05
segalittlemountain,36.5865,-112.3634,2276,0.3,2015-01-05
segasoapcreek,36.751,-111.716,1233,0.295,2015-01-05
segawhitepockets,36.6081,-112.4082,2057,0.364,2015-01-05
sevilletagrass,34.360444,-106.700186,1600,1.0,2015-01-05
sevilletanewgrass,34.358,-106.6799,1603,1.005,2015-01-05
sevilletashrub,34.334956,-106.744469,1603,0.926,2015-01-05
sevMRME10L,34.3438,-106.7269,1604,0.96,2015-01-05
sevMRME11C,34.3438,-106.7268,1604,0.96,2015-01-05
sevMRME1S,34.3442,-106.7272,1604,0.96,2015-01-05
sevpjrm12,34.38615,-106.52621,1905,0.917,2015-01-05
sevpjrm13,34.38631,-106.52791,1914,0.917,2015-01-05
shalehillsczo,40.6658,-77.9041,310,-0.725,2015-01-05
shenandoah,38.6167,-78.35,1037,-0.922,2015-01-05
silverton,44.9986,-122.6948,347,-0.463,2015-01-05
siwetland,38.0369,-121.7546,-5,0.862,2015-01-05
slatefloodplain,38.9094,-107.0282,2725,0.677,2015-01-05
snodgrass1,38.92619636,-106.9714376,3023,0.609,2015-01-05
snodgrass2,38.92619636,-106.9714376,3023,0.609,2015-01-05
snodgrass3,38.92839978,-106.9781196,3141,0.609,2015-01-05
snodgrass4,38.92839978,-106.9781196,3141,0.609,2015-01-05
snodgrass5,38.92744789,-106.9785209,3152,0.609,2015-01-05
snodgrass6,38.92744789,-106.9785209,3152,0.609,2015-01-05
snodgrass7,38.93142134,-106.9852388,3363,0.676,2015-01-05
snodgrass8,38.93142134,-106.9852388,3363,0.676,2015-01-05
southerngreatplains,36.6058,-97.4888,314,-0.604,2015-01-05
springfieldma,42.135162,-72.585972,56,-0.366,2015-01-05
spruceA0EMI,47.5049,-93.4541,413,-1.033,2015-01-05
spruceA0EMT,47.5049,-93.4541,418,-1.033,2015-01-05
spruceA0P07,47.50493,-93.45314,413,-1.033,2015-01-05
spruceA0P07SH,47.50493,-93.45314,413,-1.033,2015-01-05
spruceA0P21,47.50625,-93.45275,413,-1.033,2015-01-05
spruceA0P21SH,47.50625,-93.45275,413,-1.033,2015-01-05
srg,31.7894,-110.8276,1281,1.017,2015-01-05
srm,31.8214,-110.8661,1116,0.997,2015-01-05
statenrice1,38.1235,-121.549,-5,0.386,2015-01-05
stjones,39.088222,-75.43725,2,-0.271,2015-01-05
sweetbriar,37.57341,-79.08482,242,-0.499,2015-01-05
sweetbriarclearcut,37.5753,-79.0872,242,-0.499,2015-01-05
sweetbriargrass,37.5605,-79.0884,240,-0.499,2015-01-05
sylvania,46.242,-89.348,540,1.283,2015-01-05
templefieldstation1,40.1667,-75.1894,105,-1.117,2015-01-05
tfforest,43.1086,-70.9505,23,-0.326,2015-01-05
tidmarshplymouth,41.9157,-70.5754,9,0.047,2015-01-05
tonzi,38.43091667,-120.9658861,177,0.48,2015-01-05
townsenddemeadow,39.3917,-75.6281,11,-0.35,2015-01-05
tsubiology,36.1671,-86.8295,164,-0.241,2015-01-05
tsubiology2,36.1171,-86.8295,100,-0.324,2015-01-05
tuckerprairie,38.9491,-91.9952,274,0.436,2015-01-05
twodafo,29.1658,-95.829,16,0.221,2015-01-05
tworfaa,31.4777,-96.8882,167,-0.686,2015-01-05
tworfpr,31.4802,-96.8826,162,-0.717,2015-01-05
tworfta,31.4693,-96.8864,173,-0.686,2015-01-05
twosfpr,30.6176,-97.2938,157,-0.172,2015-01-05
ucnrsanzaborrego,33.2401,-116.3886,214,0.301,2015-01-05
ufona,27.3836,-81.950856,25,0.471,2015-01-05
uiefmaize2,40.0628,-88.1961,224,-0.575,2015-01-05
uiefmiscanthus2,40.0628,-88.1984,221,-0.575,2015-01-05
uiefprairie2,40.0637,-88.1973,224,-0.575,2015-01-05
uiefsorghum,40.0065,-88.2032,224,-0.702,2015-01-05
uiefswitchgrass2,40.0637,-88.1973,224,-0.575,2015-01-05
umichbiological,45.55984,-84.71382,230,2.122,2015-01-05
umichbiological2,45.5625,-84.6976,240,2.062,2015-01-05
unca,35.5951,-82.5515,650,0.272,2015-01-05
usgseros,43.7343,-96.6234,448,-0.319,2015-01-05
usmpj,34.43845,-106.2543606,2126,0.575,2015-01-05
usof5,35.7297,-90.0406,70,-0.856,2015-01-05
usof6,35.7333,-90.0403,70,-0.856,2015-01-05
uwmfieldsta,43.38709,-88.0229,265,-0.756,2015-01-05
vaira,38.41328056,-120.9506361,129,0.48,2015-01-05
vallesburnedconifer,35.8884,-106.5321,3043,-0.552,2015-01-05
vallesmixedconifer,35.9192,-106.6142,2752,-0.473,2015-01-05
vallesponderosapine,35.864,-106.5964,2501,-0.452,2015-01-05
waahila,21.3017,-157.8152,55,-9999.0,2015-01-05
warrenwilson,35.6069,-82.4421,2198,0.488,2015-01-05
willamettepoplar,44.1368,-123.1823,112,-0.302,2015-01-05
willowcreek,45.805986,-90.07912,521,1.225,2015-01-05
windriver,45.8212833,-121.9520833,371,0.042,2015-01-05
windriverunderstory,45.8212833,-121.9520833,371,0.042,2015-01-05
wolfesneckfarm,43.8305,-70.0715,16,0.392,2015-01-05
worcester,42.2697,-71.8428,185,-0.423,2015-01-05
alligatorriver,35.7879,-75.9038,1,0.358,2015-01-12
arbutuslake,43.98207,-74.23322,535,0.223,2015-01-12
arbutuslakeinlet,43.99336,-74.24527,527,0.223,2015-01-12
archboldavir,27.176064,-81.21958,8,0.111,2015-01-12
archboldavirx,27.166627,-81.219828,8,0.111,2015-01-12
archboldbahia,27.1656,-81.216112,8,0.111,2015-01-12
archboldpnot,27.187948,-81.200345,9,0.111,2015-01-12
archboldpnotx,27.180677,-81.20068,9,0.111,2015-01-12
arkansascornsoy,34.416,-91.6723,61,-0.958,2015-01-12
arsbrooks10,41.9749,-93.6905,312,0.6,2015-01-12
arsbrooks11,41.9744,-93.6937,313,0.6,2015-01-12
arscolesnorth,42.4884,-93.5225,356,-0.089,2015-01-12
arscolessouth,42.4816,-93.5235,352,-0.089,2015-01-12
arsgacp1,31.5109,-83.6179,96,0.278,2015-01-12
arsgacp3,31.7563,-83.7516,139,-0.007,2015-01-12
arsgacp4,31.7093,-83.7287,127,0.197,2015-01-12
arsgreatbasinltar098,43.1675,-116.7132,1426,0.642,2015-01-12
arsgreatbasinltar117,43.1432,-116.7357,1625,0.43,2015-01-12
arsgreatbasinltar177,43.0645,-116.7484,2114,0.022,2015-01-12
arsltarmdcr,39.0587,-75.8513,17,-0.405,2015-01-12
arsltarmdcrnatw,39.0575,-75.7531,16,-0.485,2015-01-12
arsltarmdcrprcw,39.0667,-75.7609,17,-0.485,2015-01-12
arsltarmdcrresw,39.0549,-75.7532,16,-0.485,2015-01-12
arsltarucbec1,40.7537,-78.0057,400,-0.686,2015-01-12
arsltarucbec2,40.7558,-77.9999,396,-0.686,2015-01-12
arsmnswanlake1,45.684508,-95.799703,370,-0.71,2015-01-12
arsmorris1,45.6167,-96.1269,341,-0.425,2015-01-12
arsmorris2,45.627,-96.127,338,-0.425,2015-01-12
arsmorris3,45.6091,-96.1265,342,-0.425,2015-01-12
arsope3ltar,39.0309,-76.8442,41,-0.458,2015-01-12
ashburnham,42.6029,-71.926,292,0.085,2015-01-12
asuhighlands,36.2076,-81.7032,1016,0.268,2015-01-12
austincary,29.738,-82.2188,44,-0.221,2015-01-12
barrow,71.28007453,-156.6091492,5,-9999.0,2015-01-12
bartlettir,44.0646,-71.2881,268,0.201,2015-01-12
bigtraillake,64.9194,-147.822,190,-9999.0,2015-01-12
bitterbrush001,48.154,-119.9456,667,0.747,2015-01-12
blackrockforest,41.3974,-74.0239,427,-1.422,2015-01-12
bnzblackspruce,64.6963,-148.3235,102,-9999.0,2015-01-12
bnzrichfen,64.70134,-148.31195,97,-9999.0,2015-01-12
bnzthermokarstbog,64.6955,-148.3208,104,-9999.0,2015-01-12
boglakepeatland,47.5051,-93.4893,416,-0.958,2015-01-12
bostoncommon,42.355912,-71.064145,10,-0.115,2015-01-12
bostonu,42.35041,-71.10438,10,-0.049,2015-01-12
bouldinalfalfa,38.0985,-121.4993,-5,0.073,2015-01-12
bouldincorn,38.109,-121.535,-5,0.082,2015-01-12
bozeman,45.783056,-110.777778,2332,1.251,2015-01-12
brackishimpoundment,33.2015,-79.2973,1,-0.016,2015-01-12
bullshoals,36.562833,-93.06663,260,-0.602,2015-01-12
burnssagebrush,43.4712,-119.6909,1398,0.188,2015-01-12
butte,45.95304,-112.47964,1682,1.246,2015-01-12
butterice,39.5793,-121.858,33,0.205,2015-01-12
cafboydnorthltar01,46.755104,-117.126052,795,-0.893,2015-01-12
cafboydsouthltar01,46.751809,-117.128502,795,-0.893,2015-01-12
cafcookeastltar01,46.78152,-117.0821,794,-0.884,2015-01-12
cafcookwestltar01,46.784037,-117.09083,807,-0.884,2015-01-12
caryinstitute,41.7839,-73.7341,127,-1.356,2015-01-12
centralredwoods1,38.632272,-123.301511,200,0.599,2015-01-12
centralredwoods2,38.632272,-123.301511,200,0.599,2015-01-12
cperagm,40.8402,-104.7672,1644,0.881,2015-01-12
cperheavy,40.8153,-104.7386,1652,0.931,2015-01-12
cpertgm,40.833,-104.76,1644,0.8,2015-01-12
cperuvb,40.8055764,-104.7558542,1641,0.8,2015-01-12
cuny,40.8162,-73.9507,42,-0.91,2015-01-12
doverdesaltmarsh,39.0888,-75.4368,0,-0.198,2015-01-12
downerwoods,43.07938,-87.88076,213,-0.524,2015-01-12
dukehw,35.973583,-79.100371,400,-0.322,2015-01-12
ecb1,41.5348,-84.8068,275,-0.752,2015-01-12
ecb2,41.5321,-84.808,275,-0.752,2015-01-12
ecb4,41.1796,-83.0604,240,-1.227,2015-01-12
elverde,18.320654,-65.8199,312,-9999.0,2015-01-12
flagstaff,35.17961521,-111.6049032,6983,0.491,2015-01-12
flagstaff2,35.179225,-111.604506,6983,0.491,2015-01-12
flagstaffchimneysprings,35.257296,-111.678542,2250,0.242,2015-01-12
forbes,39.232,-121.2972,360,0.188,2015-01-12
fortpaynealpasture1,34.3824,-85.6428,405,-0.397,2015-01-12
fortpaynealpasture2,34.3824,-85.6447,403,-0.397,2015-01-12
gcesapelo,31.4440444,-81.283528,0,-0.44,2015-01-12
gilberttract,38.0015,-121.6691,6,0.43,2015-01-12
glees,41.3644,-106.2394,3150,0.956,2015-01-12
glennorganicrice,39.6805,-122.0026,2,0.566,2015-01-12
glennrice,39.5944,-122.0253,36,0.29,2015-01-12
goodnow,43.96018,-74.20994,820,0.229,2015-01-12
goodwater,39.22848,-92.11936,264,0.388,2015-01-12
goodwaterbau,39.23115,-92.15216,274,0.367,2015-01-12
grandteton,43.915017,-110.578036,2054,1.724,2015-01-12
grca1pj,36.0241,-112.2211,1978,0.345,2015-01-12
greenridge1,39.6905,-78.4067,285,-0.955,2015-01-12
harvard,42.5378,-72.1715,340,-0.205,2015-01-12
harvardbarn,42.53532,-72.1899,350,-0.204,2015-01-12
harvardbarn2,42.53532,-72.1899,350,-0.204,2015-01-12
harvardems2,42.5378,-72.1715,340,-0.205,2015-01-12
harvardfarmnorth,42.520465,-72.182242,355,-0.204,2015-01-12
harvardfarmsouth,42.522466,-72.182339,355,-0.204,2015-01-12
harvardgarden,42.5291,-72.1863,335,-0.204,2015-01-12
harvardhemlock,42.539,-72.18,355,-0.204,2015-01-12
harvardhemlock2,42.539407,-72.177976,355,-0.205,2015-01-12
harvardlph,42.542,-72.185,380,-0.204,2015-01-12
hawbeckereddy,40.6608,-77.848849,310,-0.586,2015-01-12
hobcawclearcutlongleaf,33.3486,-79.232,4,0.11,2015-01-12
hobcawmaturelongleaf,33.3242,-79.2439,8,0.11,2015-01-12
homesteadsprings,37.2009,-92.9937,452,-0.761,2015-01-12
howland1,45.2041,-68.7403,80,0.46,2015-01-12
howland2,45.2128,-68.7418,79,0.46,2015-01-12
hubbardbrook,43.9438,-71.701,253,-0.054,2015-01-12
humnokericea,34.585192,-91.751684,61,-1.048,2015-01-12
humnokericec,34.588853,-91.7516729,70,-1.048,2015-01-12
huyckpreserveny,42.5266,-74.1587,478,-0.915,2015-01-12
hwmo1,20.0212,-155.7331,585,-9999.0,2015-01-12
hwmo2,19.9766,-155.8298,12,-9999.0,2015-01-12
hwmo5,20.1117,-155.8151,635,-9999.0,2015-01-12
ibp,32.589,-106.847,1325,1.052,2015-01-12
imcrkfen,68.60583,-149.31101,900,-9999.0,2015-01-12
imcrkridge0,68.60681,-149.2958,951,-9999.0,2015-01-12
imcrkridge1,68.60681,-149.2958,951,-9999.0,2015-01-12
imcrktussock,68.60633,-149.30408,918,-9999.0,2015-01-12
jasperridge,37.402028,-122.22104,197,0.914,2015-01-12
jerbajada,32.57992,-106.633793,1402,1.255,2015-01-12
jergrassland,32.5833,-106.8333,1331,1.052,2015-01-12
jernort,32.619,-106.788,1328,0.983,2015-01-12
jernovel,32.6335,-106.8334,1324,1.056,2015-01-12
jernwern,32.6271,-106.7387,1325,1.058,2015-01-12
jersand,32.515,-106.798,1363,1.051,2015-01-12
jershrubland,32.6502,-106.8334,1328,1.151,2015-01-12
junipersavannah,34.4254,-105.8615,1931,0.883,2015-01-12
kamuela,20.015008,-155.661326,850,-9999.0,2015-01-12
kamuela2,20.014959,-155.661139,830,-9999.0,2015-01-12
kansas,39.0561,-95.1907,333,-0.017,2015-01-12
kelloggcorn,42.437536,-85.3225472,288,-0.659,2015-01-12
kempnrs,45.83992,-89.67755,539,1.516,2015-01-12
kendall,31.73652,-109.94185,1529,1.715,2015-01-12
konza,39.0824,-96.5603,443,-0.522,2015-01-12
laupahoehoe,19.9322,-155.2912,1145,-9999.0,2015-01-12
ldeocam,41.0039,-73.9053,121,-1.056,2015-01-12
lostcreek,46.0827,-89.9792,480,1.127,2015-01-12
luckyhills,31.743896,-110.052023,1366,1.709,2015-01-12
macleish,42.4484,-72.6804,251,0.146,2015-01-12
macordway,44.8106,-93.0272,264,-0.774,2015-01-12
mandanh5,46.775423,-100.95109,593,0.792,2015-01-12
mandani2,46.7614,-100.9257,590,0.781,2015-01-12
manilacotton,35.8872,-90.1371,73,-0.649,2015-01-12
marena,36.06434,-97.21271,327,-0.579,2015-01-12
mead1,41.1651,-96.4766,361,1.052,2015-01-12
mead2,41.1649,-96.4701,362,1.052,2015-01-12
mead3,41.1797,-96.4397,363,1.048,2015-01-12
meadpasture,41.1447,-96.4616,356,1.034,2015-01-12
meadpasturese,41.1447,-96.4616,356,1.034,2015-01-12
meadpasturesw,41.1447,-96.4616,356,1.034,2015-01-12
missouriozarks,38.7441,-92.2,219,0.156,2015-01-12
morganmonroe,39.3231,-86.4131,275,0.178,2015-01-12
morganmonroe2,39.3231,-86.4131,275,0.178,2015-01-12
nahuku,19.415187,-155.238383,1202,-9999.0,2015-01-12
nationalelkrefuge,43.488931,-110.737824,1899,2.095,2015-01-12
ncssm,36.018446,-78.92075,175,-0.12,2015-01-12
NEON.D01.BART.DP1.00033,44.063869,-71.287375,285,0.201,2015-01-12
NEON.D01.HARV.DP1.00033,42.536911,-72.17265,359,-0.205,2015-01-12
NEON.D01.HOPB.DP1.20002,42.471786,-72.329627,203,-0.468,2015-01-12
NEON.D02.BLAN.DP1.00033,39.033698,-78.041788,162,-0.446,2015-01-12
NEON.D02.LEWI.DP1.20002,39.09564,-77.98322,152,-0.504,2015-01-12
NEON.D02.POSE.DP1.20002,38.89332,-78.14678,293,-0.494,2015-01-12
NEON.D02.SCBI.DP1.00033,38.892925,-78.139494,364,-0.593,2015-01-12
NEON.D02.SERC.DP1.00033,38.89008,-76.56001,30,-0.543,2015-01-12
NEON.D03.BARC.DP1.20002,29.676473,-82.009089,35,-0.496,2015-01-12
NEON.D03.DSNY.DP1.00033,28.12505,-81.43619,22,-0.571,2015-01-12
NEON.D03.FLNT.DP1.20002,31.185424,-84.437403,27,-0.211,2015-01-12
NEON.D03.JERC.DP1.00033,31.194839,-84.468623,58,-0.279,2015-01-12
NEON.D03.OSBS.DP1.00033,29.689282,-81.993431,56,-0.457,2015-01-12
NEON.D03.SUGG.DP1.20002,29.687054,-82.016171,28,-0.457,2015-01-12
NEON.D04.CUPE.DP1.20002,18.11352,-66.98676,164,-9999.0,2015-01-12
NEON.D04.GUAN.DP1.00033,17.96955,-66.8687,136,-9999.0,2015-01-12
NEON.D04.GUIL.DP1.20002,18.1741,-66.79851,564,-9999.0,2015-01-12
NEON.D04.LAJA.DP1.00033,18.021261,-67.076889,22,-9999.0,2015-01-12
NEON.D05.CRAM.DP1.20002,46.21111,-89.47825,518,1.244,2015-01-12
NEON.D05.LIRO.DP1.20002,45.998269,-89.704767,495,1.342,2015-01-12
NEON.D05.STEI.DP1.00033,45.50894,-89.58637,476,1.552,2015-01-12
NEON.D05.TREE.DP1.00033,45.49373,-89.58572,474,1.552,2015-01-12
NEON.D05.UNDE.DP1.00033,46.23391,-89.537254,529,1.231,2015-01-12
NEON.D06.KING.DP1.20002,39.10506,-96.60336,339,-0.531,2015-01-12
NEON.D06.KONA.DP1.00033,39.110446,-96.612935,443,-0.531,2015-01-12
NEON.D06.KONZ.DP1.00033,39.10077,-96.56309,415,-0.522,2015-01-12
NEON.D06.MCDI.DP1.20002,38.94428,-96.44197,376,-0.428,2015-01-12
NEON.D06.UKFS.DP1.00033,39.040431,-95.19215,330,-0.017,2015-01-12
NEON.D07.GRSM.DP1.00033,35.68896,-83.50195,589,0.545,2015-01-12
NEON.D07.LECO.DP1.20002,35.69043,-83.50379,578,0.545,2015-01-12
NEON.D07.MLBS.DP1.00033,37.378314,-80.524847,1177,0.61,2015-01-12
NEON.D07.ORNL.DP1.00033,35.964128,-84.282588,351,0.061,2015-01-12
NEON.D07.WALK.DP1.20002,35.95947,-84.28041,274,-0.007,2015-01-12
NEON.D08.BLWA.DP1.20002,32.541529,-87.798151,23,-1.017,2015-01-12
NEON.D08.DELA.DP1.00033,32.541727,-87.803877,36,-1.017,2015-01-12
NEON.D08.LENO.DP1.00033,31.85388,-88.16122,10,-1.184,2015-01-12
NEON.D08.MAYF.DP1.20002,32.959657,-87.408128,93,-0.588,2015-01-12
NEON.D08.TALL.DP1.00033,32.95047,-87.393259,167,-0.588,2015-01-12
NEON.D08.TOMB.DP1.20002,31.853431,-88.158872,10,-1.184,2015-01-12
NEON.D09.DCFS.DP1.00033,47.161647,-99.106556,574,-0.315,2015-01-12
NEON.D09.NOGP.DP1.00033,46.76972,-100.91535,589,0.781,2015-01-12
NEON.D09.PRLA.DP1.20002,47.15909,-99.11388,563,-0.302,2015-01-12
NEON.D09.PRPO.DP1.20002,47.12999,-99.250551,587,-0.294,2015-01-12
NEON.D09.WOOD.DP1.00033,47.1282,-99.241334,585,-0.294,2015-01-12
NEON.D10.ARIK.DP1.20002,39.758246,-102.447103,1188,0.443,2015-01-12
NEON.D10.CPER.DP1.00033,40.81553,-104.7456,1600,0.8,2015-01-12
NEON.D10.HQTW.DP1.00033,40.016704,-105.245612,1601,0.749,2015-01-12
NEON.D10.RMNP.DP1.00033,40.275903,-105.545955,2751,0.718,2015-01-12
NEON.D10.STER.DP1.00033,40.461894,-103.02929,1366,1.089,2015-01-12
NEON.D11.BLUE.DP1.20002,34.444218,-96.624201,288,-0.54,2015-01-12
NEON.D11.CLBJ.DP1.00033,33.40123,-97.57,279,-0.535,2015-01-12
NEON.D11.OAES.DP1.00033,35.41059,-99.05879,520,-0.543,2015-01-12
NEON.D11.PRIN.DP1.20002,33.37859,-97.78226,255,-0.643,2015-01-12
NEON.D12.BLDE.DP1.20002,44.95011,-110.58715,2035,1.201,2015-01-12
NEON.D12.YELL.DP1.00033,44.95348,-110.53914,2130,1.436,2015-01-12
NEON.D13.COMO.DP1.20002,40.03496,-105.54487,3036,0.431,2015-01-12
NEON.D13.MOAB.DP1.00033,38.24833,-109.38827,1803,1.072,2015-01-12
NEON.D13.NIWO.DP1.00033,40.05425,-105.58237,3493,0.805,2015-01-12
NEON.D13.WLOU.DP1.20002,39.891366,-105.915395,2920,1.182,2015-01-12
NEON.D14.JORN.DP1.00033,32.59068,-106.84254,1321,1.052,2015-01-12
NEON.D14.SRER.DP1.00033,31.91068,-110.83549,999,0.95,2015-01-12
NEON.D14.SYCA.DP1.20002,33.749057,-111.506903,644,0.771,2015-01-12
NEON.D15.ONAQ.DP1.00033,40.177599,-112.452452,1655,1.382,2015-01-12
NEON.D15.REDB.DP1.20002,40.783934,-111.797887,1696,1.066,2015-01-12
NEON.D16.ABBY.DP1.00033,45.76243,-122.33033,390,-0.509,2015-01-12
NEON.D16.MART.DP1.20002,45.791248,-121.931959,354,-0.253,2015-01-12
NEON.D16.MCRA.DP1.20002,44.259598,-122.165554,880,0.072,2015-01-12
NEON.D16.WREF.DP1.00033,45.82049,-121.95191,368,-0.253,2015-01-12
NEON.D17.BIGC.DP1.20002,37.059719,-119.257549,1133,-0.743,2015-01-12
NEON.D17.SJER.DP1.00033,37.10878,-119.73228,398,-0.856,2015-01-12
NEON.D17.SOAP.DP1.00033,37.03337,-119.26219,1210,-0.751,2015-01-12
NEON.D17.TEAK.DP1.00033,37.00583,-119.00602,2149,-0.819,2015-01-12
NEON.D17.TECR.DP1.20002,36.955931,-119.027363,2053,-0.85,2015-01-12
NEON.D18.BARR.DP1.00033,71.28241,-156.61936,7,-9999.0,2015-01-12
NEON.D18.OKSR.DP1.20002,68.669753,-149.143018,773,-9999.0,2015-01-12
NEON.D18.TOOK.DP1.20002,68.629562,-149.610509,715,-9999.0,2015-01-12
NEON.D18.TOOL.DP1.00033,68.66109,-149.37047,827,-9999.0,2015-01-12
NEON.D19.BONA.DP1.00033,65.15401,-147.50258,233,-9999.0,2015-01-12
NEON.D19.CARI.DP1.20002,65.15306,-147.50246,229,-9999.0,2015-01-12
NEON.D19.DEJU.DP1.00033,63.88112,-145.75136,504,-9999.0,2015-01-12
NEON.D19.HEAL.DP1.00033,63.87569,-149.21334,409,-9999.0,2015-01-12
NEON.D20.PUUM.DP1.00033,19.55309,-155.31731,1683,-9999.0,2015-01-12
nevcansnk3a,39.0099,-114.3095,3063,1.13,2015-01-12
nevcanspg1a,38.9253,-114.4082,1792,1.741,2015-01-12
nevcanspg2a,38.8921,-114.3521,2203,1.537,2015-01-12
nevcanspg3a,38.8898,-114.3314,2820,1.181,2015-01-12
nevcanspg4a,38.9061,-114.3089,3360,1.181,2015-01-12
ninemileprairie,40.86801886,-96.82208066,381,1.296,2015-01-12
nist,39.139,-77.2125,100,-0.234,2015-01-12
niwot3,40.03286358,-105.5469702,3050,0.431,2015-01-12
niwot5,40.03286358,-105.5469702,2993,0.431,2015-01-12
northattleboroma,41.98369,-71.31056,60,-0.677,2015-01-12
northinletsaltmarsh,33.3455,-79.1957,1,0.195,2015-01-12
oakville,47.899334,-97.316139,268,-0.904,2015-01-12
oregonMP,44.4523,-121.5574,1253,0.304,2015-01-12
oregonYP,44.32384,-121.605993,977,0.159,2015-01-12
oregonYPbud,44.3238,-121.606,977,0.159,2015-01-12
othshardwood,44.934805,-68.6655,41,0.583,2015-01-12
othssoftwood,44.934527,-68.664888,41,0.583,2015-01-12
pace,37.9229,-78.2739,100,-0.776,2015-01-12
parkschoolbuffalo,42.9637,-78.7834,205,-0.471,2015-01-12
piedmontalpasture2,33.8875,-85.6935,238,-0.164,2015-01-12
portal,31.9385,-109.0823,1330,1.64,2015-01-12
proctor,44.525,-72.866,403,-0.618,2015-01-12
readingma,42.5304,-71.1272,100,0.285,2015-01-12
robinson,37.4671,-83.1576,483,0.758,2015-01-12
robinson2,37.4671,-83.1576,483,0.758,2015-01-12
rosemountcons,44.6946,-93.0578,283,-0.804,2015-01-12
rosemountconv,44.691,-93.0576,283,-0.804,2015-01-12
rosemountnprs,44.6781,-93.0723,274,-0.769,2015-01-12
russellsage,32.456961,-91.974322,20,-0.397,2015-01-12
sagehen,39.4315,-120.2398,1934,-0.205,2015-01-12
sagehen2,39.4307,-120.2407,1937,-0.205,2015-01-12
sagehen3,39.4311,-120.2405,1935,-0.205,2015-01-12
sanford,42.726777,-84.464482,268,-0.344,2015-01-12
santacruz1,36.9741,-122.0308,11,0.36,2015-01-12
santacruz2,36.9741,-122.0308,11,0.36,2015-01-12
santaluciapreserve1,36.5265,-121.8682,500,1.018,2015-01-12
santaluciapreserve2,36.5265,-121.8682,500,1.018,2015-01-12
segaarboretum10,35.16209,-111.73151,2170,0.432,2015-01-12
segaarboretum2,35.16209,-111.73151,2170,0.432,2015-01-12
segaarboretum3,35.16209,-111.73151,2170,0.432,2015-01-12
segaarboretum4,35.16214,-111.73153,2170,0.432,2015-01-12
segaarboretum6,35.16209,-111.73151,2170,0.432,2015-01-12
segaarboretum9,35.16222,-111.73158,2170,0.432,2015-01-12
segaarboretumforest,35.1613,-111.7359,2173,0.432,2015-01-12
segaarboretummeadow,35.1621,-111.7316,2157,0.432,2015-01-12
segablackpoint,35.6814,-111.4754,1566,0.511,2015-01-12
segabluechute,35.5876,-111.9716,1930,0.242,2015-01-12
segabluechute1,35.58759,-111.97115,1931,0.242,2015-01-12
segabluechute2,35.58759,-111.97115,1931,0.242,2015-01-12
segabluechute4,35.58759,-111.9716,1931,0.242,2015-01-12
segabluechute6,35.58759,-111.97115,1931,0.242,2015-01-12
segabluechute7,35.58759,-111.97115,1931,0.242,2015-01-12
segabluechute8,35.58759,-111.97115,1931,0.242,2015-01-12
segabradshaw,34.9109,-111.9285,1402,0.563,2015-01-12
segahartprairie,35.3536,-111.7324,2585,-0.02,2015-01-12
segalcr,35.7231,-111.321,1275,0.35,2015-01-12
segalcr2,35.7069,-111.36,1495,0.379,2015-01-12
segalittlemountain,36.5865,-112.3634,2276,0.271,2015-01-12
segasoapcreek,36.751,-111.716,1233,0.309,2015-01-12
segawhitepockets,36.6081,-112.4082,2057,0.34,2015-01-12
sevilletagrass,34.360444,-106.700186,1600,1.387,2015-01-12
sevilletanewgrass,34.358,-106.6799,1603,1.377,2015-01-12
sevilletashrub,34.334956,-106.744469,1603,1.305,2015-01-12
sevMRME10L,34.3438,-106.7269,1604,1.348,2015-01-12
sevMRME11C,34.3438,-106.7268,1604,1.348,2015-01-12
sevMRME1S,34.3442,-106.7272,1604,1.348,2015-01-12
sevpjrm12,34.38615,-106.52621,1905,1.249,2015-01-12
sevpjrm13,34.38631,-106.52791,1914,1.249,2015-01-12
shalehillsczo,40.6658,-77.9041,310,-0.624,2015-01-12
shenandoah,38.6167,-78.35,1037,-0.924,2015-01-12
silverton,44.9986,-122.6948,347,-0.891,2015-01-12
siwetland,38.0369,-121.7546,-5,0.596,2015-01-12
slatefloodplain,38.9094,-107.0282,2725,0.519,2015-01-12
snodgrass1,38.92619636,-106.9714376,3023,0.428,2015-01-12
snodgrass2,38.92619636,-106.9714376,3023,0.428,2015-01-12
snodgrass3,38.92839978,-106.9781196,3141,0.428,2015-01-12
snodgrass4,38.92839978,-106.9781196,3141,0.428,2015-01-12
snodgrass5,38.92744789,-106.9785209,3152,0.428,2015-01-12
snodgrass6,38.92744789,-106.9785209,3152,0.428,2015-01-12
snodgrass7,38.93142134,-106.9852388,3363,0.483,2015-01-12
snodgrass8,38.93142134,-106.9852388,3363,0.483,2015-01-12
southerngreatplains,36.6058,-97.4888,314,-0.51,2015-01-12
springfieldma,42.135162,-72.585972,56,-0.292,2015-01-12
spruceA0EMI,47.5049,-93.4541,413,-0.992,2015-01-12
spruceA0EMT,47.5049,-93.4541,418,-0.992,2015-01-12
spruceA0P07,47.50493,-93.45314,413,-0.992,2015-01-12
spruceA0P07SH,47.50493,-93.45314,413,-0.992,2015-01-12
spruceA0P21,47.50625,-93.45275,413,-0.992,2015-01-12
spruceA0P21SH,47.50625,-93.45275,413,-0.992,2015-01-12
srg,31.7894,-110.8276,1281,1.159,2015-01-12
srm,31.8214,-110.8661,1116,1.095,2015-01-12
statenrice1,38.1235,-121.549,-5,0.095,2015-01-12
stjones,39.088222,-75.43725,2,-0.198,2015-01-12
sweetbriar,37.57341,-79.08482,242,-0.611,2015-01-12
sweetbriarclearcut,37.5753,-79.0872,242,-0.611,2015-01-12
sweetbriargrass,37.5605,-79.0884,240,-0.611,2015-01-12
sylvania,46.242,-89.348,540,1.453,2015-01-12
templefieldstation1,40.1667,-75.1894,105,-0.969,2015-01-12
tfforest,43.1086,-70.9505,23,-0.186,2015-01-12
tidmarshplymouth,41.9157,-70.5754,9,0.144,2015-01-12
tonzi,38.43091667,-120.9658861,177,0.18,2015-01-12
townsenddemeadow,39.3917,-75.6281,11,-0.201,2015-01-12
tsubiology,36.1671,-86.8295,164,-0.204,2015-01-12
tsubiology2,36.1171,-86.8295,100,-0.352,2015-01-12
tuckerprairie,38.9491,-91.9952,274,0.639,2015-01-12
twodafo,29.1658,-95.829,16,0.022,2015-01-12
tworfaa,31.4777,-96.8882,167,-0.743,2015-01-12
tworfpr,31.4802,-96.8826,162,-0.771,2015-01-12
tworfta,31.4693,-96.8864,173,-0.743,2015-01-12
twosfpr,30.6176,-97.2938,157,-0.212,2015-01-12
ucnrsanzaborrego,33.2401,-116.3886,214,0.282,2015-01-12
ufona,27.3836,-81.950856,25,0.438,2015-01-12
uiefmaize2,40.0628,-88.1961,224,-0.253,2015-01-12
uiefmiscanthus2,40.0628,-88.1984,221,-0.253,2015-01-12
uiefprairie2,40.0637,-88.1973,224,-0.253,2015-01-12
uiefsorghum,40.0065,-88.2032,224,-0.411,2015-01-12
uiefswitchgrass2,40.0637,-88.1973,224,-0.253,2015-01-12
umichbiological,45.55984,-84.71382,230,2.315,2015-01-12
umichbiological2,45.5625,-84.6976,240,2.287,2015-01-12
unca,35.5951,-82.5515,650,0.087,2015-01-12
usgseros,43.7343,-96.6234,448,-0.101,2015-01-12
usmpj,34.43845,-106.2543606,2126,0.825,2015-01-12
usof5,35.7297,-90.0406,70,-0.714,2015-01-12
usof6,35.7333,-90.0403,70,-0.714,2015-01-12
uwmfieldsta,43.38709,-88.0229,265,-0.471,2015-01-12
vaira,38.41328056,-120.9506361,129,0.18,2015-01-12
vallesburnedconifer,35.8884,-106.5321,3043,-0.417,2015-01-12
vallesmixedconifer,35.9192,-106.6142,2752,-0.322,2015-01-12
vallesponderosapine,35.864,-106.5964,2501,-0.296,2015-01-12
waahila,21.3017,-157.8152,55,-9999.0,2015-01-12
warrenwilson,35.6069,-82.4421,2198,0.346,2015-01-12
willamettepoplar,44.1368,-123.1823,112,-0.767,2015-01-12
willowcreek,45.805986,-90.07912,521,1.42,2015-01-12
windriver,45.8212833,-121.9520833,371,-0.253,2015-01-12
windriverunderstory,45.8212833,-121.9520833,371,-0.253,2015-01-12
wolfesneckfarm,43.8305,-70.0715,16,0.561,2015-01-12
worcester,42.2697,-71.8428,185,-0.189,2015-01-12
alligatorriver,35.7879,-75.9038,1,0.84,2015-01-19
arbutuslake,43.98207,-74.23322,535,-0.339,2015-01-19
arbutuslakeinlet,43.99336,-74.24527,527,-0.339,2015-01-19
archboldavir,27.176064,-81.21958,8,0.433,2015-01-19
archboldavirx,27.166627,-81.219828,8,0.433,2015-01-19
archboldbahia,27.1656,-81.216112,8,0.433,2015-01-19
archboldpnot,27.187948,-81.200345,9,0.433,2015-01-19
archboldpnotx,27.180677,-81.20068,9,0.433,2015-01-19
arkansascornsoy,34.416,-91.6723,61,-0.983,2015-01-19
arsbrooks10,41.9749,-93.6905,312,0.74,2015-01-19
arsbrooks11,41.9744,-93.6937,313,0.74,2015-01-19
arscolesnorth,42.4884,-93.5225,356,0.008,2015-01-19
arscolessouth,42.4816,-93.5235,352,0.008,2015-01-19
arsgacp1,31.5109,-83.6179,96,0.44,2015-01-19
arsgacp3,31.7563,-83.7516,139,0.043,2015-01-19
arsgacp4,31.7093,-83.7287,127,0.255,2015-01-19
arsgreatbasinltar098,43.1675,-116.7132,1426,0.69,2015-01-19
arsgreatbasinltar117,43.1432,-116.7357,1625,0.446,2015-01-19
arsgreatbasinltar177,43.0645,-116.7484,2114,-0.015,2015-01-19
arsltarmdcr,39.0587,-75.8513,17,-0.184,2015-01-19
arsltarmdcrnatw,39.0575,-75.7531,16,-0.282,2015-01-19
arsltarmdcrprcw,39.0667,-75.7609,17,-0.282,2015-01-19
arsltarmdcrresw,39.0549,-75.7532,16,-0.282,2015-01-19
arsltarucbec1,40.7537,-78.0057,400,-1.031,2015-01-19
arsltarucbec2,40.7558,-77.9999,396,-1.031,2015-01-19
arsmnswanlake1,45.684508,-95.799703,370,-0.64,2015-01-19
arsmorris1,45.6167,-96.1269,341,-0.303,2015-01-19
arsmorris2,45.627,-96.127,338,-0.303,2015-01-19
arsmorris3,45.6091,-96.1265,342,-0.303,2015-01-19
arsope3ltar,39.0309,-76.8442,41,-0.314,2015-01-19
ashburnham,42.6029,-71.926,292,-0.107,2015-01-19
asuhighlands,36.2076,-81.7032,1016,0.174,2015-01-19
austincary,29.738,-82.2188,44,0.182,2015-01-19
barrow,71.28007453,-156.6091492,5,-9999.0,2015-01-19
bartlettir,44.0646,-71.2881,268,-0.229,2015-01-19
bigtraillake,64.9194,-147.822,190,-9999.0,2015-01-19
bitterbrush001,48.154,-119.9456,667,0.823,2015-01-19
blackrockforest,41.3974,-74.0239,427,-1.336,2015-01-19
bnzblackspruce,64.6963,-148.3235,102,-9999.0,2015-01-19
bnzrichfen,64.70134,-148.31195,97,-9999.0,2015-01-19
bnzthermokarstbog,64.6955,-148.3208,104,-9999.0,2015-01-19
boglakepeatland,47.5051,-93.4893,416,-0.891,2015-01-19
bostoncommon,42.355912,-71.064145,10,-0.279,2015-01-19
bostonu,42.35041,-71.10438,10,-0.289,2015-01-19
bouldinalfalfa,38.0985,-121.4993,-5,-0.019,2015-01-19
bouldincorn,38.109,-121.535,-5,0.002,2015-01-19
bozeman,45.783056,-110.777778,2332,1.342,2015-01-19
brackishimpoundment,33.2015,-79.2973,1,-0.044,2015-01-19
bullshoals,36.562833,-93.06663,260,-0.708,2015-01-19
burnssagebrush,43.4712,-119.6909,1398,0.204,2015-01-19
butte,45.95304,-112.47964,1682,1.442,2015-01-19
butterice,39.5793,-121.858,33,0.065,2015-01-19
cafboydnorthltar01,46.755104,-117.126052,795,-0.796,2015-01-19
cafboydsouthltar01,46.751809,-117.128502,795,-0.796,2015-01-19
cafcookeastltar01,46.78152,-117.0821,794,-0.802,2015-01-19
cafcookwestltar01,46.784037,-117.09083,807,-0.802,2015-01-19
caryinstitute,41.7839,-73.7341,127,-1.38,2015-01-19
centralredwoods1,38.632272,-123.301511,200,0.398,2015-01-19
centralredwoods2,38.632272,-123.301511,200,0.398,2015-01-19
cperagm,40.8402,-104.7672,1644,0.238,2015-01-19
cperheavy,40.8153,-104.7386,1652,0.119,2015-01-19
cpertgm,40.833,-104.76,1644,0.075,2015-01-19
cperuvb,40.8055764,-104.7558542,1641,0.075,2015-01-19
cuny,40.8162,-73.9507,42,-0.902,2015-01-19
doverdesaltmarsh,39.0888,-75.4368,0,0.012,2015-01-19
downerwoods,43.07938,-87.88076,213,-0.509,2015-01-19
dukehw,35.973583,-79.100371,400,-0.249,2015-01-19
ecb1,41.5348,-84.8068,275,-0.759,2015-01-19
ecb2,41.5321,-84.808,275,-0.759,2015-01-19
ecb4,41.1796,-83.0604,240,-1.15,2015-01-19
elverde,18.320654,-65.8199,312,-9999.0,2015-01-19
flagstaff,35.17961521,-111.6049032,6983,0.496,2015-01-19
flagstaff2,35.179225,-111.604506,6983,0.496,2015-01-19
flagstaffchimneysprings,35.257296,-111.678542,2250,0.336,2015-01-19
forbes,39.232,-121.2972,360,0.007,2015-01-19
fortpaynealpasture1,34.3824,-85.6428,405,-0.305,2015-01-19
fortpaynealpasture2,34.3824,-85.6447,403,-0.305,2015-01-19
gcesapelo,31.4440444,-81.283528,0,-0.148,2015-01-19
gilberttract,38.0015,-121.6691,6,0.319,2015-01-19
glees,41.3644,-106.2394,3150,0.297,2015-01-19
glennorganicrice,39.6805,-122.0026,2,0.44,2015-01-19
glennrice,39.5944,-122.0253,36,0.193,2015-01-19
goodnow,43.96018,-74.20994,820,-0.292,2015-01-19
goodwater,39.22848,-92.11936,264,0.5,2015-01-19
goodwaterbau,39.23115,-92.15216,274,0.485,2015-01-19
grandteton,43.915017,-110.578036,2054,1.586,2015-01-19
grca1pj,36.0241,-112.2211,1978,0.365,2015-01-19
greenridge1,39.6905,-78.4067,285,-1.038,2015-01-19
harvard,42.5378,-72.1715,340,-0.487,2015-01-19
harvardbarn,42.53532,-72.1899,350,-0.457,2015-01-19
harvardbarn2,42.53532,-72.1899,350,-0.457,2015-01-19
harvardems2,42.5378,-72.1715,340,-0.487,2015-01-19
harvardfarmnorth,42.520465,-72.182242,355,-0.457,2015-01-19
harvardfarmsouth,42.522466,-72.182339,355,-0.457,2015-01-19
harvardgarden,42.5291,-72.1863,335,-0.457,2015-01-19
harvardhemlock,42.539,-72.18,355,-0.457,2015-01-19
harvardhemlock2,42.539407,-72.177976,355,-0.487,2015-01-19
harvardlph,42.542,-72.185,380,-0.457,2015-01-19
hawbeckereddy,40.6608,-77.848849,310,-0.901,2015-01-19
hobcawclearcutlongleaf,33.3486,-79.232,4,-0.091,2015-01-19
hobcawmaturelongleaf,33.3242,-79.2439,8,-0.091,2015-01-19
homesteadsprings,37.2009,-92.9937,452,-0.634,2015-01-19
howland1,45.2041,-68.7403,80,0.341,2015-01-19
howland2,45.2128,-68.7418,79,0.341,2015-01-19
hubbardbrook,43.9438,-71.701,253,-0.557,2015-01-19
humnokericea,34.585192,-91.751684,61,-1.061,2015-01-19
humnokericec,34.588853,-91.7516729,70,-1.061,2015-01-19
huyckpreserveny,42.5266,-74.1587,478,-1.055,2015-01-19
hwmo1,20.0212,-155.7331,585,-9999.0,2015-01-19
hwmo2,19.9766,-155.8298,12,-9999.0,2015-01-19
hwmo5,20.1117,-155.8151,635,-9999.0,2015-01-19
ibp,32.589,-106.847,1325,1.156,2015-01-19
imcrkfen,68.60583,-149.31101,900,-9999.0,2015-01-19
imcrkridge0,68.60681,-149.2958,951,-9999.0,2015-01-19
imcrkridge1,68.60681,-149.2958,951,-9999.0,2015-01-19
imcrktussock,68.60633,-149.30408,918,-9999.0,2015-01-19
jasperridge,37.402028,-122.22104,197,0.722,2015-01-19
jerbajada,32.57992,-106.633793,1402,1.222,2015-01-19
jergrassland,32.5833,-106.8333,1331,1.156,2015-01-19
jernort,32.619,-106.788,1328,1.08,2015-01-19
jernovel,32.6335,-106.8334,1324,1.161,2015-01-19
jernwern,32.6271,-106.7387,1325,1.064,2015-01-19
jersand,32.515,-106.798,1363,1.096,2015-01-19
jershrubland,32.6502,-106.8334,1328,1.226,2015-01-19
junipersavannah,34.4254,-105.8615,1931,0.588,2015-01-19
kamuela,20.015008,-155.661326,850,-9999.0,2015-01-19
kamuela2,20.014959,-155.661139,830,-9999.0,2015-01-19
kansas,39.0561,-95.1907,333,0.125,2015-01-19
kelloggcorn,42.437536,-85.3225472,288,-0.588,2015-01-19
kempnrs,45.83992,-89.67755,539,1.46,2015-01-19
kendall,31.73652,-109.94185,1529,1.691,2015-01-19
konza,39.0824,-96.5603,443,-0.41,2015-01-19
laupahoehoe,19.9322,-155.2912,1145,-9999.0,2015-01-19
ldeocam,41.0039,-73.9053,121,-1.103,2015-01-19
lostcreek,46.0827,-89.9792,480,1.085,2015-01-19
luckyhills,31.743896,-110.052023,1366,1.699,2015-01-19
macleish,42.4484,-72.6804,251,-0.222,2015-01-19
macordway,44.8106,-93.0272,264,-0.691,2015-01-19
mandanh5,46.775423,-100.95109,593,0.815,2015-01-19
mandani2,46.7614,-100.9257,590,0.815,2015-01-19
manilacotton,35.8872,-90.1371,73,-0.601,2015-01-19
marena,36.06434,-97.21271,327,-0.639,2015-01-19
mead1,41.1651,-96.4766,361,1.015,2015-01-19
mead2,41.1649,-96.4701,362,1.015,2015-01-19
mead3,41.1797,-96.4397,363,1.022,2015-01-19
meadpasture,41.1447,-96.4616,356,0.972,2015-01-19
meadpasturese,41.1447,-96.4616,356,0.972,2015-01-19
meadpasturesw,41.1447,-96.4616,356,0.972,2015-01-19
missouriozarks,38.7441,-92.2,219,0.289,2015-01-19
morganmonroe,39.3231,-86.4131,275,0.017,2015-01-19
morganmonroe2,39.3231,-86.4131,275,0.017,2015-01-19
nahuku,19.415187,-155.238383,1202,-9999.0,2015-01-19
nationalelkrefuge,43.488931,-110.737824,1899,2.044,2015-01-19
ncssm,36.018446,-78.92075,175,-0.054,2015-01-19
NEON.D01.BART.DP1.00033,44.063869,-71.287375,285,-0.229,2015-01-19
NEON.D01.HARV.DP1.00033,42.536911,-72.17265,359,-0.487,2015-01-19
NEON.D01.HOPB.DP1.20002,42.471786,-72.329627,203,-0.634,2015-01-19
NEON.D02.BLAN.DP1.00033,39.033698,-78.041788,162,-0.478,2015-01-19
NEON.D02.LEWI.DP1.20002,39.09564,-77.98322,152,-0.539,2015-01-19
NEON.D02.POSE.DP1.20002,38.89332,-78.14678,293,-0.515,2015-01-19
NEON.D02.SCBI.DP1.00033,38.892925,-78.139494,364,-0.607,2015-01-19
NEON.D02.SERC.DP1.00033,38.89008,-76.56001,30,-0.371,2015-01-19
NEON.D03.BARC.DP1.20002,29.676473,-82.009089,35,-0.148,2015-01-19
NEON.D03.DSNY.DP1.00033,28.12505,-81.43619,22,0.057,2015-01-19
NEON.D03.FLNT.DP1.20002,31.185424,-84.437403,27,-0.127,2015-01-19
NEON.D03.JERC.DP1.00033,31.194839,-84.468623,58,-0.201,2015-01-19
NEON.D03.OSBS.DP1.00033,29.689282,-81.993431,56,-0.126,2015-01-19
NEON.D03.SUGG.DP1.20002,29.687054,-82.016171,28,-0.126,2015-01-19
NEON.D04.CUPE.DP1.20002,18.11352,-66.98676,164,-9999.0,2015-01-19
NEON.D04.GUAN.DP1.00033,17.96955,-66.8687,136,-9999.0,2015-01-19
NEON.D04.GUIL.DP1.20002,18.1741,-66.79851,564,-9999.0,2015-01-19
NEON.D04.LAJA.DP1.00033,18.021261,-67.076889,22,-9999.0,2015-01-19
NEON.D05.CRAM.DP1.20002,46.21111,-89.47825,518,1.29,2015-01-19
NEON.D05.LIRO.DP1.20002,45.998269,-89.704767,495,1.309,2015-01-19
NEON.D05.STEI.DP1.00033,45.50894,-89.58637,476,1.589,2015-01-19
NEON.D05.TREE.DP1.00033,45.49373,-89.58572,474,1.589,2015-01-19
NEON.D05.UNDE.DP1.00033,46.23391,-89.537254,529,1.269,2015-01-19
NEON.D06.KING.DP1.20002,39.10506,-96.60336,339,-0.437,2015-01-19
NEON.D06.KONA.DP1.00033,39.110446,-96.612935,443,-0.437,2015-01-19
NEON.D06.KONZ.DP1.00033,39.10077,-96.56309,415,-0.41,2015-01-19
NEON.D06.MCDI.DP1.20002,38.94428,-96.44197,376,-0.329,2015-01-19
NEON.D06.UKFS.DP1.00033,39.040431,-95.19215,330,0.125,2015-01-19
NEON.D07.GRSM.DP1.00033,35.68896,-83.50195,589,0.235,2015-01-19
NEON.D07.LECO.DP1.20002,35.69043,-83.50379,578,0.235,2015-01-19
NEON.D07.MLBS.DP1.00033,37.378314,-80.524847,1177,0.599,2015-01-19
NEON.D07.ORNL.DP1.00033,35.964128,-84.282588,351,0.101,2015-01-19
NEON.D07.WALK.DP1.20002,35.95947,-84.28041,274,0.16,2015-01-19
NEON.D08.BLWA.DP1.20002,32.541529,-87.798151,23,-0.91,2015-01-19
NEON.D08.DELA.DP1.00033,32.541727,-87.803877,36,-0.91,2015-01-19
NEON.D08.LENO.DP1.00033,31.85388,-88.16122,10,-1.131,2015-01-19
NEON.D08.MAYF.DP1.20002,32.959657,-87.408128,93,-0.476,2015-01-19
NEON.D08.TALL.DP1.00033,32.95047,-87.393259,167,-0.476,2015-01-19
NEON.D08.TOMB.DP1.20002,31.853431,-88.158872,10,-1.131,2015-01-19
NEON.D09.DCFS.DP1.00033,47.161647,-99.106556,574,-0.289,2015-01-19
NEON.D09.NOGP.DP1.00033,46.76972,-100.91535,589,0.815,2015-01-19
NEON.D09.PRLA.DP1.20002,47.15909,-99.11388,563,-0.279,2015-01-19
NEON.D09.PRPO.DP1.20002,47.12999,-99.250551,587,-0.263,2015-01-19
NEON.D09.WOOD.DP1.00033,47.1282,-99.241334,585,-0.263,2015-01-19
NEON.D10.ARIK.DP1.20002,39.758246,-102.447103,1188,0.294,2015-01-19
NEON.D10.CPER.DP1.00033,40.81553,-104.7456,1600,0.075,2015-01-19
NEON.D10.HQTW.DP1.00033,40.016704,-105.245612,1601,0.122,2015-01-19
NEON.D10.RMNP.DP1.00033,40.275903,-105.545955,2751,-0.14,2015-01-19
NEON.D10.STER.DP1.00033,40.461894,-103.02929,1366,0.865,2015-01-19
NEON.D11.BLUE.DP1.20002,34.444218,-96.624201,288,-0.727,2015-01-19
NEON.D11.CLBJ.DP1.00033,33.40123,-97.57,279,-0.561,2015-01-19
NEON.D11.OAES.DP1.00033,35.41059,-99.05879,520,-0.779,2015-01-19
NEON.D11.PRIN.DP1.20002,33.37859,-97.78226,255,-0.66,2015-01-19
NEON.D12.BLDE.DP1.20002,44.95011,-110.58715,2035,1.231,2015-01-19
NEON.D12.YELL.DP1.00033,44.95348,-110.53914,2130,1.447,2015-01-19
NEON.D13.COMO.DP1.20002,40.03496,-105.54487,3036,-0.22,2015-01-19
NEON.D13.MOAB.DP1.00033,38.24833,-109.38827,1803,0.984,2015-01-19
NEON.D13.NIWO.DP1.00033,40.05425,-105.58237,3493,0.116,2015-01-19
NEON.D13.WLOU.DP1.20002,39.891366,-105.915395,2920,0.62,2015-01-19
NEON.D14.JORN.DP1.00033,32.59068,-106.84254,1321,1.156,2015-01-19
NEON.D14.SRER.DP1.00033,31.91068,-110.83549,999,0.927,2015-01-19
NEON.D14.SYCA.DP1.20002,33.749057,-111.506903,644,0.864,2015-01-19
NEON.D15.ONAQ.DP1.00033,40.177599,-112.452452,1655,1.315,2015-01-19
NEON.D15.REDB.DP1.20002,40.783934,-111.797887,1696,0.851,2015-01-19
NEON.D16.ABBY.DP1.00033,45.76243,-122.33033,390,-0.579,2015-01-19
NEON.D16.MART.DP1.20002,45.791248,-121.931959,354,-0.357,2015-01-19
NEON.D16.MCRA.DP1.20002,44.259598,-122.165554,880,-0.059,2015-01-19
NEON.D16.WREF.DP1.00033,45.82049,-121.95191,368,-0.362,2015-01-19
NEON.D17.BIGC.DP1.20002,37.059719,-119.257549,1133,-0.858,2015-01-19
NEON.D17.SJER.DP1.00033,37.10878,-119.73228,398,-0.913,2015-01-19
NEON.D17.SOAP.DP1.00033,37.03337,-119.26219,1210,-0.864,2015-01-19
NEON.D17.TEAK.DP1.00033,37.00583,-119.00602,2149,-0.907,2015-01-19
NEON.D17.TECR.DP1.20002,36.955931,-119.027363,2053,-0.941,2015-01-19
NEON.D18.BARR.DP1.00033,71.28241,-156.61936,7,-9999.0,2015-01-19
NEON.D18.OKSR.DP1.20002,68.669753,-149.143018,773,-9999.0,2015-01-19
NEON.D18.TOOK.DP1.20002,68.629562,-149.610509,715,-9999.0,2015-01-19
NEON.D18.TOOL.DP1.00033,68.66109,-149.37047,827,-9999.0,2015-01-19
NEON.D19.BONA.DP1.00033,65.15401,-147.50258,233,-9999.0,2015-01-19
NEON.D19.CARI.DP1.20002,65.15306,-147.50246,229,-9999.0,2015-01-19
NEON.D19.DEJU.DP1.00033,63.88112,-145.75136,504,-9999.0,2015-01-19
NEON.D19.HEAL.DP1.00033,63.87569,-149.21334,409,-9999.0,2015-01-19
NEON.D20.PUUM.DP1.00033,19.55309,-155.31731,1683,-9999.0,2015-01-19
nevcansnk3a,39.0099,-114.3095,3063,0.888,2015-01-19
nevcanspg1a,38.9253,-114.4082,1792,1.486,2015-01-19
nevcanspg2a,38.8921,-114.3521,2203,1.269,2015-01-19
nevcanspg3a,38.8898,-114.3314,2820,0.906,2015-01-19
nevcanspg4a,38.9061,-114.3089,3360,0.906,2015-01-19
ninemileprairie,40.86801886,-96.82208066,381,1.372,2015-01-19
nist,39.139,-77.2125,100,-0.045,2015-01-19
niwot3,40.03286358,-105.5469702,3050,-0.22,2015-01-19
niwot5,40.03286358,-105.5469702,2993,-0.22,2015-01-19
northattleboroma,41.98369,-71.31056,60,-0.688,2015-01-19
northinletsaltmarsh,33.3455,-79.1957,1,-0.003,2015-01-19
oakville,47.899334,-97.316139,268,-0.867,2015-01-19
oregonMP,44.4523,-121.5574,1253,0.287,2015-01-19
oregonYP,44.32384,-121.605993,977,0.129,2015-01-19
oregonYPbud,44.3238,-121.606,977,0.129,2015-01-19
othshardwood,44.934805,-68.6655,41,0.439,2015-01-19
othssoftwood,44.934527,-68.664888,41,0.439,2015-01-19
pace,37.9229,-78.2739,100,-0.749,2015-01-19
parkschoolbuffalo,42.9637,-78.7834,205,-0.749,2015-01-19
piedmontalpasture2,33.8875,-85.6935,238,-0.056,2015-01-19
portal,31.9385,-109.0823,1330,1.57,2015-01-19
proctor,44.525,-72.866,403,-1.076,2015-01-19
readingma,42.5304,-71.1272,100,-0.179,2015-01-19
robinson,37.4671,-83.1576,483,0.655,2015-01-19
robinson2,37.4671,-83.1576,483,0.655,2015-01-19
rosemountcons,44.6946,-93.0578,283,-0.743,2015-01-19
rosemountconv,44.691,-93.0576,283,-0.743,2015-01-19
rosemountnprs,44.6781,-93.0723,274,-0.702,2015-01-19
russellsage,32.456961,-91.974322,20,-0.489,2015-01-19
sagehen,39.4315,-120.2398,1934,-0.494,2015-01-19
sagehen2,39.4307,-120.2407,1937,-0.494,2015-01-19
sagehen3,39.4311,-120.2405,1935,-0.494,2015-01-19
sanford,42.726777,-84.464482,268,-0.417,2015-01-19
santacruz1,36.9741,-122.0308,11,0.221,2015-01-19
santacruz2,36.9741,-122.0308,11,0.221,2015-01-19
santaluciapreserve1,36.5265,-121.8682,500,0.806,2015-01-19
santaluciapreserve2,36.5265,-121.8682,500,0.806,2015-01-19
segaarboretum10,35.16209,-111.73151,2170,0.442,2015-01-19
segaarboretum2,35.16209,-111.73151,2170,0.442,2015-01-19
segaarboretum3,35.16209,-111.73151,2170,0.442,2015-01-19
segaarboretum4,35.16214,-111.73153,2170,0.442,2015-01-19
segaarboretum6,35.16209,-111.73151,2170,0.442,2015-01-19
segaarboretum9,35.16222,-111.73158,2170,0.442,2015-01-19
segaarboretumforest,35.1613,-111.7359,2173,0.442,2015-01-19
segaarboretummeadow,35.1621,-111.7316,2157,0.442,2015-01-19
segablackpoint,35.6814,-111.4754,1566,0.723,2015-01-19
segabluechute,35.5876,-111.9716,1930,0.275,2015-01-19
segabluechute1,35.58759,-111.97115,1931,0.275,2015-01-19
segabluechute2,35.58759,-111.97115,1931,0.275,2015-01-19
segabluechute4,35.58759,-111.9716,1931,0.275,2015-01-19
segabluechute6,35.58759,-111.97115,1931,0.275,2015-01-19
segabluechute7,35.58759,-111.97115,1931,0.275,2015-01-19
segabluechute8,35.58759,-111.97115,1931,0.275,2015-01-19
segabradshaw,34.9109,-111.9285,1402,0.7,2015-01-19
segahartprairie,35.3536,-111.7324,2585,0.115,2015-01-19
segalcr,35.7231,-111.321,1275,0.57,2015-01-19
segalcr2,35.7069,-111.36,1495,0.622,2015-01-19
segalittlemountain,36.5865,-112.3634,2276,0.154,2015-01-19
segasoapcreek,36.751,-111.716,1233,0.259,2015-01-19
segawhitepockets,36.6081,-112.4082,2057,0.255,2015-01-19
sevilletagrass,34.360444,-106.700186,1600,1.295,2015-01-19
sevilletanewgrass,34.358,-106.6799,1603,1.288,2015-01-19
sevilletashrub,34.334956,-106.744469,1603,1.265,2015-01-19
sevMRME10L,34.3438,-106.7269,1604,1.264,2015-01-19
sevMRME11C,34.3438,-106.7268,1604,1.264,2015-01-19
sevMRME1S,34.3442,-106.7272,1604,1.264,2015-01-19
sevpjrm12,34.38615,-106.52621,1905,0.971,2015-01-19
sevpjrm13,34.38631,-106.52791,1914,0.971,2015-01-19
shalehillsczo,40.6658,-77.9041,310,-0.943,2015-01-19
shenandoah,38.6167,-78.35,1037,-0.91,2015-01-19
silverton,44.9986,-122.6948,347,-0.884,2015-01-19
siwetland,38.0369,-121.7546,-5,0.5,2015-01-19
slatefloodplain,38.9094,-107.0282,2725,0.114,2015-01-19
snodgrass1,38.92619636,-106.9714376,3023,0.053,2015-01-19
snodgrass2,38.92619636,-106.9714376,3023,0.053,2015-01-19
snodgrass3,38.92839978,-106.9781196,3141,0.053,2015-01-19
snodgrass4,38.92839978,-106.9781196,3141,0.053,2015-01-19
snodgrass5,38.92744789,-106.9785209,3152,0.053,2015-01-19
snodgrass6,38.92744789,-106.9785209,3152,0.053,2015-01-19
snodgrass7,38.93142134,-106.9852388,3363,0.12,2015-01-19
snodgrass8,38.93142134,-106.9852388,3363,0.12,2015-01-19
southerngreatplains,36.6058,-97.4888,314,-0.708,2015-01-19
springfieldma,42.135162,-72.585972,56,-0.428,2015-01-19
spruceA0EMI,47.5049,-93.4541,413,-0.925,2015-01-19
spruceA0EMT,47.5049,-93.4541,418,-0.925,2015-01-19
spruceA0P07,47.50493,-93.45314,413,-0.925,2015-01-19
spruceA0P07SH,47.50493,-93.45314,413,-0.925,2015-01-19
spruceA0P21,47.50625,-93.45275,413,-0.925,2015-01-19
spruceA0P21SH,47.50625,-93.45275,413,-0.925,2015-01-19
srg,31.7894,-110.8276,1281,1.054,2015-01-19
srm,31.8214,-110.8661,1116,1.005,2015-01-19
statenrice1,38.1235,-121.549,-5,0.013,2015-01-19
stjones,39.088222,-75.43725,2,0.012,2015-01-19
sweetbriar,37.57341,-79.08482,242,-0.657,2015-01-19
sweetbriarclearcut,37.5753,-79.0872,242,-0.657,2015-01-19
sweetbriargrass,37.5605,-79.0884,240,-0.657,2015-01-19
sylvania,46.242,-89.348,540,1.434,2015-01-19
templefieldstation1,40.1667,-75.1894,105,-1.1,2015-01-19
tfforest,43.1086,-70.9505,23,-0.535,2015-01-19
tidmarshplymouth,41.9157,-70.5754,9,0.267,2015-01-19
tonzi,38.43091667,-120.9658861,177,0.039,2015-01-19
townsenddemeadow,39.3917,-75.6281,11,-0.074,2015-01-19
tsubiology,36.1671,-86.8295,164,0.068,2015-01-19
tsubiology2,36.1171,-86.8295,100,-0.094,2015-01-19
tuckerprairie,38.9491,-91.9952,274,0.746,2015-01-19
twodafo,29.1658,-95.829,16,0.124,2015-01-19
tworfaa,31.4777,-96.8882,167,-0.652,2015-01-19
tworfpr,31.4802,-96.8826,162,-0.683,2015-01-19
tworfta,31.4693,-96.8864,173,-0.652,2015-01-19
twosfpr,30.6176,-97.2938,157,-0.124,2015-01-19
ucnrsanzaborrego,33.2401,-116.3886,214,0.251,2015-01-19
ufona,27.3836,-81.950856,25,0.617,2015-01-19
uiefmaize2,40.0628,-88.1961,224,-0.426,2015-01-19
uiefmiscanthus2,40.0628,-88.1984,221,-0.426,2015-01-19
uiefprairie2,40.0637,-88.1973,224,-0.426,2015-01-19
uiefsorghum,40.0065,-88.2032,224,-0.497,2015-01-19
uiefswitchgrass2,40.0637,-88.1973,224,-0.426,2015-01-19
umichbiological,45.55984,-84.71382,230,2.37,2015-01-19
umichbiological2,45.5625,-84.6976,240,2.335,2015-01-19
unca,35.5951,-82.5515,650,-0.019,2015-01-19
usgseros,43.7343,-96.6234,448,-0.052,2015-01-19
usmpj,34.43845,-106.2543606,2126,0.504,2015-01-19
usof5,35.7297,-90.0406,70,-0.669,2015-01-19
usof6,35.7333,-90.0403,70,-0.669,2015-01-19
uwmfieldsta,43.38709,-88.0229,265,-0.527,2015-01-19
vaira,38.41328056,-120.9506361,129,0.039,2015-01-19
vallesburnedconifer,35.8884,-106.5321,3043,-0.697,2015-01-19
vallesmixedconifer,35.9192,-106.6142,2752,-0.573,2015-01-19
vallesponderosapine,35.864,-106.5964,2501,-0.531,2015-01-19
waahila,21.3017,-157.8152,55,-9999.0,2015-01-19
warrenwilson,35.6069,-82.4421,2198,0.166,2015-01-19
willamettepoplar,44.1368,-123.1823,112,-0.682,2015-01-19
willowcreek,45.805986,-90.07912,521,1.331,2015-01-19
windriver,45.8212833,-121.9520833,371,-0.362,2015-01-19
windriverunderstory,45.8212833,-121.9520833,371,-0.362,2015-01-19
wolfesneckfarm,43.8305,-70.0715,16,0.096,2015-01-19
worcester,42.2697,-71.8428,185,-0.353,2015-01-19
alligatorriver,35.7879,-75.9038,1,0.669,2015-01-26
arbutuslake,43.98207,-74.23322,535,-0.66,2015-01-26
arbutuslakeinlet,43.99336,-74.24527,527,-0.66,2015-01-26
archboldavir,27.176064,-81.21958,8,-0.054,2015-01-26
archboldavirx,27.166627,-81.219828,8,-0.054,2015-01-26
archboldbahia,27.1656,-81.216112,8,-0.054,2015-01-26
archboldpnot,27.187948,-81.200345,9,-0.054,2015-01-26
archboldpnotx,27.180677,-81.20068,9,-0.054,2015-01-26
arkansascornsoy,34.416,-91.6723,61,-1.027,2015-01-26
arsbrooks10,41.9749,-93.6905,312,0.748,2015-01-26
arsbrooks11,41.9744,-93.6937,313,0.748,2015-01-26
arscolesnorth,42.4884,-93.5225,356,0.08,2015-01-26
arscolessouth,42.4816,-93.5235,352,0.08,2015-01-26
arsgacp1,31.5109,-83.6179,96,0.642,2015-01-26
arsgacp3,31.7563,-83.7516,139,0.246,2015-01-26
arsgacp4,31.7093,-83.7287,127,0.454,2015-01-26
arsgreatbasinltar098,43.1675,-116.7132,1426,0.656,2015-01-26
arsgreatbasinltar117,43.1432,-116.7357,1625,0.389,2015-01-26
arsgreatbasinltar177,43.0645,-116.7484,2114,-0.075,2015-01-26
arsltarmdcr,39.0587,-75.8513,17,0.196,2015-01-26
arsltarmdcrnatw,39.0575,-75.7531,16,0.075,2015-01-26
arsltarmdcrprcw,39.0667,-75.7609,17,0.075,2015-01-26
arsltarmdcrresw,39.0549,-75.7532,16,0.075,2015-01-26
arsltarucbec1,40.7537,-78.0057,400,-1.058,2015-01-26
arsltarucbec2,40.7558,-77.9999,396,-1.058,2015-01-26
arsmnswanlake1,45.684508,-95.799703,370,-0.561,2015-01-26
arsmorris1,45.6167,-96.1269,341,-0.193,2015-01-26
arsmorris2,45.627,-96.127,338,-0.193,2015-01-26
arsmorris3,45.6091,-96.1265,342,-0.193,2015-01-26
arsope3ltar,39.0309,-76.8442,41,-0.045,2015-01-26
ashburnham,42.6029,-71.926,292,0.203,2015-01-26
asuhighlands,36.2076,-81.7032,1016,0.112,2015-01-26
austincary,29.738,-82.2188,44,0.387,2015-01-26
barrow,71.28007453,-156.6091492,5,-9999.0,2015-01-26
bartlettir,44.0646,-71.2881,268,0.141,2015-01-26
bigtraillake,64.9194,-147.822,190,-9999.0,2015-01-26
bitterbrush001,48.154,-119.9456,667,1.141,2015-01-26
blackrockforest,41.3974,-74.0239,427,-1.115,2015-01-26
bnzblackspruce,64.6963,-148.3235,102,-9999.0,2015-01-26
bnzrichfen,64.70134,-148.31195,97,-9999.0,2015-01-26
bnzthermokarstbog,64.6955,-148.3208,104,-9999.0,2015-01-26
boglakepeatland,47.5051,-93.4893,416,-0.827,2015-01-26
bostoncommon,42.355912,-71.064145,10,-0.314,2015-01-26
bostonu,42.35041,-71.10438,10,-0.325,2015-01-26
bouldinalfalfa,38.0985,-121.4993,-5,-0.226,2015-01-26
bouldincorn,38.109,-121.535,-5,-0.205,2015-01-26
bozeman,45.783056,-110.777778,2332,1.235,2015-01-26
brackishimpoundment,33.2015,-79.2973,1,-0.15,2015-01-26
bullshoals,36.562833,-93.06663,260,-0.699,2015-01-26
burnssagebrush,43.4712,-119.6909,1398,0.305,2015-01-26
butte,45.95304,-112.47964,1682,1.361,2015-01-26
butterice,39.5793,-121.858,33,-0.109,2015-01-26
cafboydnorthltar01,46.755104,-117.126052,795,-0.492,2015-01-26
cafboydsouthltar01,46.751809,-117.128502,795,-0.492,2015-01-26
cafcookeastltar01,46.78152,-117.0821,794,-0.489,2015-01-26
cafcookwestltar01,46.784037,-117.09083,807,-0.489,2015-01-26
caryinstitute,41.7839,-73.7341,127,-1.197,2015-01-26
centralredwoods1,38.632272,-123.301511,200,0.206,2015-01-26
centralredwoods2,38.632272,-123.301511,200,0.206,2015-01-26
cperagm,40.8402,-104.7672,1644,0.132,2015-01-26
cperheavy,40.8153,-104.7386,1652,0.019,2015-01-26
cpertgm,40.833,-104.76,1644,-0.021,2015-01-26
cperuvb,40.8055764,-104.7558542,1641,-0.021,2015-01-26
cuny,40.8162,-73.9507,42,-0.593,2015-01-26
doverdesaltmarsh,39.0888,-75.4368,0,0.262,2015-01-26
downerwoods,43.07938,-87.88076,213,-0.415,2015-01-26
dukehw,35.973583,-79.100371,400,-0.333,2015-01-26
ecb1,41.5348,-84.8068,275,-0.776,2015-01-26
ecb2,41.5321,-84.808,275,-0.776,2015-01-26
ecb4,41.1796,-83.0604,240,-1.154,2015-01-26
elverde,18.320654,-65.8199,312,-9999.0,2015-01-26
flagstaff,35.17961521,-111.6049032,6983,0.331,2015-01-26
flagstaff2,35.179225,-111.604506,6983,0.331,2015-01-26
flagstaffchimneysprings,35.257296,-111.678542,2250,0.244,2015-01-26
forbes,39.232,-121.2972,360,-0.133,2015-01-26
fortpaynealpasture1,34.3824,-85.6428,405,-0.337,2015-01-26
fortpaynealpasture2,34.3824,-85.6447,403,-0.337,2015-01-26
gcesapelo,31.4440444,-81.283528,0,-0.246,2015-01-26
gilberttract,38.0015,-121.6691,6,0.101,2015-01-26
glees,41.3644,-106.2394,3150,0.157,2015-01-26
glennorganicrice,39.6805,-122.0026,2,0.202,2015-01-26
glennrice,39.5944,-122.0253,36,0.008,2015-01-26
goodnow,43.96018,-74.20994,820,-0.659,2015-01-26
goodwater,39.22848,-92.11936,264,0.001,2015-01-26
goodwaterbau,39.23115,-92.15216,274,0.006,2015-01-26
grandteton,43.915017,-110.578036,2054,1.2,2015-01-26
grca1pj,36.0241,-112.2211,1978,0.204,2015-01-26
greenridge1,39.6905,-78.4067,285,-0.946,2015-01-26
harvard,42.5378,-72.1715,340,-0.081,2015-01-26
harvardbarn,42.53532,-72.1899,350,-0.043,2015-01-26
harvardbarn2,42.53532,-72.1899,350,-0.043,2015-01-26
harvardems2,42.5378,-72.1715,340,-0.081,2015-01-26
harvardfarmnorth,42.520465,-72.182242,355,-0.043,2015-01-26
harvardfarmsouth,42.522466,-72.182339,355,-0.043,2015-01-26
harvardgarden,42.5291,-72.1863,335,-0.043,2015-01-26
harvardhemlock,42.539,-72.18,355,-0.043,2015-01-26
harvardhemlock2,42.539407,-72.177976,355,-0.081,2015-01-26
harvardlph,42.542,-72.185,380,-0.043,2015-01-26
hawbeckereddy,40.6608,-77.848849,310,-0.982,2015-01-26
hobcawclearcutlongleaf,33.3486,-79.232,4,-0.113,2015-01-26
hobcawmaturelongleaf,33.3242,-79.2439,8,-0.113,2015-01-26
homesteadsprings,37.2009,-92.9937,452,-0.656,2015-01-26
howland1,45.2041,-68.7403,80,0.31,2015-01-26
howland2,45.2128,-68.7418,79,0.31,2015-01-26
hubbardbrook,43.9438,-71.701,253,-0.183,2015-01-26
humnokericea,34.585192,-91.751684,61,-1.14,2015-01-26
humnokericec,34.588853,-91.7516729,70,-1.14,2015-01-26
huyckpreserveny,42.5266,-74.1587,478,-0.921,2015-01-26
hwmo1,20.0212,-155.7331,585,-9999.0,2015-01-26
hwmo2,19.9766,-155.8298,12,-9999.0,2015-01-26
hwmo5,20.1117,-155.8151,635,-9999.0,2015-01-26
ibp,32.589,-106.847,1325,1.239,2015-01-26
imcrkfen,68.60583,-149.31101,900,-9999.0,2015-01-26
imcrkridge0,68.60681,-149.2958,951,-9999.0,2015-01-26
imcrkridge1,68.60681,-149.2958,951,-9999.0,2015-01-26
imcrktussock,68.60633,-149.30408,918,-9999.0,2015-01-26
jasperridge,37.402028,-122.22104,197,0.546,2015-01-26
jerbajada,32.57992,-106.633793,1402,1.272,2015-01-26
jergrassland,32.5833,-106.8333,1331,1.239,2015-01-26
jernort,32.619,-106.788,1328,1.181,2015-01-26
jernovel,32.6335,-106.8334,1324,1.254,2015-01-26
jernwern,32.6271,-106.7387,1325,1.161,2015-01-26
jersand,32.515,-106.798,1363,1.147,2015-01-26
jershrubland,32.6502,-106.8334,1328,1.315,2015-01-26
junipersavannah,34.4254,-105.8615,1931,0.507,2015-01-26
kamuela,20.015008,-155.661326,850,-9999.0,2015-01-26
kamuela2,20.014959,-155.661139,830,-9999.0,2015-01-26
kansas,39.0561,-95.1907,333,-0.294,2015-01-26
kelloggcorn,42.437536,-85.3225472,288,-0.494,2015-01-26
kempnrs,45.83992,-89.67755,539,1.595,2015-01-26
kendall,31.73652,-109.94185,1529,1.728,2015-01-26
konza,39.0824,-96.5603,443,-0.385,2015-01-26
laupahoehoe,19.9322,-155.2912,1145,-9999.0,2015-01-26
ldeocam,41.0039,-73.9053,121,-0.9,2015-01-26
lostcreek,46.0827,-89.9792,480,1.038,2015-01-26
luckyhills,31.743896,-110.052023,1366,1.747,2015-01-26
macleish,42.4484,-72.6804,251,0.109,2015-01-26
macordway,44.8106,-93.0272,264,-0.63,2015-01-26
mandanh5,46.775423,-100.95109,593,0.541,2015-01-26
mandani2,46.7614,-100.9257,590,0.519,2015-01-26
manilacotton,35.8872,-90.1371,73,-0.75,2015-01-26
marena,36.06434,-97.21271,327,-0.902,2015-01-26
mead1,41.1651,-96.4766,361,1.012,2015-01-26
mead2,41.1649,-96.4701,362,1.012,2015-01-26
mead3,41.1797,-96.4397,363,1.025,2015-01-26
meadpasture,41.1447,-96.4616,356,0.97,2015-01-26
meadpasturese,41.1447,-96.4616,356,0.97,2015-01-26
meadpasturesw,41.1447,-96.4616,356,0.97,2015-01-26
missouriozarks,38.7441,-92.2,219,0.169,2015-01-26
morganmonroe,39.3231,-86.4131,275,0.065,2015-01-26
morganmonroe2,39.3231,-86.4131,275,0.065,2015-01-26
nahuku,19.415187,-155.238383,1202,-9999.0,2015-01-26
nationalelkrefuge,43.488931,-110.737824,1899,1.648,2015-01-26
ncssm,36.018446,-78.92075,175,-0.147,2015-01-26
NEON.D01.BART.DP1.00033,44.063869,-71.287375,285,0.141,2015-01-26
NEON.D01.HARV.DP1.00033,42.536911,-72.17265,359,-0.081,2015-01-26
NEON.D01.HOPB.DP1.20002,42.471786,-72.329627,203,-0.286,2015-01-26
NEON.D02.BLAN.DP1.00033,39.033698,-78.041788,162,-0.414,2015-01-26
NEON.D02.LEWI.DP1.20002,39.09564,-77.98322,152,-0.478,2015-01-26
NEON.D02.POSE.DP1.20002,38.89332,-78.14678,293,-0.544,2015-01-26
NEON.D02.SCBI.DP1.00033,38.892925,-78.139494,364,-0.605,2015-01-26
NEON.D02.SERC.DP1.00033,38.89008,-76.56001,30,-0.019,2015-01-26
NEON.D03.BARC.DP1.20002,29.676473,-82.009089,35,-0.093,2015-01-26
NEON.D03.DSNY.DP1.00033,28.12505,-81.43619,22,0.098,2015-01-26
NEON.D03.FLNT.DP1.20002,31.185424,-84.437403,27,0.12,2015-01-26
NEON.D03.JERC.DP1.00033,31.194839,-84.468623,58,0.043,2015-01-26
NEON.D03.OSBS.DP1.00033,29.689282,-81.993431,56,-0.037,2015-01-26
NEON.D03.SUGG.DP1.20002,29.687054,-82.016171,28,-0.037,2015-01-26
NEON.D04.CUPE.DP1.20002,18.11352,-66.98676,164,-9999.0,2015-01-26
NEON.D04.GUAN.DP1.00033,17.96955,-66.8687,136,-9999.0,2015-01-26
NEON.D04.GUIL.DP1.20002,18.1741,-66.79851,564,-9999.0,2015-01-26
NEON.D04.LAJA.DP1.00033,18.021261,-67.076889,22,-9999.0,2015-01-26
NEON.D05.CRAM.DP1.20002,46.21111,-89.47825,518,1.385,2015-01-26
NEON.D05.LIRO.DP1.20002,45.998269,-89.704767,495,1.438,2015-01-26
NEON.D05.STEI.DP1.00033,45.50894,-89.58637,476,1.624,2015-01-26
NEON.D05.TREE.DP1.00033,45.49373,-89.58572,474,1.624,2015-01-26
NEON.D05.UNDE.DP1.00033,46.23391,-89.537254,529,1.368,2015-01-26
NEON.D06.KING.DP1.20002,39.10506,-96.60336,339,-0.398,2015-01-26
NEON.D06.KONA.DP1.00033,39.110446,-96.612935,443,-0.398,2015-01-26
NEON.D06.KONZ.DP1.00033,39.10077,-96.56309,415,-0.385,2015-01-26
NEON.D06.MCDI.DP1.20002,38.94428,-96.44197,376,-0.341,2015-01-26
NEON.D06.UKFS.DP1.00033,39.040431,-95.19215,330,-0.294,2015-01-26
NEON.D07.GRSM.DP1.00033,35.68896,-83.50195,589,0.158,2015-01-26
NEON.D07.LECO.DP1.20002,35.69043,-83.50379,578,0.158,2015-01-26
NEON.D07.MLBS.DP1.00033,37.378314,-80.524847,1177,0.425,2015-01-26
NEON.D07.ORNL.DP1.00033,35.964128,-84.282588,351,0.015,2015-01-26
NEON.D07.WALK.DP1.20002,35.95947,-84.28041,274,0.122,2015-01-26
NEON.D08.BLWA.DP1.20002,32.541529,-87.798151,23,-0.871,2015-01-26
NEON.D08.DELA.DP1.00033,32.541727,-87.803877,36,-0.871,2015-01-26
NEON.D08.LENO.DP1.00033,31.85388,-88.16122,10,-0.867,2015-01-26
NEON.D08.MAYF.DP1.20002,32.959657,-87.408128,93,-0.44,2015-01-26
NEON.D08.TALL.DP1.00033,32.95047,-87.393259,167,-0.44,2015-01-26
NEON.D08.TOMB.DP1.20002,31.853431,-88.158872,10,-0.867,2015-01-26
NEON.D09.DCFS.DP1.00033,47.161647,-99.106556,574,-0.256,2015-01-26
NEON.D09.NOGP.DP1.00033,46.76972,-100.91535,589,0.519,2015-01-26
NEON.D09.PRLA.DP1.20002,47.15909,-99.11388,563,-0.245,2015-01-26
NEON.D09.PRPO.DP1.20002,47.12999,-99.250551,587,-0.22,2015-01-26
NEON.D09.WOOD.DP1.00033,47.1282,-99.241334,585,-0.22,2015-01-26
NEON.D10.ARIK.DP1.20002,39.758246,-102.447103,1188,0.302,2015-01-26
NEON.D10.CPER.DP1.00033,40.81553,-104.7456,1600,-0.021,2015-01-26
NEON.D10.HQTW.DP1.00033,40.016704,-105.245612,1601,0.108,2015-01-26
NEON.D10.RMNP.DP1.00033,40.275903,-105.545955,2751,-0.103,2015-01-26
NEON.D10.STER.DP1.00033,40.461894,-103.02929,1366,0.908,2015-01-26
NEON.D11.BLUE.DP1.20002,34.444218,-96.624201,288,-0.717,2015-01-26
NEON.D11.CLBJ.DP1.00033,33.40123,-97.57,279,-0.509,2015-01-26
NEON.D11.OAES.DP1.00033,35.41059,-99.05879,520,-0.746,2015-01-26
NEON.D11.PRIN.DP1.20002,33.37859,-97.78226,255,-0.594,2015-01-26
NEON.D12.BLDE.DP1.20002,44.95011,-110.58715,2035,0.745,2015-01-26
NEON.D12.YELL.DP1.00033,44.95348,-110.53914,2130,0.989,2015-01-26
NEON.D13.COMO.DP1.20002,40.03496,-105.54487,3036,-0.105,2015-01-26
NEON.D13.MOAB.DP1.00033,38.24833,-109.38827,1803,0.768,2015-01-26
NEON.D13.NIWO.DP1.00033,40.05425,-105.58237,3493,0.261,2015-01-26
NEON.D13.WLOU.DP1.20002,39.891366,-105.915395,2920,0.594,2015-01-26
NEON.D14.JORN.DP1.00033,32.59068,-106.84254,1321,1.239,2015-01-26
NEON.D14.SRER.DP1.00033,31.91068,-110.83549,999,0.908,2015-01-26
NEON.D14.SYCA.DP1.20002,33.749057,-111.506903,644,0.753,2015-01-26
NEON.D15.ONAQ.DP1.00033,40.177599,-112.452452,1655,0.931,2015-01-26
NEON.D15.REDB.DP1.20002,40.783934,-111.797887,1696,0.307,2015-01-26
NEON.D16.ABBY.DP1.00033,45.76243,-122.33033,390,-0.382,2015-01-26
NEON.D16.MART.DP1.20002,45.791248,-121.931959,354,-0.12,2015-01-26
NEON.D16.MCRA.DP1.20002,44.259598,-122.165554,880,0.093,2015-01-26
NEON.D16.WREF.DP1.00033,45.82049,-121.95191,368,-0.159,2015-01-26
NEON.D17.BIGC.DP1.20002,37.059719,-119.257549,1133,-1.003,2015-01-26
NEON.D17.SJER.DP1.00033,37.10878,-119.73228,398,-0.996,2015-01-26
NEON.D17.SOAP.DP1.00033,37.03337,-119.26219,1210,-1.012,2015-01-26
NEON.D17.TEAK.DP1.00033,37.00583,-119.00602,2149,-1.032,2015-01-26
NEON.D17.TECR.DP1.20002,36.955931,-119.027363,2053,-1.075,2015-01-26
NEON.D18.BARR.DP1.00033,71.28241,-156.61936,7,-9999.0,2015-01-26
NEON.D18.OKSR.DP1.20002,68.669753,-149.143018,773,-9999.0,2015-01-26
NEON.D18.TOOK.DP1.20002,68.629562,-149.610509,715,-9999.0,2015-01-26
NEON.D18.TOOL.DP1.00033,68.66109,-149.37047,827,-9999.0,2015-01-26
NEON.D19.BONA.DP1.00033,65.15401,-147.50258,233,-9999.0,2015-01-26
NEON.D19.CARI.DP1.20002,65.15306,-147.50246,229,-9999.0,2015-01-26
NEON.D19.DEJU.DP1.00033,63.88112,-145.75136,504,-9999.0,2015-01-26
NEON.D19.HEAL.DP1.00033,63.87569,-149.21334,409,-9999.0,2015-01-26
NEON.D20.PUUM.DP1.00033,19.55309,-155.31731,1683,-9999.0,2015-01-26
nevcansnk3a,39.0099,-114.3095,3063,0.496,2015-01-26
nevcanspg1a,38.9253,-114.4082,1792,0.99,2015-01-26
nevcanspg2a,38.8921,-114.3521,2203,0.793,2015-01-26
nevcanspg3a,38.8898,-114.3314,2820,0.503,2015-01-26
nevcanspg4a,38.9061,-114.3089,3360,0.503,2015-01-26
ninemileprairie,40.86801886,-96.82208066,381,1.3,2015-01-26
nist,39.139,-77.2125,100,0.016,2015-01-26
niwot3,40.03286358,-105.5469702,3050,-0.105,2015-01-26
niwot5,40.03286358,-105.5469702,2993,-0.105,2015-01-26
northattleboroma,41.98369,-71.31056,60,-0.715,2015-01-26
northinletsaltmarsh,33.3455,-79.1957,1,-0.078,2015-01-26
oakville,47.899334,-97.316139,268,-0.754,2015-01-26
oregonMP,44.4523,-121.5574,1253,0.408,2015-01-26
oregonYP,44.32384,-121.605993,977,0.25,2015-01-26
oregonYPbud,44.3238,-121.606,977,0.25,2015-01-26
othshardwood,44.934805,-68.6655,41,0.272,2015-01-26
othssoftwood,44.934527,-68.664888,41,0.272,2015-01-26
pace,37.9229,-78.2739,100,-0.704,2015-01-26
parkschoolbuffalo,42.9637,-78.7834,205,-0.888,2015-01-26
piedmontalpasture2,33.8875,-85.6935,238,-0.12,2015-01-26
portal,31.9385,-109.0823,1330,1.405,2015-01-26
proctor,44.525,-72.866,403,-1.065,2015-01-26
readingma,42.5304,-71.1272,100,-0.213,2015-01-26
robinson,37.4671,-83.1576,483,0.618,2015-01-26
robinson2,37.4671,-83.1576,483,0.618,2015-01-26
rosemountcons,44.6946,-93.0578,283,-0.641,2015-01-26
rosemountconv,44.691,-93.0576,283,-0.641,2015-01-26
rosemountnprs,44.6781,-93.0723,274,-0.589,2015-01-26
russellsage,32.456961,-91.974322,20,-0.593,2015-01-26
sagehen,39.4315,-120.2398,1934,-0.895,2015-01-26
sagehen2,39.4307,-120.2407,1937,-0.895,2015-01-26
sagehen3,39.4311,-120.2405,1935,-0.895,2015-01-26
sanford,42.726777,-84.464482,268,-0.492,2015-01-26
santacruz1,36.9741,-122.0308,11,0.037,2015-01-26
santacruz2,36.9741,-122.0308,11,0.037,2015-01-26
santaluciapreserve1,36.5265,-121.8682,500,0.569,2015-01-26
santaluciapreserve2,36.5265,-121.8682,500,0.569,2015-01-26
segaarboretum10,35.16209,-111.73151,2170,0.314,2015-01-26
segaarboretum2,35.16209,-111.73151,2170,0.314,2015-01-26
segaarboretum3,35.16209,-111.73151,2170,0.314,2015-01-26
segaarboretum4,35.16214,-111.73153,2170,0.314,2015-01-26
segaarboretum6,35.16209,-111.73151,2170,0.314,2015-01-26
segaarboretum9,35.16222,-111.73158,2170,0.314,2015-01-26
segaarboretumforest,35.1613,-111.7359,2173,0.314,2015-01-26
segaarboretummeadow,35.1621,-111.7316,2157,0.314,2015-01-26
segablackpoint,35.6814,-111.4754,1566,0.557,2015-01-26
segabluechute,35.5876,-111.9716,1930,0.11,2015-01-26
segabluechute1,35.58759,-111.97115,1931,0.11,2015-01-26
segabluechute2,35.58759,-111.97115,1931,0.11,2015-01-26
segabluechute4,35.58759,-111.9716,1931,0.11,2015-01-26
segabluechute6,35.58759,-111.97115,1931,0.11,2015-01-26
segabluechute7,35.58759,-111.97115,1931,0.11,2015-01-26
segabluechute8,35.58759,-111.97115,1931,0.11,2015-01-26
segabradshaw,34.9109,-111.9285,1402,0.582,2015-01-26
segahartprairie,35.3536,-111.7324,2585,0.052,2015-01-26
segalcr,35.7231,-111.321,1275,0.413,2015-01-26
segalcr2,35.7069,-111.36,1495,0.448,2015-01-26
segalittlemountain,36.5865,-112.3634,2276,-0.08,2015-01-26
segasoapcreek,36.751,-111.716,1233,0.187,2015-01-26
segawhitepockets,36.6081,-112.4082,2057,-0.001,2015-01-26
sevilletagrass,34.360444,-106.700186,1600,1.124,2015-01-26
sevilletanewgrass,34.358,-106.6799,1603,1.112,2015-01-26
sevilletashrub,34.334956,-106.744469,1603,1.112,2015-01-26
sevMRME10L,34.3438,-106.7269,1604,1.099,2015-01-26
sevMRME11C,34.3438,-106.7268,1604,1.099,2015-01-26
sevMRME1S,34.3442,-106.7272,1604,1.099,2015-01-26
sevpjrm12,34.38615,-106.52621,1905,0.702,2015-01-26
sevpjrm13,34.38631,-106.52791,1914,0.702,2015-01-26
shalehillsczo,40.6658,-77.9041,310,-1.032,2015-01-26
shenandoah,38.6167,-78.35,1037,-0.901,2015-01-26
silverton,44.9986,-122.6948,347,-0.676,2015-01-26
siwetland,38.0369,-121.7546,-5,0.275,2015-01-26
slatefloodplain,38.9094,-107.0282,2725,-0.003,2015-01-26
snodgrass1,38.92619636,-106.9714376,3023,-0.046,2015-01-26
snodgrass2,38.92619636,-106.9714376,3023,-0.046,2015-01-26
snodgrass3,38.92839978,-106.9781196,3141,-0.046,2015-01-26
snodgrass4,38.92839978,-106.9781196,3141,-0.046,2015-01-26
snodgrass5,38.92744789,-106.9785209,3152,-0.046,2015-01-26
snodgrass6,38.92744789,-106.9785209,3152,-0.046,2015-01-26
snodgrass7,38.93142134,-106.9852388,3363,0.026,2015-01-26
snodgrass8,38.93142134,-106.9852388,3363,0.026,2015-01-26
southerngreatplains,36.6058,-97.4888,314,-0.794,2015-01-26
springfieldma,42.135162,-72.585972,56,-0.057,2015-01-26
spruceA0EMI,47.5049,-93.4541,413,-0.868,2015-01-26
spruceA0EMT,47.5049,-93.4541,418,-0.868,2015-01-26
spruceA0P07,47.50493,-93.45314,413,-0.868,2015-01-26
spruceA0P07SH,47.50493,-93.45314,413,-0.868,2015-01-26
spruceA0P21,47.50625,-93.45275,413,-0.868,2015-01-26
spruceA0P21SH,47.50625,-93.45275,413,-0.868,2015-01-26
srg,31.7894,-110.8276,1281,1.024,2015-01-26
srm,31.8214,-110.8661,1116,0.988,2015-01-26
statenrice1,38.1235,-121.549,-5,-0.197,2015-01-26
stjones,39.088222,-75.43725,2,0.262,2015-01-26
sweetbriar,37.57341,-79.08482,242,-0.767,2015-01-26
sweetbriarclearcut,37.5753,-79.0872,242,-0.767,2015-01-26
sweetbriargrass,37.5605,-79.0884,240,-0.767,2015-01-26
sylvania,46.242,-89.348,540,1.504,2015-01-26
templefieldstation1,40.1667,-75.1894,105,-0.909,2015-01-26
tfforest,43.1086,-70.9505,23,-0.655,2015-01-26
tidmarshplymouth,41.9157,-70.5754,9,-0.053,2015-01-26
tonzi,38.43091667,-120.9658861,177,-0.145,2015-01-26
townsenddemeadow,39.3917,-75.6281,11,0.307,2015-01-26
tsubiology,36.1671,-86.8295,164,0.158,2015-01-26
tsubiology2,36.1171,-86.8295,100,-0.139,2015-01-26
tuckerprairie,38.9491,-91.9952,274,0.584,2015-01-26
twodafo,29.1658,-95.829,16,0.307,2015-01-26
tworfaa,31.4777,-96.8882,167,-0.432,2015-01-26
tworfpr,31.4802,-96.8826,162,-0.473,2015-01-26
tworfta,31.4693,-96.8864,173,-0.432,2015-01-26
twosfpr,30.6176,-97.2938,157,0.127,2015-01-26
ucnrsanzaborrego,33.2401,-116.3886,214,0.0,2015-01-26
ufona,27.3836,-81.950856,25,0.753,2015-01-26
uiefmaize2,40.0628,-88.1961,224,-0.431,2015-01-26
uiefmiscanthus2,40.0628,-88.1984,221,-0.431,2015-01-26
uiefprairie2,40.0637,-88.1973,224,-0.431,2015-01-26
uiefsorghum,40.0065,-88.2032,224,-0.506,2015-01-26
uiefswitchgrass2,40.0637,-88.1973,224,-0.431,2015-01-26
umichbiological,45.55984,-84.71382,230,2.392,2015-01-26
umichbiological2,45.5625,-84.6976,240,2.364,2015-01-26
unca,35.5951,-82.5515,650,-0.099,2015-01-26
usgseros,43.7343,-96.6234,448,-0.044,2015-01-26
usmpj,34.43845,-106.2543606,2126,0.443,2015-01-26
usof5,35.7297,-90.0406,70,-0.78,2015-01-26
usof6,35.7333,-90.0403,70,-0.78,2015-01-26
uwmfieldsta,43.38709,-88.0229,265,-0.444,2015-01-26
vaira,38.41328056,-120.9506361,129,-0.145,2015-01-26
vallesburnedconifer,35.8884,-106.5321,3043,-0.72,2015-01-26
vallesmixedconifer,35.9192,-106.6142,2752,-0.603,2015-01-26
vallesponderosapine,35.864,-106.5964,2501,-0.553,2015-01-26
waahila,21.3017,-157.8152,55,-9999.0,2015-01-26
warrenwilson,35.6069,-82.4421,2198,0.096,2015-01-26
willamettepoplar,44.1368,-123.1823,112,-0.563,2015-01-26
willowcreek,45.805986,-90.07912,521,1.404,2015-01-26
windriver,45.8212833,-121.9520833,371,-0.159,2015-01-26
windriverunderstory,45.8212833,-121.9520833,371,-0.159,2015-01-26
wolfesneckfarm,43.8305,-70.0715,16,0.083,2015-01-26
worcester,42.2697,-71.8428,185,-0.117,2015-01-26
alligatorriver,35.7879,-75.9038,1,0.888,2015-02-02
arbutuslake,43.98207,-74.23322,535,-1.036,2015-02-02
arbutuslakeinlet,43.99336,-74.24527,527,-1.036,2015-02-02
archboldavir,27.176064,-81.21958,8,0.01,2015-02-02
archboldavirx,27.166627,-81.219828,8,0.01,2015-02-02
archboldbahia,27.1656,-81.216112,8,0.01,2015-02-02
archboldpnot,27.187948,-81.200345,9,0.01,2015-02-02
archboldpnotx,27.180677,-81.20068,9,0.01,2015-02-02
arkansascornsoy,34.416,-91.6723,61,-1.271,2015-02-02
arsbrooks10,41.9749,-93.6905,312,0.936,2015-02-02
arsbrooks11,41.9744,-93.6937,313,0.936,2015-02-02
arscolesnorth,42.4884,-93.5225,356,0.257,2015-02-02
arscolessouth,42.4816,-93.5235,352,0.257,2015-02-02
arsgacp1,31.5109,-83.6179,96,0.809,2015-02-02
arsgacp3,31.7563,-83.7516,139,0.341,2015-02-02
arsgacp4,31.7093,-83.7287,127,0.527,2015-02-02
arsgreatbasinltar098,43.1675,-116.7132,1426,0.201,2015-02-02
arsgreatbasinltar117,43.1432,-116.7357,1625,-0.061,2015-02-02
arsgreatbasinltar177,43.0645,-116.7484,2114,-0.461,2015-02-02
arsltarmdcr,39.0587,-75.8513,17,0.034,2015-02-02
arsltarmdcrnatw,39.0575,-75.7531,16,0.015,2015-02-02
arsltarmdcrprcw,39.0667,-75.7609,17,0.015,2015-02-02
arsltarmdcrresw,39.0549,-75.7532,16,0.015,2015-02-02
arsltarucbec1,40.7537,-78.0057,400,-1.218,2015-02-02
arsltarucbec2,40.7558,-77.9999,396,-1.218,2015-02-02
arsmnswanlake1,45.684508,-95.799703,370,-0.723,2015-02-02
arsmorris1,45.6167,-96.1269,341,-0.45,2015-02-02
arsmorris2,45.627,-96.127,338,-0.45,2015-02-02
arsmorris3,45.6091,-96.1265,342,-0.45,2015-02-02
arsope3ltar,39.0309,-76.8442,41,-0.345,2015-02-02
ashburnham,42.6029,-71.926,292,0.05,2015-02-02
asuhighlands,36.2076,-81.7032,1016,0.008,2015-02-02
austincary,29.738,-82.2188,44,0.305,2015-02-02
barrow,71.28007453,-156.6091492,5,-9999.0,2015-02-02
bartlettir,44.0646,-71.2881,268,-0.244,2015-02-02
bigtraillake,64.9194,-147.822,190,-9999.0,2015-02-02
bitterbrush001,48.154,-119.9456,667,0.228,2015-02-02
blackrockforest,41.3974,-74.0239,427,-1.042,2015-02-02
bnzblackspruce,64.6963,-148.3235,102,-9999.0,2015-02-02
bnzrichfen,64.70134,-148.31195,97,-9999.0,2015-02-02
bnzthermokarstbog,64.6955,-148.3208,104,-9999.0,2015-02-02
boglakepeatland,47.5051,-93.4893,416,-0.728,2015-02-02
bostoncommon,42.355912,-71.064145,10,-0.134,2015-02-02
bostonu,42.35041,-71.10438,10,-0.152,2015-02-02
bouldinalfalfa,38.0985,-121.4993,-5,-0.359,2015-02-02
bouldincorn,38.109,-121.535,-5,-0.344,2015-02-02
bozeman,45.783056,-110.777778,2332,1.225,2015-02-02
brackishimpoundment,33.2015,-79.2973,1,-0.319,2015-02-02
bullshoals,36.562833,-93.06663,260,-0.763,2015-02-02
burnssagebrush,43.4712,-119.6909,1398,0.05,2015-02-02
butte,45.95304,-112.47964,1682,1.096,2015-02-02
butterice,39.5793,-121.858,33,-0.175,2015-02-02
cafboydnorthltar01,46.755104,-117.126052,795,-0.913,2015-02-02
cafboydsouthltar01,46.751809,-117.128502,795,-0.913,2015-02-02
cafcookeastltar01,46.78152,-117.0821,794,-0.923,2015-02-02
cafcookwestltar01,46.784037,-117.09083,807,-0.923,2015-02-02
caryinstitute,41.7839,-73.7341,127,-1.164,2015-02-02
centralredwoods1,38.632272,-123.301511,200,0.022,2015-02-02
centralredwoods2,38.632272,-123.301511,200,0.022,2015-02-02
cperagm,40.8402,-104.7672,1644,0.066,2015-02-02
cperheavy,40.8153,-104.7386,1652,-0.067,2015-02-02
cpertgm,40.833,-104.76,1644,-0.107,2015-02-02
cperuvb,40.8055764,-104.7558542,1641,-0.107,2015-02-02
cuny,40.8162,-73.9507,42,-0.427,2015-02-02
doverdesaltmarsh,39.0888,-75.4368,0,0.227,2015-02-02
downerwoods,43.07938,-87.88076,213,-0.587,2015-02-02
dukehw,35.973583,-79.100371,400,-0.575,2015-02-02
ecb1,41.5348,-84.8068,275,-0.799,2015-02-02
ecb2,41.5321,-84.808,275,-0.799,2015-02-02
ecb4,41.1796,-83.0604,240,-1.113,2015-02-02
elverde,18.320654,-65.8199,312,-9999.0,2015-02-02
flagstaff,35.17961521,-111.6049032,6983,0.058,2015-02-02
flagstaff2,35.179225,-111.604506,6983,0.058,2015-02-02
flagstaffchimneysprings,35.257296,-111.678542,2250,-0.052,2015-02-02
forbes,39.232,-121.2972,360,-0.21,2015-02-02
fortpaynealpasture1,34.3824,-85.6428,405,-0.419,2015-02-02
fortpaynealpasture2,34.3824,-85.6447,403,-0.419,2015-02-02
gcesapelo,31.4440444,-81.283528,0,-0.515,2015-02-02
gilberttract,38.0015,-121.6691,6,-0.051,2015-02-02
glees,41.3644,-106.2394,3150,-0.014,2015-02-02
glennorganicrice,39.6805,-122.0026,2,0.081,2015-02-02
glennrice,39.5944,-122.0253,36,-0.091,2015-02-02
goodnow,43.96018,-74.20994,820,-1.006,2015-02-02
goodwater,39.22848,-92.11936,264,-0.072,2015-02-02
goodwaterbau,39.23115,-92.15216,274,-0.076,2015-02-02
grandteton,43.915017,-110.578036,2054,0.831,2015-02-02
grca1pj,36.0241,-112.2211,1978,0.161,2015-02-02
greenridge1,39.6905,-78.4067,285,-0.97,2015-02-02
harvard,42.5378,-72.1715,340,-0.437,2015-02-02
harvardbarn,42.53532,-72.1899,350,-0.431,2015-02-02
harvardbarn2,42.53532,-72.1899,350,-0.431,2015-02-02
harvardems2,42.5378,-72.1715,340,-0.437,2015-02-02
harvardfarmnorth,42.520465,-72.182242,355,-0.431,2015-02-02
harvardfarmsouth,42.522466,-72.182339,355,-0.431,2015-02-02
harvardgarden,42.5291,-72.1863,335,-0.431,2015-02-02
harvardhemlock,42.539,-72.18,355,-0.431,2015-02-02
harvardhemlock2,42.539407,-72.177976,355,-0.437,2015-02-02
harvardlph,42.542,-72.185,380,-0.431,2015-02-02
hawbeckereddy,40.6608,-77.848849,310,-1.013,2015-02-02
hobcawclearcutlongleaf,33.3486,-79.232,4,-0.403,2015-02-02
hobcawmaturelongleaf,33.3242,-79.2439,8,-0.403,2015-02-02
homesteadsprings,37.2009,-92.9937,452,-0.685,2015-02-02
howland1,45.2041,-68.7403,80,0.226,2015-02-02
howland2,45.2128,-68.7418,79,0.226,2015-02-02
hubbardbrook,43.9438,-71.701,253,-0.568,2015-02-02
humnokericea,34.585192,-91.751684,61,-1.426,2015-02-02
humnokericec,34.588853,-91.7516729,70,-1.426,2015-02-02
huyckpreserveny,42.5266,-74.1587,478,-0.879,2015-02-02
hwmo1,20.0212,-155.7331,585,-9999.0,2015-02-02
hwmo2,19.9766,-155.8298,12,-9999.0,2015-02-02
hwmo5,20.1117,-155.8151,635,-9999.0,2015-02-02
ibp,32.589,-106.847,1325,1.228,2015-02-02
imcrkfen,68.60583,-149.31101,900,-9999.0,2015-02-02
imcrkridge0,68.60681,-149.2958,951,-9999.0,2015-02-02
imcrkridge1,68.60681,-149.2958,951,-9999.0,2015-02-02
imcrktussock,68.60633,-149.30408,918,-9999.0,2015-02-02
jasperridge,37.402028,-122.22104,197,0.351,2015-02-02
jerbajada,32.57992,-106.633793,1402,1.271,2015-02-02
jergrassland,32.5833,-106.8333,1331,1.228,2015-02-02
jernort,32.619,-106.788,1328,1.184,2015-02-02
jernovel,32.6335,-106.8334,1324,1.261,2015-02-02
jernwern,32.6271,-106.7387,1325,1.2,2015-02-02
jersand,32.515,-106.798,1363,1.174,2015-02-02
jershrubland,32.6502,-106.8334,1328,1.328,2015-02-02
junipersavannah,34.4254,-105.8615,1931,0.577,2015-02-02
kamuela,20.015008,-155.661326,850,-9999.0,2015-02-02
kamuela2,20.014959,-155.661139,830,-9999.0,2015-02-02
kansas,39.0561,-95.1907,333,-0.359,2015-02-02
kelloggcorn,42.437536,-85.3225472,288,-0.339,2015-02-02
kempnrs,45.83992,-89.67755,539,1.709,2015-02-02
kendall,31.73652,-109.94185,1529,1.725,2015-02-02
konza,39.0824,-96.5603,443,-0.58,2015-02-02
laupahoehoe,19.9322,-155.2912,1145,-9999.0,2015-02-02
ldeocam,41.0039,-73.9053,121,-0.79,2015-02-02
lostcreek,46.0827,-89.9792,480,1.131,2015-02-02
luckyhills,31.743896,-110.052023,1366,1.715,2015-02-02
macleish,42.4484,-72.6804,251,-0.299,2015-02-02
macordway,44.8106,-93.0272,264,-0.516,2015-02-02
mandanh5,46.775423,-100.95109,593,0.539,2015-02-02
mandani2,46.7614,-100.9257,590,0.531,2015-02-02
manilacotton,35.8872,-90.1371,73,-0.896,2015-02-02
marena,36.06434,-97.21271,327,-0.939,2015-02-02
mead1,41.1651,-96.4766,361,1.145,2015-02-02
mead2,41.1649,-96.4701,362,1.145,2015-02-02
mead3,41.1797,-96.4397,363,1.154,2015-02-02
meadpasture,41.1447,-96.4616,356,1.084,2015-02-02
meadpasturese,41.1447,-96.4616,356,1.084,2015-02-02
meadpasturesw,41.1447,-96.4616,356,1.084,2015-02-02
missouriozarks,38.7441,-92.2,219,0.157,2015-02-02
morganmonroe,39.3231,-86.4131,275,-0.162,2015-02-02
morganmonroe2,39.3231,-86.4131,275,-0.162,2015-02-02
nahuku,19.415187,-155.238383,1202,-9999.0,2015-02-02
nationalelkrefuge,43.488931,-110.737824,1899,1.367,2015-02-02
ncssm,36.018446,-78.92075,175,-0.425,2015-02-02
NEON.D01.BART.DP1.00033,44.063869,-71.287375,285,-0.244,2015-02-02
NEON.D01.HARV.DP1.00033,42.536911,-72.17265,359,-0.437,2015-02-02
NEON.D01.HOPB.DP1.20002,42.471786,-72.329627,203,-0.651,2015-02-02
NEON.D02.BLAN.DP1.00033,39.033698,-78.041788,162,-0.526,2015-02-02
NEON.D02.LEWI.DP1.20002,39.09564,-77.98322,152,-0.509,2015-02-02
NEON.D02.POSE.DP1.20002,38.89332,-78.14678,293,-0.685,2015-02-02
NEON.D02.SCBI.DP1.00033,38.892925,-78.139494,364,-0.751,2015-02-02
NEON.D02.SERC.DP1.00033,38.89008,-76.56001,30,-0.544,2015-02-02
NEON.D03.BARC.DP1.20002,29.676473,-82.009089,35,-0.231,2015-02-02
NEON.D03.DSNY.DP1.00033,28.12505,-81.43619,22,0.151,2015-02-02
NEON.D03.FLNT.DP1.20002,31.185424,-84.437403,27,0.023,2015-02-02
NEON.D03.JERC.DP1.00033,31.194839,-84.468623,58,-0.019,2015-02-02
NEON.D03.OSBS.DP1.00033,29.689282,-81.993431,56,-0.183,2015-02-02
NEON.D03.SUGG.DP1.20002,29.687054,-82.016171,28,-0.183,2015-02-02
NEON.D04.CUPE.DP1.20002,18.11352,-66.98676,164,-9999.0,2015-02-02
NEON.D04.GUAN.DP1.00033,17.96955,-66.8687,136,-9999.0,2015-02-02
NEON.D04.GUIL.DP1.20002,18.1741,-66.79851,564,-9999.0,2015-02-02
NEON.D04.LAJA.DP1.00033,18.021261,-67.076889,22,-9999.0,2015-02-02
NEON.D05.CRAM.DP1.20002,46.21111,-89.47825,518,1.462,2015-02-02
NEON.D05.LIRO.DP1.20002,45.998269,-89.704767,495,1.488,2015-02-02
NEON.D05.STEI.DP1.00033,45.50894,-89.58637,476,1.747,2015-02-02
NEON.D05.TREE.DP1.00033,45.49373,-89.58572,474,1.747,2015-02-02
NEON.D05.UNDE.DP1.00033,46.23391,-89.537254,529,1.452,2015-02-02
NEON.D06.KING.DP1.20002,39.10506,-96.60336,339,-0.589,2015-02-02
NEON.D06.KONA.DP1.00033,39.110446,-96.612935,443,-0.589,2015-02-02
NEON.D06.KONZ.DP1.00033,39.10077,-96.56309,415,-0.58,2015-02-02
NEON.D06.MCDI.DP1.20002,38.94428,-96.44197,376,-0.473,2015-02-02
NEON.D06.UKFS.DP1.00033,39.040431,-95.19215,330,-0.359,2015-02-02
NEON.D07.GRSM.DP1.00033,35.68896,-83.50195,589,-0.047,2015-02-02
NEON.D07.LECO.DP1.20002,35.69043,-83.50379,578,-0.047,2015-02-02
NEON.D07.MLBS.DP1.00033,37.378314,-80.524847,1177,-0.137,2015-02-02
NEON.D07.ORNL.DP1.00033,35.964128,-84.282588,351,-0.161,2015-02-02
NEON.D07.WALK.DP1.20002,35.95947,-84.28041,274,-0.088,2015-02-02
NEON.D08.BLWA.DP1.20002,32.541529,-87.798151,23,-1.118,2015-02-02
NEON.D08.DELA.DP1.00033,32.541727,-87.803877,36,-1.118,2015-02-02
NEON.D08.LENO.DP1.00033,31.85388,-88.16122,10,-1.242,2015-02-02
NEON.D08.MAYF.DP1.20002,32.959657,-87.408128,93,-0.586,2015-02-02
NEON.D08.TALL.DP1.00033,32.95047,-87.393259,167,-0.586,2015-02-02
NEON.D08.TOMB.DP1.20002,31.853431,-88.158872,10,-1.242,2015-02-02
NEON.D09.DCFS.DP1.00033,47.161647,-99.106556,574,-0.095,2015-02-02
NEON.D09.NOGP.DP1.00033,46.76972,-100.91535,589,0.531,2015-02-02
NEON.D09.PRLA.DP1.20002,47.15909,-99.11388,563,-0.078,2015-02-02
NEON.D09.PRPO.DP1.20002,47.12999,-99.250551,587,-0.023,2015-02-02
NEON.D09.WOOD.DP1.00033,47.1282,-99.241334,585,-0.023,2015-02-02
NEON.D10.ARIK.DP1.20002,39.758246,-102.447103,1188,0.372,2015-02-02
NEON.D10.CPER.DP1.00033,40.81553,-104.7456,1600,-0.107,2015-02-02
NEON.D10.HQTW.DP1.00033,40.016704,-105.245612,1601,-0.049,2015-02-02
NEON.D10.RMNP.DP1.00033,40.275903,-105.545955,2751,-0.328,2015-02-02
NEON.D10.STER.DP1.00033,40.461894,-103.02929,1366,0.88,2015-02-02
NEON.D11.BLUE.DP1.20002,34.444218,-96.624201,288,-0.824,2015-02-02
NEON.D11.CLBJ.DP1.00033,33.40123,-97.57,279,-0.545,2015-02-02
NEON.D11.OAES.DP1.00033,35.41059,-99.05879,520,-0.718,2015-02-02
NEON.D11.PRIN.DP1.20002,33.37859,-97.78226,255,-0.583,2015-02-02
NEON.D12.BLDE.DP1.20002,44.95011,-110.58715,2035,0.64,2015-02-02
NEON.D12.YELL.DP1.00033,44.95348,-110.53914,2130,0.927,2015-02-02
NEON.D13.COMO.DP1.20002,40.03496,-105.54487,3036,-0.463,2015-02-02
NEON.D13.MOAB.DP1.00033,38.24833,-109.38827,1803,0.382,2015-02-02
NEON.D13.NIWO.DP1.00033,40.05425,-105.58237,3493,-0.062,2015-02-02
NEON.D13.WLOU.DP1.20002,39.891366,-105.915395,2920,0.395,2015-02-02
NEON.D14.JORN.DP1.00033,32.59068,-106.84254,1321,1.228,2015-02-02
NEON.D14.SRER.DP1.00033,31.91068,-110.83549,999,1.08,2015-02-02
NEON.D14.SYCA.DP1.20002,33.749057,-111.506903,644,0.799,2015-02-02
NEON.D15.ONAQ.DP1.00033,40.177599,-112.452452,1655,0.852,2015-02-02
NEON.D15.REDB.DP1.20002,40.783934,-111.797887,1696,-0.093,2015-02-02
NEON.D16.ABBY.DP1.00033,45.76243,-122.33033,390,-0.606,2015-02-02
NEON.D16.MART.DP1.20002,45.791248,-121.931959,354,-0.416,2015-02-02
NEON.D16.MCRA.DP1.20002,44.259598,-122.165554,880,-0.231,2015-02-02
NEON.D16.WREF.DP1.00033,45.82049,-121.95191,368,-0.45,2015-02-02
NEON.D17.BIGC.DP1.20002,37.059719,-119.257549,1133,-1.054,2015-02-02
NEON.D17.SJER.DP1.00033,37.10878,-119.73228,398,-1.066,2015-02-02
NEON.D17.SOAP.DP1.00033,37.03337,-119.26219,1210,-1.063,2015-02-02
NEON.D17.TEAK.DP1.00033,37.00583,-119.00602,2149,-1.082,2015-02-02
NEON.D17.TECR.DP1.20002,36.955931,-119.027363,2053,-1.133,2015-02-02
NEON.D18.BARR.DP1.00033,71.28241,-156.61936,7,-9999.0,2015-02-02
NEON.D18.OKSR.DP1.20002,68.669753,-149.143018,773,-9999.0,2015-02-02
NEON.D18.TOOK.DP1.20002,68.629562,-149.610509,715,-9999.0,2015-02-02
NEON.D18.TOOL.DP1.00033,68.66109,-149.37047,827,-9999.0,2015-02-02
NEON.D19.BONA.DP1.00033,65.15401,-147.50258,233,-9999.0,2015-02-02
NEON.D19.CARI.DP1.20002,65.15306,-147.50246,229,-9999.0,2015-02-02
NEON.D19.DEJU.DP1.00033,63.88112,-145.75136,504,-9999.0,2015-02-02
NEON.D19.HEAL.DP1.00033,63.87569,-149.21334,409,-9999.0,2015-02-02
NEON.D20.PUUM.DP1.00033,19.55309,-155.31731,1683,-9999.0,2015-02-02
nevcansnk3a,39.0099,-114.3095,3063,0.361,2015-02-02
nevcanspg1a,38.9253,-114.4082,1792,0.804,2015-02-02
nevcanspg2a,38.8921,-114.3521,2203,0.625,2015-02-02
nevcanspg3a,38.8898,-114.3314,2820,0.367,2015-02-02
nevcanspg4a,38.9061,-114.3089,3360,0.367,2015-02-02
ninemileprairie,40.86801886,-96.82208066,381,1.34,2015-02-02
nist,39.139,-77.2125,100,-0.175,2015-02-02
niwot3,40.03286358,-105.5469702,3050,-0.463,2015-02-02
niwot5,40.03286358,-105.5469702,2993,-0.463,2015-02-02
northattleboroma,41.98369,-71.31056,60,-0.577,2015-02-02
northinletsaltmarsh,33.3455,-79.1957,1,-0.339,2015-02-02
oakville,47.899334,-97.316139,268,-0.578,2015-02-02
oregonMP,44.4523,-121.5574,1253,-0.071,2015-02-02
oregonYP,44.32384,-121.605993,977,-0.208,2015-02-02
oregonYPbud,44.3238,-121.606,977,-0.208,2015-02-02
othshardwood,44.934805,-68.6655,41,0.277,2015-02-02
othssoftwood,44.934527,-68.664888,41,0.277,2015-02-02
pace,37.9229,-78.2739,100,-0.755,2015-02-02
parkschoolbuffalo,42.9637,-78.7834,205,-1.078,2015-02-02
piedmontalpasture2,33.8875,-85.6935,238,-0.312,2015-02-02
portal,31.9385,-109.0823,1330,1.521,2015-02-02
proctor,44.525,-72.866,403,-1.238,2015-02-02
readingma,42.5304,-71.1272,100,-0.08,2015-02-02
robinson,37.4671,-83.1576,483,0.447,2015-02-02
robinson2,37.4671,-83.1576,483,0.447,2015-02-02
rosemountcons,44.6946,-93.0578,283,-0.517,2015-02-02
rosemountconv,44.691,-93.0576,283,-0.517,2015-02-02
rosemountnprs,44.6781,-93.0723,274,-0.447,2015-02-02
russellsage,32.456961,-91.974322,20,-0.813,2015-02-02
sagehen,39.4315,-120.2398,1934,-1.018,2015-02-02
sagehen2,39.4307,-120.2407,1937,-1.018,2015-02-02
sagehen3,39.4311,-120.2405,1935,-1.018,2015-02-02
sanford,42.726777,-84.464482,268,-0.431,2015-02-02
santacruz1,36.9741,-122.0308,11,-0.098,2015-02-02
santacruz2,36.9741,-122.0308,11,-0.098,2015-02-02
santaluciapreserve1,36.5265,-121.8682,500,0.384,2015-02-02
santaluciapreserve2,36.5265,-121.8682,500,0.384,2015-02-02
segaarboretum10,35.16209,-111.73151,2170,0.026,2015-02-02
segaarboretum2,35.16209,-111.73151,2170,0.026,2015-02-02
segaarboretum3,35.16209,-111.73151,2170,0.026,2015-02-02
segaarboretum4,35.16214,-111.73153,2170,0.026,2015-02-02
