site,lat,lon,elev,values,date
alligatorriver,35.7879,-75.9038,1,0.561,2017-01-02
arbutuslake,43.98207,-74.23322,535,1.141,2017-01-02
arbutuslakeinlet,43.99336,-74.24527,527,1.141,2017-01-02
archboldavir,27.176064,-81.21958,8,-2.307,2017-01-02
archboldavirx,27.166627,-81.219828,8,-2.307,2017-01-02
archboldbahia,27.1656,-81.216112,8,-2.307,2017-01-02
archboldpnot,27.187948,-81.200345,9,-2.307,2017-01-02
archboldpnotx,27.180677,-81.20068,9,-2.307,2017-01-02
arkansascornsoy,34.416,-91.6723,61,0.429,2017-01-02
arsbrooks10,41.9749,-93.6905,312,-0.493,2017-01-02
arsbrooks11,41.9744,-93.6937,313,-0.493,2017-01-02
arscolesnorth,42.4884,-93.5225,356,-0.108,2017-01-02
arscolessouth,42.4816,-93.5235,352,-0.108,2017-01-02
arsgacp1,31.5109,-83.6179,96,0.415,2017-01-02
arsgacp3,31.7563,-83.7516,139,0.462,2017-01-02
arsgacp4,31.7093,-83.7287,127,0.594,2017-01-02
arsgreatbasinltar098,43.1675,-116.7132,1426,0.257,2017-01-02
arsgreatbasinltar117,43.1432,-116.7357,1625,-0.026,2017-01-02
arsgreatbasinltar177,43.0645,-116.7484,2114,-0.278,2017-01-02
arsltarmdcr,39.0587,-75.8513,17,-0.933,2017-01-02
arsltarmdcrnatw,39.0575,-75.7531,16,-0.983,2017-01-02
arsltarmdcrprcw,39.0667,-75.7609,17,-0.983,2017-01-02
arsltarmdcrresw,39.0549,-75.7532,16,-0.983,2017-01-02
arsltarucbec1,40.7537,-78.0057,400,0.465,2017-01-02
arsltarucbec2,40.7558,-77.9999,396,0.465,2017-01-02
arsmnswanlake1,45.684508,-95.799703,370,0.75,2017-01-02
arsmorris1,45.6167,-96.1269,341,0.831,2017-01-02
arsmorris2,45.627,-96.127,338,0.831,2017-01-02
arsmorris3,45.6091,-96.1265,342,0.831,2017-01-02
arsope3ltar,39.0309,-76.8442,41,-1.381,2017-01-02
ashburnham,42.6029,-71.926,292,-0.506,2017-01-02
asuhighlands,36.2076,-81.7032,1016,-0.801,2017-01-02
austincary,29.738,-82.2188,44,-0.921,2017-01-02
barrow,71.28007453,-156.6091492,5,-9999.0,2017-01-02
bartlettir,44.0646,-71.2881,268,0.101,2017-01-02
bigtraillake,64.9194,-147.822,190,-9999.0,2017-01-02
bitterbrush001,48.154,-119.9456,667,1.04,2017-01-02
blackrockforest,41.3974,-74.0239,427,-0.145,2017-01-02
bnzblackspruce,64.6963,-148.3235,102,-9999.0,2017-01-02
bnzrichfen,64.70134,-148.31195,97,-9999.0,2017-01-02
bnzthermokarstbog,64.6955,-148.3208,104,-9999.0,2017-01-02
boglakepeatland,47.5051,-93.4893,416,0.767,2017-01-02
bostoncommon,42.355912,-71.064145,10,-0.046,2017-01-02
bostonu,42.35041,-71.10438,10,-0.001,2017-01-02
bouldinalfalfa,38.0985,-121.4993,-5,0.955,2017-01-02
bouldincorn,38.109,-121.535,-5,0.962,2017-01-02
bozeman,45.783056,-110.777778,2332,0.561,2017-01-02
brackishimpoundment,33.2015,-79.2973,1,0.307,2017-01-02
bullshoals,36.562833,-93.06663,260,-0.651,2017-01-02
burnssagebrush,43.4712,-119.6909,1398,0.396,2017-01-02
butte,45.95304,-112.47964,1682,-0.028,2017-01-02
butterice,39.5793,-121.858,33,0.676,2017-01-02
cafboydnorthltar01,46.755104,-117.126052,795,1.299,2017-01-02
cafboydsouthltar01,46.751809,-117.128502,795,1.299,2017-01-02
cafcookeastltar01,46.78152,-117.0821,794,1.384,2017-01-02
cafcookwestltar01,46.784037,-117.09083,807,1.384,2017-01-02
caryinstitute,41.7839,-73.7341,127,0.418,2017-01-02
centralredwoods1,38.632272,-123.301511,200,1.086,2017-01-02
centralredwoods2,38.632272,-123.301511,200,1.086,2017-01-02
cperagm,40.8402,-104.7672,1644,-1.354,2017-01-02
cperheavy,40.8153,-104.7386,1652,-1.23,2017-01-02
cpertgm,40.833,-104.76,1644,-1.237,2017-01-02
cperuvb,40.8055764,-104.7558542,1641,-1.237,2017-01-02
cuny,40.8162,-73.9507,42,0.202,2017-01-02
doverdesaltmarsh,39.0888,-75.4368,0,-0.901,2017-01-02
downerwoods,43.07938,-87.88076,213,0.786,2017-01-02
dukehw,35.973583,-79.100371,400,-0.732,2017-01-02
ecb1,41.5348,-84.8068,275,0.071,2017-01-02
ecb2,41.5321,-84.808,275,0.071,2017-01-02
ecb4,41.1796,-83.0604,240,-0.978,2017-01-02
elverde,18.320654,-65.8199,312,-9999.0,2017-01-02
flagstaff,35.17961521,-111.6049032,6983,0.731,2017-01-02
flagstaff2,35.179225,-111.604506,6983,0.731,2017-01-02
flagstaffchimneysprings,35.257296,-111.678542,2250,0.729,2017-01-02
forbes,39.232,-121.2972,360,1.131,2017-01-02
fortpaynealpasture1,34.3824,-85.6428,405,-1.622,2017-01-02
fortpaynealpasture2,34.3824,-85.6447,403,-1.622,2017-01-02
gcesapelo,31.4440444,-81.283528,0,0.87,2017-01-02
gilberttract,38.0015,-121.6691,6,0.882,2017-01-02
glees,41.3644,-106.2394,3150,0.455,2017-01-02
glennorganicrice,39.6805,-122.0026,2,0.811,2017-01-02
glennrice,39.5944,-122.0253,36,0.529,2017-01-02
goodnow,43.96018,-74.20994,820,1.121,2017-01-02
goodwater,39.22848,-92.11936,264,-1.801,2017-01-02
goodwaterbau,39.23115,-92.15216,274,-1.793,2017-01-02
grandteton,43.915017,-110.578036,2054,1.904,2017-01-02
grca1pj,36.0241,-112.2211,1978,0.815,2017-01-02
greenridge1,39.6905,-78.4067,285,-1.005,2017-01-02
harvard,42.5378,-72.1715,340,-0.3,2017-01-02
harvardbarn,42.53532,-72.1899,350,-0.316,2017-01-02
harvardbarn2,42.53532,-72.1899,350,-0.316,2017-01-02
harvardems2,42.5378,-72.1715,340,-0.3,2017-01-02
harvardfarmnorth,42.520465,-72.182242,355,-0.316,2017-01-02
harvardfarmsouth,42.522466,-72.182339,355,-0.316,2017-01-02
harvardgarden,42.5291,-72.1863,335,-0.316,2017-01-02
harvardhemlock,42.539,-72.18,355,-0.316,2017-01-02
harvardhemlock2,42.539407,-72.177976,355,-0.3,2017-01-02
harvardlph,42.542,-72.185,380,-0.316,2017-01-02
hawbeckereddy,40.6608,-77.848849,310,-1.063,2017-01-02
hobcawclearcutlongleaf,33.3486,-79.232,4,0.539,2017-01-02
hobcawmaturelongleaf,33.3242,-79.2439,8,0.539,2017-01-02
homesteadsprings,37.2009,-92.9937,452,-0.728,2017-01-02
howland1,45.2041,-68.7403,80,0.405,2017-01-02
howland2,45.2128,-68.7418,79,0.405,2017-01-02
hubbardbrook,43.9438,-71.701,253,0.227,2017-01-02
humnokericea,34.585192,-91.751684,61,0.058,2017-01-02
humnokericec,34.588853,-91.7516729,70,0.058,2017-01-02
huyckpreserveny,42.5266,-74.1587,478,-0.145,2017-01-02
hwmo1,20.0212,-155.7331,585,-9999.0,2017-01-02
hwmo2,19.9766,-155.8298,12,-9999.0,2017-01-02
hwmo5,20.1117,-155.8151,635,-9999.0,2017-01-02
ibp,32.589,-106.847,1325,0.35,2017-01-02
imcrkfen,68.60583,-149.31101,900,-9999.0,2017-01-02
imcrkridge0,68.60681,-149.2958,951,-9999.0,2017-01-02
imcrkridge1,68.60681,-149.2958,951,-9999.0,2017-01-02
imcrktussock,68.60633,-149.30408,918,-9999.0,2017-01-02
jasperridge,37.402028,-122.22104,197,0.713,2017-01-02
jerbajada,32.57992,-106.633793,1402,0.353,2017-01-02
jergrassland,32.5833,-106.8333,1331,0.35,2017-01-02
jernort,32.619,-106.788,1328,0.339,2017-01-02
jernovel,32.6335,-106.8334,1324,0.325,2017-01-02
jernwern,32.6271,-106.7387,1325,0.364,2017-01-02
jersand,32.515,-106.798,1363,0.139,2017-01-02
jershrubland,32.6502,-106.8334,1328,0.391,2017-01-02
junipersavannah,34.4254,-105.8615,1931,0.538,2017-01-02
kamuela,20.015008,-155.661326,850,-9999.0,2017-01-02
kamuela2,20.014959,-155.661139,830,-9999.0,2017-01-02
kansas,39.0561,-95.1907,333,-1.481,2017-01-02
kelloggcorn,42.437536,-85.3225472,288,-0.189,2017-01-02
kempnrs,45.83992,-89.67755,539,0.821,2017-01-02
kendall,31.73652,-109.94185,1529,-0.093,2017-01-02
konza,39.0824,-96.5603,443,-0.839,2017-01-02
laupahoehoe,19.9322,-155.2912,1145,-9999.0,2017-01-02
ldeocam,41.0039,-73.9053,121,-0.059,2017-01-02
lostcreek,46.0827,-89.9792,480,0.316,2017-01-02
luckyhills,31.743896,-110.052023,1366,-0.111,2017-01-02
macleish,42.4484,-72.6804,251,-0.516,2017-01-02
macordway,44.8106,-93.0272,264,0.916,2017-01-02
mandanh5,46.775423,-100.95109,593,1.344,2017-01-02
mandani2,46.7614,-100.9257,590,1.361,2017-01-02
manilacotton,35.8872,-90.1371,73,-0.601,2017-01-02
marena,36.06434,-97.21271,327,-1.639,2017-01-02
mead1,41.1651,-96.4766,361,-0.168,2017-01-02
mead2,41.1649,-96.4701,362,-0.168,2017-01-02
mead3,41.1797,-96.4397,363,-0.108,2017-01-02
meadpasture,41.1447,-96.4616,356,-0.01,2017-01-02
meadpasturese,41.1447,-96.4616,356,-0.01,2017-01-02
meadpasturesw,41.1447,-96.4616,356,-0.01,2017-01-02
missouriozarks,38.7441,-92.2,219,-1.571,2017-01-02
morganmonroe,39.3231,-86.4131,275,-0.457,2017-01-02
morganmonroe2,39.3231,-86.4131,275,-0.457,2017-01-02
nahuku,19.415187,-155.238383,1202,-9999.0,2017-01-02
nationalelkrefuge,43.488931,-110.737824,1899,1.946,2017-01-02
ncssm,36.018446,-78.92075,175,-0.485,2017-01-02
NEON.D01.BART.DP1.00033,44.063869,-71.287375,285,0.101,2017-01-02
NEON.D01.HARV.DP1.00033,42.536911,-72.17265,359,-0.3,2017-01-02
NEON.D01.HOPB.DP1.20002,42.471786,-72.329627,203,-0.477,2017-01-02
NEON.D02.BLAN.DP1.00033,39.033698,-78.041788,162,-1.25,2017-01-02
NEON.D02.LEWI.DP1.20002,39.09564,-77.98322,152,-1.272,2017-01-02
NEON.D02.POSE.DP1.20002,38.89332,-78.14678,293,-1.163,2017-01-02
NEON.D02.SCBI.DP1.00033,38.892925,-78.139494,364,-1.179,2017-01-02
NEON.D02.SERC.DP1.00033,38.89008,-76.56001,30,-1.235,2017-01-02
NEON.D03.BARC.DP1.20002,29.676473,-82.009089,35,-0.986,2017-01-02
NEON.D03.DSNY.DP1.00033,28.12505,-81.43619,22,-1.622,2017-01-02
NEON.D03.FLNT.DP1.20002,31.185424,-84.437403,27,0.871,2017-01-02
NEON.D03.JERC.DP1.00033,31.194839,-84.468623,58,0.774,2017-01-02
NEON.D03.OSBS.DP1.00033,29.689282,-81.993431,56,-0.934,2017-01-02
NEON.D03.SUGG.DP1.20002,29.687054,-82.016171,28,-0.934,2017-01-02
NEON.D04.CUPE.DP1.20002,18.11352,-66.98676,164,-9999.0,2017-01-02
NEON.D04.GUAN.DP1.00033,17.96955,-66.8687,136,-9999.0,2017-01-02
NEON.D04.GUIL.DP1.20002,18.1741,-66.79851,564,-9999.0,2017-01-02
NEON.D04.LAJA.DP1.00033,18.021261,-67.076889,22,-9999.0,2017-01-02
NEON.D05.CRAM.DP1.20002,46.21111,-89.47825,518,-0.084,2017-01-02
NEON.D05.LIRO.DP1.20002,45.998269,-89.704767,495,0.533,2017-01-02
NEON.D05.STEI.DP1.00033,45.50894,-89.58637,476,0.842,2017-01-02
NEON.D05.TREE.DP1.00033,45.49373,-89.58572,474,0.842,2017-01-02
NEON.D05.UNDE.DP1.00033,46.23391,-89.537254,529,-0.048,2017-01-02
NEON.D06.KING.DP1.20002,39.10506,-96.60336,339,-0.816,2017-01-02
NEON.D06.KONA.DP1.00033,39.110446,-96.612935,443,-0.816,2017-01-02
NEON.D06.KONZ.DP1.00033,39.10077,-96.56309,415,-0.839,2017-01-02
NEON.D06.MCDI.DP1.20002,38.94428,-96.44197,376,-1.233,2017-01-02
NEON.D06.UKFS.DP1.00033,39.040431,-95.19215,330,-1.481,2017-01-02
NEON.D07.GRSM.DP1.00033,35.68896,-83.50195,589,-0.318,2017-01-02
NEON.D07.LECO.DP1.20002,35.69043,-83.50379,578,-0.318,2017-01-02
NEON.D07.MLBS.DP1.00033,37.378314,-80.524847,1177,-0.678,2017-01-02
NEON.D07.ORNL.DP1.00033,35.964128,-84.282588,351,0.28,2017-01-02
NEON.D07.WALK.DP1.20002,35.95947,-84.28041,274,0.314,2017-01-02
NEON.D08.BLWA.DP1.20002,32.541529,-87.798151,23,-1.265,2017-01-02
NEON.D08.DELA.DP1.00033,32.541727,-87.803877,36,-1.265,2017-01-02
NEON.D08.LENO.DP1.00033,31.85388,-88.16122,10,-0.975,2017-01-02
NEON.D08.MAYF.DP1.20002,32.959657,-87.408128,93,-2.523,2017-01-02
NEON.D08.TALL.DP1.00033,32.95047,-87.393259,167,-2.523,2017-01-02
NEON.D08.TOMB.DP1.20002,31.853431,-88.158872,10,-0.975,2017-01-02
NEON.D09.DCFS.DP1.00033,47.161647,-99.106556,574,1.447,2017-01-02
NEON.D09.NOGP.DP1.00033,46.76972,-100.91535,589,1.361,2017-01-02
NEON.D09.PRLA.DP1.20002,47.15909,-99.11388,563,1.46,2017-01-02
NEON.D09.PRPO.DP1.20002,47.12999,-99.250551,587,1.457,2017-01-02
NEON.D09.WOOD.DP1.00033,47.1282,-99.241334,585,1.457,2017-01-02
NEON.D10.ARIK.DP1.20002,39.758246,-102.447103,1188,-1.12,2017-01-02
NEON.D10.CPER.DP1.00033,40.81553,-104.7456,1600,-1.237,2017-01-02
NEON.D10.HQTW.DP1.00033,40.016704,-105.245612,1601,-1.275,2017-01-02
NEON.D10.RMNP.DP1.00033,40.275903,-105.545955,2751,0.987,2017-01-02
NEON.D10.STER.DP1.00033,40.461894,-103.02929,1366,-1.096,2017-01-02
NEON.D11.BLUE.DP1.20002,34.444218,-96.624201,288,-0.893,2017-01-02
NEON.D11.CLBJ.DP1.00033,33.40123,-97.57,279,0.255,2017-01-02
NEON.D11.OAES.DP1.00033,35.41059,-99.05879,520,-1.1,2017-01-02
NEON.D11.PRIN.DP1.20002,33.37859,-97.78226,255,-0.127,2017-01-02
NEON.D12.BLDE.DP1.20002,44.95011,-110.58715,2035,2.081,2017-01-02
NEON.D12.YELL.DP1.00033,44.95348,-110.53914,2130,1.719,2017-01-02
NEON.D13.COMO.DP1.20002,40.03496,-105.54487,3036,0.624,2017-01-02
NEON.D13.MOAB.DP1.00033,38.24833,-109.38827,1803,-0.142,2017-01-02
NEON.D13.NIWO.DP1.00033,40.05425,-105.58237,3493,1.145,2017-01-02
NEON.D13.WLOU.DP1.20002,39.891366,-105.915395,2920,0.46,2017-01-02
NEON.D14.JORN.DP1.00033,32.59068,-106.84254,1321,0.35,2017-01-02
NEON.D14.SRER.DP1.00033,31.91068,-110.83549,999,-0.103,2017-01-02
NEON.D14.SYCA.DP1.20002,33.749057,-111.506903,644,0.291,2017-01-02
NEON.D15.ONAQ.DP1.00033,40.177599,-112.452452,1655,-0.176,2017-01-02
NEON.D15.REDB.DP1.20002,40.783934,-111.797887,1696,0.747,2017-01-02
NEON.D16.ABBY.DP1.00033,45.76243,-122.33033,390,0.764,2017-01-02
NEON.D16.MART.DP1.20002,45.791248,-121.931959,354,0.635,2017-01-02
NEON.D16.MCRA.DP1.20002,44.259598,-122.165554,880,0.776,2017-01-02
NEON.D16.WREF.DP1.00033,45.82049,-121.95191,368,0.626,2017-01-02
NEON.D17.BIGC.DP1.20002,37.059719,-119.257549,1133,0.869,2017-01-02
NEON.D17.SJER.DP1.00033,37.10878,-119.73228,398,0.734,2017-01-02
NEON.D17.SOAP.DP1.00033,37.03337,-119.26219,1210,0.816,2017-01-02
NEON.D17.TEAK.DP1.00033,37.00583,-119.00602,2149,0.69,2017-01-02
NEON.D17.TECR.DP1.20002,36.955931,-119.027363,2053,0.674,2017-01-02
NEON.D18.BARR.DP1.00033,71.28241,-156.61936,7,-9999.0,2017-01-02
NEON.D18.OKSR.DP1.20002,68.669753,-149.143018,773,-9999.0,2017-01-02
NEON.D18.TOOK.DP1.20002,68.629562,-149.610509,715,-9999.0,2017-01-02
NEON.D18.TOOL.DP1.00033,68.66109,-149.37047,827,-9999.0,2017-01-02
NEON.D19.BONA.DP1.00033,65.15401,-147.50258,233,-9999.0,2017-01-02
NEON.D19.CARI.DP1.20002,65.15306,-147.50246,229,-9999.0,2017-01-02
NEON.D19.DEJU.DP1.00033,63.88112,-145.75136,504,-9999.0,2017-01-02
NEON.D19.HEAL.DP1.00033,63.87569,-149.21334,409,-9999.0,2017-01-02
NEON.D20.PUUM.DP1.00033,19.55309,-155.31731,1683,-9999.0,2017-01-02
nevcansnk3a,39.0099,-114.3095,3063,0.552,2017-01-02
nevcanspg1a,38.9253,-114.4082,1792,-0.171,2017-01-02
nevcanspg2a,38.8921,-114.3521,2203,-0.177,2017-01-02
nevcanspg3a,38.8898,-114.3314,2820,-0.271,2017-01-02
nevcanspg4a,38.9061,-114.3089,3360,-0.271,2017-01-02
ninemileprairie,40.86801886,-96.82208066,381,-0.239,2017-01-02
nist,39.139,-77.2125,100,-1.251,2017-01-02
niwot3,40.03286358,-105.5469702,3050,0.624,2017-01-02
niwot5,40.03286358,-105.5469702,2993,0.624,2017-01-02
northattleboroma,41.98369,-71.31056,60,-0.673,2017-01-02
northinletsaltmarsh,33.3455,-79.1957,1,0.47,2017-01-02
oakville,47.899334,-97.316139,268,0.854,2017-01-02
oregonMP,44.4523,-121.5574,1253,0.803,2017-01-02
oregonYP,44.32384,-121.605993,977,0.99,2017-01-02
oregonYPbud,44.3238,-121.606,977,0.99,2017-01-02
othshardwood,44.934805,-68.6655,41,0.66,2017-01-02
othssoftwood,44.934527,-68.664888,41,0.66,2017-01-02
pace,37.9229,-78.2739,100,-1.076,2017-01-02
parkschoolbuffalo,42.9637,-78.7834,205,0.208,2017-01-02
piedmontalpasture2,33.8875,-85.6935,238,-1.906,2017-01-02
portal,31.9385,-109.0823,1330,0.23,2017-01-02
proctor,44.525,-72.866,403,-0.234,2017-01-02
readingma,42.5304,-71.1272,100,0.025,2017-01-02
robinson,37.4671,-83.1576,483,0.062,2017-01-02
robinson2,37.4671,-83.1576,483,0.062,2017-01-02
rosemountcons,44.6946,-93.0578,283,0.703,2017-01-02
rosemountconv,44.691,-93.0576,283,0.703,2017-01-02
rosemountnprs,44.6781,-93.0723,274,0.711,2017-01-02
russellsage,32.456961,-91.974322,20,-0.736,2017-01-02
sagehen,39.4315,-120.2398,1934,1.525,2017-01-02
sagehen2,39.4307,-120.2407,1937,1.525,2017-01-02
sagehen3,39.4311,-120.2405,1935,1.525,2017-01-02
sanford,42.726777,-84.464482,268,0.387,2017-01-02
santacruz1,36.9741,-122.0308,11,0.982,2017-01-02
santacruz2,36.9741,-122.0308,11,0.982,2017-01-02
santaluciapreserve1,36.5265,-121.8682,500,0.4,2017-01-02
santaluciapreserve2,36.5265,-121.8682,500,0.4,2017-01-02
segaarboretum10,35.16209,-111.73151,2170,0.787,2017-01-02
segaarboretum2,35.16209,-111.73151,2170,0.787,2017-01-02
segaarboretum3,35.16209,-111.73151,2170,0.787,2017-01-02
segaarboretum4,35.16214,-111.73153,2170,0.787,2017-01-02
segaarboretum6,35.16209,-111.73151,2170,0.787,2017-01-02
segaarboretum9,35.16222,-111.73158,2170,0.787,2017-01-02
segaarboretumforest,35.1613,-111.7359,2173,0.787,2017-01-02
segaarboretummeadow,35.1621,-111.7316,2157,0.787,2017-01-02
segablackpoint,35.6814,-111.4754,1566,0.469,2017-01-02
segabluechute,35.5876,-111.9716,1930,0.877,2017-01-02
segabluechute1,35.58759,-111.97115,1931,0.877,2017-01-02
segabluechute2,35.58759,-111.97115,1931,0.877,2017-01-02
segabluechute4,35.58759,-111.9716,1931,0.877,2017-01-02
segabluechute6,35.58759,-111.97115,1931,0.877,2017-01-02
segabluechute7,35.58759,-111.97115,1931,0.877,2017-01-02
segabluechute8,35.58759,-111.97115,1931,0.877,2017-01-02
segabradshaw,34.9109,-111.9285,1402,0.782,2017-01-02
segahartprairie,35.3536,-111.7324,2585,0.802,2017-01-02
segalcr,35.7231,-111.321,1275,0.542,2017-01-02
segalcr2,35.7069,-111.36,1495,0.578,2017-01-02
segalittlemountain,36.5865,-112.3634,2276,0.281,2017-01-02
segasoapcreek,36.751,-111.716,1233,0.493,2017-01-02
segawhitepockets,36.6081,-112.4082,2057,0.378,2017-01-02
sevilletagrass,34.360444,-106.700186,1600,0.941,2017-01-02
sevilletanewgrass,34.358,-106.6799,1603,0.964,2017-01-02
sevilletashrub,34.334956,-106.744469,1603,0.948,2017-01-02
sevMRME10L,34.3438,-106.7269,1604,0.919,2017-01-02
sevMRME11C,34.3438,-106.7268,1604,0.919,2017-01-02
sevMRME1S,34.3442,-106.7272,1604,0.919,2017-01-02
sevpjrm12,34.38615,-106.52621,1905,1.103,2017-01-02
sevpjrm13,34.38631,-106.52791,1914,1.103,2017-01-02
shalehillsczo,40.6658,-77.9041,310,-0.845,2017-01-02
shenandoah,38.6167,-78.35,1037,-1.41,2017-01-02
silverton,44.9986,-122.6948,347,0.768,2017-01-02
siwetland,38.0369,-121.7546,-5,0.592,2017-01-02
slatefloodplain,38.9094,-107.0282,2725,0.421,2017-01-02
snodgrass1,38.92619636,-106.9714376,3023,0.103,2017-01-02
snodgrass2,38.92619636,-106.9714376,3023,0.103,2017-01-02
snodgrass3,38.92839978,-106.9781196,3141,0.103,2017-01-02
snodgrass4,38.92839978,-106.9781196,3141,0.103,2017-01-02
snodgrass5,38.92744789,-106.9785209,3152,0.103,2017-01-02
snodgrass6,38.92744789,-106.9785209,3152,0.103,2017-01-02
snodgrass7,38.93142134,-106.9852388,3363,0.127,2017-01-02
snodgrass8,38.93142134,-106.9852388,3363,0.127,2017-01-02
southerngreatplains,36.6058,-97.4888,314,-1.308,2017-01-02
springfieldma,42.135162,-72.585972,56,-0.996,2017-01-02
spruceA0EMI,47.5049,-93.4541,413,0.788,2017-01-02
spruceA0EMT,47.5049,-93.4541,418,0.788,2017-01-02
spruceA0P07,47.50493,-93.45314,413,0.788,2017-01-02
spruceA0P07SH,47.50493,-93.45314,413,0.788,2017-01-02
spruceA0P21,47.50625,-93.45275,413,0.788,2017-01-02
spruceA0P21SH,47.50625,-93.45275,413,0.788,2017-01-02
srg,31.7894,-110.8276,1281,-0.286,2017-01-02
srm,31.8214,-110.8661,1116,0.018,2017-01-02
statenrice1,38.1235,-121.549,-5,0.955,2017-01-02
stjones,39.088222,-75.43725,2,-0.901,2017-01-02
sweetbriar,37.57341,-79.08482,242,-1.009,2017-01-02
sweetbriarclearcut,37.5753,-79.0872,242,-1.009,2017-01-02
sweetbriargrass,37.5605,-79.0884,240,-1.009,2017-01-02
sylvania,46.242,-89.348,540,0.064,2017-01-02
templefieldstation1,40.1667,-75.1894,105,-0.564,2017-01-02
tfforest,43.1086,-70.9505,23,0.777,2017-01-02
tidmarshplymouth,41.9157,-70.5754,9,-0.656,2017-01-02
tonzi,38.43091667,-120.9658861,177,1.332,2017-01-02
townsenddemeadow,39.3917,-75.6281,11,-0.687,2017-01-02
tsubiology,36.1671,-86.8295,164,-0.489,2017-01-02
tsubiology2,36.1171,-86.8295,100,-0.657,2017-01-02
tuckerprairie,38.9491,-91.9952,274,-1.09,2017-01-02
twodafo,29.1658,-95.829,16,-1.137,2017-01-02
tworfaa,31.4777,-96.8882,167,-0.281,2017-01-02
tworfpr,31.4802,-96.8826,162,-0.498,2017-01-02
tworfta,31.4693,-96.8864,173,-0.281,2017-01-02
twosfpr,30.6176,-97.2938,157,-0.015,2017-01-02
ucnrsanzaborrego,33.2401,-116.3886,214,0.77,2017-01-02
ufona,27.3836,-81.950856,25,-2.378,2017-01-02
uiefmaize2,40.0628,-88.1961,224,-0.518,2017-01-02
uiefmiscanthus2,40.0628,-88.1984,221,-0.518,2017-01-02
uiefprairie2,40.0637,-88.1973,224,-0.518,2017-01-02
uiefsorghum,40.0065,-88.2032,224,-0.422,2017-01-02
uiefswitchgrass2,40.0637,-88.1973,224,-0.518,2017-01-02
umichbiological,45.55984,-84.71382,230,-0.608,2017-01-02
umichbiological2,45.5625,-84.6976,240,-0.686,2017-01-02
unca,35.5951,-82.5515,650,-1.249,2017-01-02
usgseros,43.7343,-96.6234,448,0.435,2017-01-02
usmpj,34.43845,-106.2543606,2126,0.51,2017-01-02
usof5,35.7297,-90.0406,70,-0.558,2017-01-02
usof6,35.7333,-90.0403,70,-0.558,2017-01-02
uwmfieldsta,43.38709,-88.0229,265,0.643,2017-01-02
vaira,38.41328056,-120.9506361,129,1.332,2017-01-02
vallesburnedconifer,35.8884,-106.5321,3043,0.131,2017-01-02
vallesmixedconifer,35.9192,-106.6142,2752,0.223,2017-01-02
vallesponderosapine,35.864,-106.5964,2501,0.184,2017-01-02
waahila,21.3017,-157.8152,55,-9999.0,2017-01-02
warrenwilson,35.6069,-82.4421,2198,-1.505,2017-01-02
willamettepoplar,44.1368,-123.1823,112,0.862,2017-01-02
willowcreek,45.805986,-90.07912,521,0.508,2017-01-02
windriver,45.8212833,-121.9520833,371,0.626,2017-01-02
windriverunderstory,45.8212833,-121.9520833,371,0.626,2017-01-02
wolfesneckfarm,43.8305,-70.0715,16,1.046,2017-01-02
worcester,42.2697,-71.8428,185,0.583,2017-01-02
alligatorriver,35.7879,-75.9038,1,-0.826,2017-01-09
arbutuslake,43.98207,-74.23322,535,1.429,2017-01-09
arbutuslakeinlet,43.99336,-74.24527,527,1.429,2017-01-09
archboldavir,27.176064,-81.21958,8,-1.857,2017-01-09
archboldavirx,27.166627,-81.219828,8,-1.857,2017-01-09
archboldbahia,27.1656,-81.216112,8,-1.857,2017-01-09
archboldpnot,27.187948,-81.200345,9,-1.857,2017-01-09
archboldpnotx,27.180677,-81.20068,9,-1.857,2017-01-09
arkansascornsoy,34.416,-91.6723,61,0.359,2017-01-09
arsbrooks10,41.9749,-93.6905,312,-0.504,2017-01-09
arsbrooks11,41.9744,-93.6937,313,-0.504,2017-01-09
arscolesnorth,42.4884,-93.5225,356,-0.028,2017-01-09
arscolessouth,42.4816,-93.5235,352,-0.028,2017-01-09
arsgacp1,31.5109,-83.6179,96,0.888,2017-01-09
arsgacp3,31.7563,-83.7516,139,1.043,2017-01-09
arsgacp4,31.7093,-83.7287,127,1.129,2017-01-09
arsgreatbasinltar098,43.1675,-116.7132,1426,0.248,2017-01-09
arsgreatbasinltar117,43.1432,-116.7357,1625,-0.039,2017-01-09
arsgreatbasinltar177,43.0645,-116.7484,2114,-0.248,2017-01-09
arsltarmdcr,39.0587,-75.8513,17,-1.519,2017-01-09
arsltarmdcrnatw,39.0575,-75.7531,16,-1.511,2017-01-09
arsltarmdcrprcw,39.0667,-75.7609,17,-1.511,2017-01-09
arsltarmdcrresw,39.0549,-75.7532,16,-1.511,2017-01-09
arsltarucbec1,40.7537,-78.0057,400,0.608,2017-01-09
arsltarucbec2,40.7558,-77.9999,396,0.608,2017-01-09
arsmnswanlake1,45.684508,-95.799703,370,0.959,2017-01-09
arsmorris1,45.6167,-96.1269,341,1.051,2017-01-09
arsmorris2,45.627,-96.127,338,1.051,2017-01-09
arsmorris3,45.6091,-96.1265,342,1.051,2017-01-09
arsope3ltar,39.0309,-76.8442,41,-1.133,2017-01-09
ashburnham,42.6029,-71.926,292,-0.319,2017-01-09
asuhighlands,36.2076,-81.7032,1016,-0.802,2017-01-09
austincary,29.738,-82.2188,44,-0.742,2017-01-09
barrow,71.28007453,-156.6091492,5,-9999.0,2017-01-09
bartlettir,44.0646,-71.2881,268,0.479,2017-01-09
bigtraillake,64.9194,-147.822,190,-9999.0,2017-01-09
bitterbrush001,48.154,-119.9456,667,0.336,2017-01-09
blackrockforest,41.3974,-74.0239,427,0.073,2017-01-09
bnzblackspruce,64.6963,-148.3235,102,-9999.0,2017-01-09
bnzrichfen,64.70134,-148.31195,97,-9999.0,2017-01-09
bnzthermokarstbog,64.6955,-148.3208,104,-9999.0,2017-01-09
boglakepeatland,47.5051,-93.4893,416,1.053,2017-01-09
bostoncommon,42.355912,-71.064145,10,-0.139,2017-01-09
bostonu,42.35041,-71.10438,10,-0.075,2017-01-09
bouldinalfalfa,38.0985,-121.4993,-5,0.969,2017-01-09
bouldincorn,38.109,-121.535,-5,0.968,2017-01-09
bozeman,45.783056,-110.777778,2332,0.13,2017-01-09
brackishimpoundment,33.2015,-79.2973,1,-0.788,2017-01-09
bullshoals,36.562833,-93.06663,260,-1.434,2017-01-09
burnssagebrush,43.4712,-119.6909,1398,0.535,2017-01-09
butte,45.95304,-112.47964,1682,-0.094,2017-01-09
butterice,39.5793,-121.858,33,0.604,2017-01-09
cafboydnorthltar01,46.755104,-117.126052,795,0.481,2017-01-09
cafboydsouthltar01,46.751809,-117.128502,795,0.481,2017-01-09
cafcookeastltar01,46.78152,-117.0821,794,0.639,2017-01-09
cafcookwestltar01,46.784037,-117.09083,807,0.639,2017-01-09
caryinstitute,41.7839,-73.7341,127,0.711,2017-01-09
centralredwoods1,38.632272,-123.301511,200,0.931,2017-01-09
centralredwoods2,38.632272,-123.301511,200,0.931,2017-01-09
cperagm,40.8402,-104.7672,1644,-0.204,2017-01-09
cperheavy,40.8153,-104.7386,1652,-0.177,2017-01-09
cpertgm,40.833,-104.76,1644,-0.168,2017-01-09
cperuvb,40.8055764,-104.7558542,1641,-0.168,2017-01-09
cuny,40.8162,-73.9507,42,0.368,2017-01-09
doverdesaltmarsh,39.0888,-75.4368,0,-1.497,2017-01-09
downerwoods,43.07938,-87.88076,213,0.775,2017-01-09
dukehw,35.973583,-79.100371,400,-1.614,2017-01-09
ecb1,41.5348,-84.8068,275,0.215,2017-01-09
ecb2,41.5321,-84.808,275,0.215,2017-01-09
ecb4,41.1796,-83.0604,240,-0.731,2017-01-09
elverde,18.320654,-65.8199,312,-9999.0,2017-01-09
flagstaff,35.17961521,-111.6049032,6983,0.892,2017-01-09
flagstaff2,35.179225,-111.604506,6983,0.892,2017-01-09
flagstaffchimneysprings,35.257296,-111.678542,2250,0.859,2017-01-09
forbes,39.232,-121.2972,360,1.031,2017-01-09
fortpaynealpasture1,34.3824,-85.6428,405,-1.233,2017-01-09
fortpaynealpasture2,34.3824,-85.6447,403,-1.233,2017-01-09
gcesapelo,31.4440444,-81.283528,0,-0.127,2017-01-09
gilberttract,38.0015,-121.6691,6,0.901,2017-01-09
glees,41.3644,-106.2394,3150,0.807,2017-01-09
glennorganicrice,39.6805,-122.0026,2,0.716,2017-01-09
glennrice,39.5944,-122.0253,36,0.486,2017-01-09
goodnow,43.96018,-74.20994,820,1.402,2017-01-09
goodwater,39.22848,-92.11936,264,-1.644,2017-01-09
goodwaterbau,39.23115,-92.15216,274,-1.624,2017-01-09
grandteton,43.915017,-110.578036,2054,1.547,2017-01-09
grca1pj,36.0241,-112.2211,1978,1.017,2017-01-09
greenridge1,39.6905,-78.4067,285,-0.931,2017-01-09
harvard,42.5378,-72.1715,340,-0.069,2017-01-09
harvardbarn,42.53532,-72.1899,350,-0.082,2017-01-09
harvardbarn2,42.53532,-72.1899,350,-0.082,2017-01-09
harvardems2,42.5378,-72.1715,340,-0.069,2017-01-09
harvardfarmnorth,42.520465,-72.182242,355,-0.082,2017-01-09
harvardfarmsouth,42.522466,-72.182339,355,-0.082,2017-01-09
harvardgarden,42.5291,-72.1863,335,-0.082,2017-01-09
harvardhemlock,42.539,-72.18,355,-0.082,2017-01-09
harvardhemlock2,42.539407,-72.177976,355,-0.069,2017-01-09
harvardlph,42.542,-72.185,380,-0.082,2017-01-09
hawbeckereddy,40.6608,-77.848849,310,-1.024,2017-01-09
hobcawclearcutlongleaf,33.3486,-79.232,4,-0.687,2017-01-09
hobcawmaturelongleaf,33.3242,-79.2439,8,-0.687,2017-01-09
homesteadsprings,37.2009,-92.9937,452,-1.268,2017-01-09
howland1,45.2041,-68.7403,80,0.781,2017-01-09
howland2,45.2128,-68.7418,79,0.781,2017-01-09
hubbardbrook,43.9438,-71.701,253,0.553,2017-01-09
humnokericea,34.585192,-91.751684,61,-0.086,2017-01-09
humnokericec,34.588853,-91.7516729,70,-0.086,2017-01-09
huyckpreserveny,42.5266,-74.1587,478,0.137,2017-01-09
hwmo1,20.0212,-155.7331,585,-9999.0,2017-01-09
hwmo2,19.9766,-155.8298,12,-9999.0,2017-01-09
hwmo5,20.1117,-155.8151,635,-9999.0,2017-01-09
ibp,32.589,-106.847,1325,0.598,2017-01-09
imcrkfen,68.60583,-149.31101,900,-9999.0,2017-01-09
imcrkridge0,68.60681,-149.2958,951,-9999.0,2017-01-09
imcrkridge1,68.60681,-149.2958,951,-9999.0,2017-01-09
imcrktussock,68.60633,-149.30408,918,-9999.0,2017-01-09
jasperridge,37.402028,-122.22104,197,0.74,2017-01-09
jerbajada,32.57992,-106.633793,1402,0.586,2017-01-09
jergrassland,32.5833,-106.8333,1331,0.598,2017-01-09
jernort,32.619,-106.788,1328,0.566,2017-01-09
jernovel,32.6335,-106.8334,1324,0.551,2017-01-09
jernwern,32.6271,-106.7387,1325,0.609,2017-01-09
jersand,32.515,-106.798,1363,0.419,2017-01-09
jershrubland,32.6502,-106.8334,1328,0.578,2017-01-09
junipersavannah,34.4254,-105.8615,1931,0.581,2017-01-09
kamuela,20.015008,-155.661326,850,-9999.0,2017-01-09
kamuela2,20.014959,-155.661139,830,-9999.0,2017-01-09
kansas,39.0561,-95.1907,333,-1.312,2017-01-09
kelloggcorn,42.437536,-85.3225472,288,-0.236,2017-01-09
kempnrs,45.83992,-89.67755,539,0.96,2017-01-09
kendall,31.73652,-109.94185,1529,0.043,2017-01-09
konza,39.0824,-96.5603,443,-1.033,2017-01-09
laupahoehoe,19.9322,-155.2912,1145,-9999.0,2017-01-09
ldeocam,41.0039,-73.9053,121,0.164,2017-01-09
lostcreek,46.0827,-89.9792,480,0.42,2017-01-09
luckyhills,31.743896,-110.052023,1366,0.004,2017-01-09
macleish,42.4484,-72.6804,251,-0.167,2017-01-09
macordway,44.8106,-93.0272,264,0.937,2017-01-09
mandanh5,46.775423,-100.95109,593,1.611,2017-01-09
mandani2,46.7614,-100.9257,590,1.615,2017-01-09
manilacotton,35.8872,-90.1371,73,-0.584,2017-01-09
marena,36.06434,-97.21271,327,-1.471,2017-01-09
mead1,41.1651,-96.4766,361,-0.155,2017-01-09
mead2,41.1649,-96.4701,362,-0.155,2017-01-09
mead3,41.1797,-96.4397,363,-0.119,2017-01-09
meadpasture,41.1447,-96.4616,356,0.014,2017-01-09
meadpasturese,41.1447,-96.4616,356,0.014,2017-01-09
meadpasturesw,41.1447,-96.4616,356,0.014,2017-01-09
missouriozarks,38.7441,-92.2,219,-1.495,2017-01-09
morganmonroe,39.3231,-86.4131,275,-0.311,2017-01-09
morganmonroe2,39.3231,-86.4131,275,-0.311,2017-01-09
nahuku,19.415187,-155.238383,1202,-9999.0,2017-01-09
nationalelkrefuge,43.488931,-110.737824,1899,1.691,2017-01-09
ncssm,36.018446,-78.92075,175,-1.642,2017-01-09
NEON.D01.BART.DP1.00033,44.063869,-71.287375,285,0.479,2017-01-09
NEON.D01.HARV.DP1.00033,42.536911,-72.17265,359,-0.069,2017-01-09
NEON.D01.HOPB.DP1.20002,42.471786,-72.329627,203,-0.228,2017-01-09
NEON.D02.BLAN.DP1.00033,39.033698,-78.041788,162,-1.121,2017-01-09
NEON.D02.LEWI.DP1.20002,39.09564,-77.98322,152,-1.155,2017-01-09
NEON.D02.POSE.DP1.20002,38.89332,-78.14678,293,-0.797,2017-01-09
NEON.D02.SCBI.DP1.00033,38.892925,-78.139494,364,-0.845,2017-01-09
NEON.D02.SERC.DP1.00033,38.89008,-76.56001,30,-1.565,2017-01-09
NEON.D03.BARC.DP1.20002,29.676473,-82.009089,35,-1.067,2017-01-09
NEON.D03.DSNY.DP1.00033,28.12505,-81.43619,22,-1.412,2017-01-09
NEON.D03.FLNT.DP1.20002,31.185424,-84.437403,27,1.289,2017-01-09
NEON.D03.JERC.DP1.00033,31.194839,-84.468623,58,1.19,2017-01-09
NEON.D03.OSBS.DP1.00033,29.689282,-81.993431,56,-1.014,2017-01-09
NEON.D03.SUGG.DP1.20002,29.687054,-82.016171,28,-1.014,2017-01-09
NEON.D04.CUPE.DP1.20002,18.11352,-66.98676,164,-9999.0,2017-01-09
NEON.D04.GUAN.DP1.00033,17.96955,-66.8687,136,-9999.0,2017-01-09
NEON.D04.GUIL.DP1.20002,18.1741,-66.79851,564,-9999.0,2017-01-09
NEON.D04.LAJA.DP1.00033,18.021261,-67.076889,22,-9999.0,2017-01-09
NEON.D05.CRAM.DP1.20002,46.21111,-89.47825,518,0.04,2017-01-09
NEON.D05.LIRO.DP1.20002,45.998269,-89.704767,495,0.666,2017-01-09
NEON.D05.STEI.DP1.00033,45.50894,-89.58637,476,0.92,2017-01-09
NEON.D05.TREE.DP1.00033,45.49373,-89.58572,474,0.92,2017-01-09
NEON.D05.UNDE.DP1.00033,46.23391,-89.537254,529,0.064,2017-01-09
NEON.D06.KING.DP1.20002,39.10506,-96.60336,339,-1.01,2017-01-09
NEON.D06.KONA.DP1.00033,39.110446,-96.612935,443,-1.01,2017-01-09
NEON.D06.KONZ.DP1.00033,39.10077,-96.56309,415,-1.033,2017-01-09
NEON.D06.MCDI.DP1.20002,38.94428,-96.44197,376,-1.299,2017-01-09
NEON.D06.UKFS.DP1.00033,39.040431,-95.19215,330,-1.312,2017-01-09
NEON.D07.GRSM.DP1.00033,35.68896,-83.50195,589,-0.314,2017-01-09
NEON.D07.LECO.DP1.20002,35.69043,-83.50379,578,-0.314,2017-01-09
NEON.D07.MLBS.DP1.00033,37.378314,-80.524847,1177,-0.836,2017-01-09
NEON.D07.ORNL.DP1.00033,35.964128,-84.282588,351,0.519,2017-01-09
NEON.D07.WALK.DP1.20002,35.95947,-84.28041,274,0.514,2017-01-09
NEON.D08.BLWA.DP1.20002,32.541529,-87.798151,23,-0.178,2017-01-09
NEON.D08.DELA.DP1.00033,32.541727,-87.803877,36,-0.178,2017-01-09
NEON.D08.LENO.DP1.00033,31.85388,-88.16122,10,0.189,2017-01-09
NEON.D08.MAYF.DP1.20002,32.959657,-87.408128,93,-1.235,2017-01-09
NEON.D08.TALL.DP1.00033,32.95047,-87.393259,167,-1.235,2017-01-09
NEON.D08.TOMB.DP1.20002,31.853431,-88.158872,10,0.189,2017-01-09
NEON.D09.DCFS.DP1.00033,47.161647,-99.106556,574,1.631,2017-01-09
NEON.D09.NOGP.DP1.00033,46.76972,-100.91535,589,1.615,2017-01-09
NEON.D09.PRLA.DP1.20002,47.15909,-99.11388,563,1.641,2017-01-09
NEON.D09.PRPO.DP1.20002,47.12999,-99.250551,587,1.642,2017-01-09
NEON.D09.WOOD.DP1.00033,47.1282,-99.241334,585,1.642,2017-01-09
NEON.D10.ARIK.DP1.20002,39.758246,-102.447103,1188,-0.915,2017-01-09
NEON.D10.CPER.DP1.00033,40.81553,-104.7456,1600,-0.168,2017-01-09
NEON.D10.HQTW.DP1.00033,40.016704,-105.245612,1601,-0.355,2017-01-09
NEON.D10.RMNP.DP1.00033,40.275903,-105.545955,2751,1.588,2017-01-09
NEON.D10.STER.DP1.00033,40.461894,-103.02929,1366,-0.893,2017-01-09
NEON.D11.BLUE.DP1.20002,34.444218,-96.624201,288,-0.756,2017-01-09
NEON.D11.CLBJ.DP1.00033,33.40123,-97.57,279,0.297,2017-01-09
NEON.D11.OAES.DP1.00033,35.41059,-99.05879,520,-1.026,2017-01-09
NEON.D11.PRIN.DP1.20002,33.37859,-97.78226,255,0.022,2017-01-09
NEON.D12.BLDE.DP1.20002,44.95011,-110.58715,2035,1.722,2017-01-09
NEON.D12.YELL.DP1.00033,44.95348,-110.53914,2130,1.346,2017-01-09
NEON.D13.COMO.DP1.20002,40.03496,-105.54487,3036,1.322,2017-01-09
NEON.D13.MOAB.DP1.00033,38.24833,-109.38827,1803,0.05,2017-01-09
NEON.D13.NIWO.DP1.00033,40.05425,-105.58237,3493,1.611,2017-01-09
NEON.D13.WLOU.DP1.20002,39.891366,-105.915395,2920,0.921,2017-01-09
NEON.D14.JORN.DP1.00033,32.59068,-106.84254,1321,0.598,2017-01-09
NEON.D14.SRER.DP1.00033,31.91068,-110.83549,999,-0.012,2017-01-09
NEON.D14.SYCA.DP1.20002,33.749057,-111.506903,644,0.495,2017-01-09
NEON.D15.ONAQ.DP1.00033,40.177599,-112.452452,1655,0.315,2017-01-09
NEON.D15.REDB.DP1.20002,40.783934,-111.797887,1696,0.985,2017-01-09
NEON.D16.ABBY.DP1.00033,45.76243,-122.33033,390,0.062,2017-01-09
NEON.D16.MART.DP1.20002,45.791248,-121.931959,354,-0.05,2017-01-09
NEON.D16.MCRA.DP1.20002,44.259598,-122.165554,880,0.374,2017-01-09
NEON.D16.WREF.DP1.00033,45.82049,-121.95191,368,-0.053,2017-01-09
NEON.D17.BIGC.DP1.20002,37.059719,-119.257549,1133,1.024,2017-01-09
NEON.D17.SJER.DP1.00033,37.10878,-119.73228,398,0.881,2017-01-09
NEON.D17.SOAP.DP1.00033,37.03337,-119.26219,1210,0.962,2017-01-09
NEON.D17.TEAK.DP1.00033,37.00583,-119.00602,2149,0.833,2017-01-09
NEON.D17.TECR.DP1.20002,36.955931,-119.027363,2053,0.853,2017-01-09
NEON.D18.BARR.DP1.00033,71.28241,-156.61936,7,-9999.0,2017-01-09
NEON.D18.OKSR.DP1.20002,68.669753,-149.143018,773,-9999.0,2017-01-09
NEON.D18.TOOK.DP1.20002,68.629562,-149.610509,715,-9999.0,2017-01-09
NEON.D18.TOOL.DP1.00033,68.66109,-149.37047,827,-9999.0,2017-01-09
NEON.D19.BONA.DP1.00033,65.15401,-147.50258,233,-9999.0,2017-01-09
NEON.D19.CARI.DP1.20002,65.15306,-147.50246,229,-9999.0,2017-01-09
NEON.D19.DEJU.DP1.00033,63.88112,-145.75136,504,-9999.0,2017-01-09
NEON.D19.HEAL.DP1.00033,63.87569,-149.21334,409,-9999.0,2017-01-09
NEON.D20.PUUM.DP1.00033,19.55309,-155.31731,1683,-9999.0,2017-01-09
nevcansnk3a,39.0099,-114.3095,3063,0.673,2017-01-09
nevcanspg1a,38.9253,-114.4082,1792,-0.127,2017-01-09
nevcanspg2a,38.8921,-114.3521,2203,-0.113,2017-01-09
nevcanspg3a,38.8898,-114.3314,2820,-0.164,2017-01-09
nevcanspg4a,38.9061,-114.3089,3360,-0.164,2017-01-09
ninemileprairie,40.86801886,-96.82208066,381,-0.276,2017-01-09
nist,39.139,-77.2125,100,-0.907,2017-01-09
niwot3,40.03286358,-105.5469702,3050,1.322,2017-01-09
niwot5,40.03286358,-105.5469702,2993,1.322,2017-01-09
northattleboroma,41.98369,-71.31056,60,-0.877,2017-01-09
northinletsaltmarsh,33.3455,-79.1957,1,-0.748,2017-01-09
oakville,47.899334,-97.316139,268,1.275,2017-01-09
oregonMP,44.4523,-121.5574,1253,0.524,2017-01-09
oregonYP,44.32384,-121.605993,977,0.825,2017-01-09
oregonYPbud,44.3238,-121.606,977,0.825,2017-01-09
othshardwood,44.934805,-68.6655,41,1.018,2017-01-09
othssoftwood,44.934527,-68.664888,41,1.018,2017-01-09
pace,37.9229,-78.2739,100,-1.328,2017-01-09
parkschoolbuffalo,42.9637,-78.7834,205,0.425,2017-01-09
piedmontalpasture2,33.8875,-85.6935,238,-0.844,2017-01-09
portal,31.9385,-109.0823,1330,0.463,2017-01-09
proctor,44.525,-72.866,403,-0.049,2017-01-09
readingma,42.5304,-71.1272,100,-0.072,2017-01-09
robinson,37.4671,-83.1576,483,0.299,2017-01-09
robinson2,37.4671,-83.1576,483,0.299,2017-01-09
rosemountcons,44.6946,-93.0578,283,0.75,2017-01-09
rosemountconv,44.691,-93.0576,283,0.75,2017-01-09
rosemountnprs,44.6781,-93.0723,274,0.769,2017-01-09
russellsage,32.456961,-91.974322,20,-0.369,2017-01-09
sagehen,39.4315,-120.2398,1934,1.53,2017-01-09
sagehen2,39.4307,-120.2407,1937,1.53,2017-01-09
sagehen3,39.4311,-120.2405,1935,1.53,2017-01-09
sanford,42.726777,-84.464482,268,0.39,2017-01-09
santacruz1,36.9741,-122.0308,11,1.141,2017-01-09
santacruz2,36.9741,-122.0308,11,1.141,2017-01-09
santaluciapreserve1,36.5265,-121.8682,500,0.556,2017-01-09
santaluciapreserve2,36.5265,-121.8682,500,0.556,2017-01-09
segaarboretum10,35.16209,-111.73151,2170,0.929,2017-01-09
segaarboretum2,35.16209,-111.73151,2170,0.929,2017-01-09
segaarboretum3,35.16209,-111.73151,2170,0.929,2017-01-09
segaarboretum4,35.16214,-111.73153,2170,0.929,2017-01-09
segaarboretum6,35.16209,-111.73151,2170,0.929,2017-01-09
segaarboretum9,35.16222,-111.73158,2170,0.929,2017-01-09
segaarboretumforest,35.1613,-111.7359,2173,0.929,2017-01-09
segaarboretummeadow,35.1621,-111.7316,2157,0.929,2017-01-09
segablackpoint,35.6814,-111.4754,1566,0.516,2017-01-09
segabluechute,35.5876,-111.9716,1930,0.961,2017-01-09
segabluechute1,35.58759,-111.97115,1931,0.961,2017-01-09
segabluechute2,35.58759,-111.97115,1931,0.961,2017-01-09
segabluechute4,35.58759,-111.9716,1931,0.961,2017-01-09
segabluechute6,35.58759,-111.97115,1931,0.961,2017-01-09
segabluechute7,35.58759,-111.97115,1931,0.961,2017-01-09
segabluechute8,35.58759,-111.97115,1931,0.961,2017-01-09
segabradshaw,34.9109,-111.9285,1402,0.998,2017-01-09
segahartprairie,35.3536,-111.7324,2585,0.886,2017-01-09
segalcr,35.7231,-111.321,1275,0.659,2017-01-09
segalcr2,35.7069,-111.36,1495,0.675,2017-01-09
segalittlemountain,36.5865,-112.3634,2276,0.486,2017-01-09
segasoapcreek,36.751,-111.716,1233,0.755,2017-01-09
segawhitepockets,36.6081,-112.4082,2057,0.581,2017-01-09
sevilletagrass,34.360444,-106.700186,1600,1.16,2017-01-09
sevilletanewgrass,34.358,-106.6799,1603,1.174,2017-01-09
sevilletashrub,34.334956,-106.744469,1603,1.219,2017-01-09
sevMRME10L,34.3438,-106.7269,1604,1.16,2017-01-09
sevMRME11C,34.3438,-106.7268,1604,1.16,2017-01-09
sevMRME1S,34.3442,-106.7272,1604,1.16,2017-01-09
sevpjrm12,34.38615,-106.52621,1905,1.238,2017-01-09
sevpjrm13,34.38631,-106.52791,1914,1.238,2017-01-09
shalehillsczo,40.6658,-77.9041,310,-0.782,2017-01-09
shenandoah,38.6167,-78.35,1037,-1.288,2017-01-09
silverton,44.9986,-122.6948,347,0.168,2017-01-09
siwetland,38.0369,-121.7546,-5,0.671,2017-01-09
slatefloodplain,38.9094,-107.0282,2725,1.0,2017-01-09
snodgrass1,38.92619636,-106.9714376,3023,0.803,2017-01-09
snodgrass2,38.92619636,-106.9714376,3023,0.803,2017-01-09
snodgrass3,38.92839978,-106.9781196,3141,0.803,2017-01-09
snodgrass4,38.92839978,-106.9781196,3141,0.803,2017-01-09
snodgrass5,38.92744789,-106.9785209,3152,0.803,2017-01-09
snodgrass6,38.92744789,-106.9785209,3152,0.803,2017-01-09
snodgrass7,38.93142134,-106.9852388,3363,0.833,2017-01-09
snodgrass8,38.93142134,-106.9852388,3363,0.833,2017-01-09
southerngreatplains,36.6058,-97.4888,314,-1.414,2017-01-09
springfieldma,42.135162,-72.585972,56,-0.671,2017-01-09
spruceA0EMI,47.5049,-93.4541,413,1.071,2017-01-09
spruceA0EMT,47.5049,-93.4541,418,1.071,2017-01-09
spruceA0P07,47.50493,-93.45314,413,1.071,2017-01-09
spruceA0P07SH,47.50493,-93.45314,413,1.071,2017-01-09
spruceA0P21,47.50625,-93.45275,413,1.071,2017-01-09
spruceA0P21SH,47.50625,-93.45275,413,1.071,2017-01-09
srg,31.7894,-110.8276,1281,-0.192,2017-01-09
srm,31.8214,-110.8661,1116,0.074,2017-01-09
statenrice1,38.1235,-121.549,-5,0.944,2017-01-09
stjones,39.088222,-75.43725,2,-1.497,2017-01-09
sweetbriar,37.57341,-79.08482,242,-1.0,2017-01-09
sweetbriarclearcut,37.5753,-79.0872,242,-1.0,2017-01-09
sweetbriargrass,37.5605,-79.0884,240,-1.0,2017-01-09
sylvania,46.242,-89.348,540,0.171,2017-01-09
templefieldstation1,40.1667,-75.1894,105,-0.536,2017-01-09
tfforest,43.1086,-70.9505,23,0.949,2017-01-09
tidmarshplymouth,41.9157,-70.5754,9,-1.056,2017-01-09
tonzi,38.43091667,-120.9658861,177,1.248,2017-01-09
townsenddemeadow,39.3917,-75.6281,11,-1.306,2017-01-09
tsubiology,36.1671,-86.8295,164,-0.056,2017-01-09
tsubiology2,36.1171,-86.8295,100,-0.257,2017-01-09
tuckerprairie,38.9491,-91.9952,274,-0.963,2017-01-09
twodafo,29.1658,-95.829,16,-0.874,2017-01-09
tworfaa,31.4777,-96.8882,167,-0.087,2017-01-09
tworfpr,31.4802,-96.8826,162,-0.291,2017-01-09
tworfta,31.4693,-96.8864,173,-0.087,2017-01-09
twosfpr,30.6176,-97.2938,157,0.093,2017-01-09
ucnrsanzaborrego,33.2401,-116.3886,214,0.617,2017-01-09
ufona,27.3836,-81.950856,25,-1.923,2017-01-09
uiefmaize2,40.0628,-88.1961,224,-0.487,2017-01-09
uiefmiscanthus2,40.0628,-88.1984,221,-0.487,2017-01-09
uiefprairie2,40.0637,-88.1973,224,-0.487,2017-01-09
uiefsorghum,40.0065,-88.2032,224,-0.392,2017-01-09
uiefswitchgrass2,40.0637,-88.1973,224,-0.487,2017-01-09
umichbiological,45.55984,-84.71382,230,-0.629,2017-01-09
umichbiological2,45.5625,-84.6976,240,-0.723,2017-01-09
unca,35.5951,-82.5515,650,-0.982,2017-01-09
usgseros,43.7343,-96.6234,448,0.555,2017-01-09
usmpj,34.43845,-106.2543606,2126,0.359,2017-01-09
usof5,35.7297,-90.0406,70,-0.484,2017-01-09
usof6,35.7333,-90.0403,70,-0.484,2017-01-09
uwmfieldsta,43.38709,-88.0229,265,0.505,2017-01-09
vaira,38.41328056,-120.9506361,129,1.248,2017-01-09
vallesburnedconifer,35.8884,-106.5321,3043,0.313,2017-01-09
vallesmixedconifer,35.9192,-106.6142,2752,0.395,2017-01-09
vallesponderosapine,35.864,-106.5964,2501,0.361,2017-01-09
waahila,21.3017,-157.8152,55,-9999.0,2017-01-09
warrenwilson,35.6069,-82.4421,2198,-1.248,2017-01-09
willamettepoplar,44.1368,-123.1823,112,0.471,2017-01-09
willowcreek,45.805986,-90.07912,521,0.635,2017-01-09
windriver,45.8212833,-121.9520833,371,-0.053,2017-01-09
windriverunderstory,45.8212833,-121.9520833,371,-0.053,2017-01-09
wolfesneckfarm,43.8305,-70.0715,16,1.369,2017-01-09
worcester,42.2697,-71.8428,185,0.747,2017-01-09
alligatorriver,35.7879,-75.9038,1,-0.49,2017-01-16
arbutuslake,43.98207,-74.23322,535,1.161,2017-01-16
arbutuslakeinlet,43.99336,-74.24527,527,1.161,2017-01-16
archboldavir,27.176064,-81.21958,8,-1.651,2017-01-16
archboldavirx,27.166627,-81.219828,8,-1.651,2017-01-16
archboldbahia,27.1656,-81.216112,8,-1.651,2017-01-16
archboldpnot,27.187948,-81.200345,9,-1.651,2017-01-16
archboldpnotx,27.180677,-81.20068,9,-1.651,2017-01-16
arkansascornsoy,34.416,-91.6723,61,0.226,2017-01-16
arsbrooks10,41.9749,-93.6905,312,-0.05,2017-01-16
arsbrooks11,41.9744,-93.6937,313,-0.05,2017-01-16
arscolesnorth,42.4884,-93.5225,356,0.436,2017-01-16
arscolessouth,42.4816,-93.5235,352,0.436,2017-01-16
arsgacp1,31.5109,-83.6179,96,0.822,2017-01-16
arsgacp3,31.7563,-83.7516,139,0.972,2017-01-16
arsgacp4,31.7093,-83.7287,127,1.048,2017-01-16
arsgreatbasinltar098,43.1675,-116.7132,1426,0.98,2017-01-16
arsgreatbasinltar117,43.1432,-116.7357,1625,0.506,2017-01-16
arsgreatbasinltar177,43.0645,-116.7484,2114,0.107,2017-01-16
arsltarmdcr,39.0587,-75.8513,17,-1.485,2017-01-16
arsltarmdcrnatw,39.0575,-75.7531,16,-1.462,2017-01-16
arsltarmdcrprcw,39.0667,-75.7609,17,-1.462,2017-01-16
arsltarmdcrresw,39.0549,-75.7532,16,-1.462,2017-01-16
arsltarucbec1,40.7537,-78.0057,400,-0.715,2017-01-16
arsltarucbec2,40.7558,-77.9999,396,-0.715,2017-01-16
arsmnswanlake1,45.684508,-95.799703,370,1.263,2017-01-16
arsmorris1,45.6167,-96.1269,341,1.413,2017-01-16
arsmorris2,45.627,-96.127,338,1.413,2017-01-16
arsmorris3,45.6091,-96.1265,342,1.413,2017-01-16
arsope3ltar,39.0309,-76.8442,41,-1.181,2017-01-16
ashburnham,42.6029,-71.926,292,-0.342,2017-01-16
asuhighlands,36.2076,-81.7032,1016,-0.796,2017-01-16
austincary,29.738,-82.2188,44,-0.755,2017-01-16
barrow,71.28007453,-156.6091492,5,-9999.0,2017-01-16
bartlettir,44.0646,-71.2881,268,0.493,2017-01-16
bigtraillake,64.9194,-147.822,190,-9999.0,2017-01-16
bitterbrush001,48.154,-119.9456,667,-0.688,2017-01-16
blackrockforest,41.3974,-74.0239,427,0.157,2017-01-16
bnzblackspruce,64.6963,-148.3235,102,-9999.0,2017-01-16
bnzrichfen,64.70134,-148.31195,97,-9999.0,2017-01-16
bnzthermokarstbog,64.6955,-148.3208,104,-9999.0,2017-01-16
boglakepeatland,47.5051,-93.4893,416,1.219,2017-01-16
bostoncommon,42.355912,-71.064145,10,-0.199,2017-01-16
bostonu,42.35041,-71.10438,10,-0.174,2017-01-16
bouldinalfalfa,38.0985,-121.4993,-5,1.279,2017-01-16
bouldincorn,38.109,-121.535,-5,1.277,2017-01-16
bozeman,45.783056,-110.777778,2332,-0.083,2017-01-16
brackishimpoundment,33.2015,-79.2973,1,-0.673,2017-01-16
bullshoals,36.562833,-93.06663,260,-1.466,2017-01-16
burnssagebrush,43.4712,-119.6909,1398,0.786,2017-01-16
butte,45.95304,-112.47964,1682,0.067,2017-01-16
butterice,39.5793,-121.858,33,0.906,2017-01-16
cafboydnorthltar01,46.755104,-117.126052,795,0.172,2017-01-16
cafboydsouthltar01,46.751809,-117.128502,795,0.172,2017-01-16
cafcookeastltar01,46.78152,-117.0821,794,0.51,2017-01-16
cafcookwestltar01,46.784037,-117.09083,807,0.51,2017-01-16
caryinstitute,41.7839,-73.7341,127,0.823,2017-01-16
centralredwoods1,38.632272,-123.301511,200,1.276,2017-01-16
centralredwoods2,38.632272,-123.301511,200,1.276,2017-01-16
cperagm,40.8402,-104.7672,1644,0.171,2017-01-16
cperheavy,40.8153,-104.7386,1652,0.184,2017-01-16
cpertgm,40.833,-104.76,1644,0.222,2017-01-16
cperuvb,40.8055764,-104.7558542,1641,0.222,2017-01-16
cuny,40.8162,-73.9507,42,0.473,2017-01-16
doverdesaltmarsh,39.0888,-75.4368,0,-1.458,2017-01-16
downerwoods,43.07938,-87.88076,213,0.546,2017-01-16
dukehw,35.973583,-79.100371,400,-1.437,2017-01-16
ecb1,41.5348,-84.8068,275,0.3,2017-01-16
ecb2,41.5321,-84.808,275,0.3,2017-01-16
ecb4,41.1796,-83.0604,240,-0.671,2017-01-16
elverde,18.320654,-65.8199,312,-9999.0,2017-01-16
flagstaff,35.17961521,-111.6049032,6983,0.876,2017-01-16
flagstaff2,35.179225,-111.604506,6983,0.876,2017-01-16
flagstaffchimneysprings,35.257296,-111.678542,2250,0.851,2017-01-16
forbes,39.232,-121.2972,360,1.445,2017-01-16
fortpaynealpasture1,34.3824,-85.6428,405,-1.488,2017-01-16
fortpaynealpasture2,34.3824,-85.6447,403,-1.488,2017-01-16
gcesapelo,31.4440444,-81.283528,0,-0.056,2017-01-16
gilberttract,38.0015,-121.6691,6,1.142,2017-01-16
glees,41.3644,-106.2394,3150,1.484,2017-01-16
glennorganicrice,39.6805,-122.0026,2,0.895,2017-01-16
glennrice,39.5944,-122.0253,36,0.753,2017-01-16
goodnow,43.96018,-74.20994,820,1.109,2017-01-16
goodwater,39.22848,-92.11936,264,-1.302,2017-01-16
goodwaterbau,39.23115,-92.15216,274,-1.286,2017-01-16
grandteton,43.915017,-110.578036,2054,1.666,2017-01-16
grca1pj,36.0241,-112.2211,1978,1.129,2017-01-16
greenridge1,39.6905,-78.4067,285,-0.647,2017-01-16
harvard,42.5378,-72.1715,340,0.019,2017-01-16
harvardbarn,42.53532,-72.1899,350,0.004,2017-01-16
harvardbarn2,42.53532,-72.1899,350,0.004,2017-01-16
harvardems2,42.5378,-72.1715,340,0.019,2017-01-16
harvardfarmnorth,42.520465,-72.182242,355,0.004,2017-01-16
harvardfarmsouth,42.522466,-72.182339,355,0.004,2017-01-16
harvardgarden,42.5291,-72.1863,335,0.004,2017-01-16
harvardhemlock,42.539,-72.18,355,0.004,2017-01-16
harvardhemlock2,42.539407,-72.177976,355,0.019,2017-01-16
harvardlph,42.542,-72.185,380,0.004,2017-01-16
hawbeckereddy,40.6608,-77.848849,310,-0.974,2017-01-16
hobcawclearcutlongleaf,33.3486,-79.232,4,-0.572,2017-01-16
hobcawmaturelongleaf,33.3242,-79.2439,8,-0.572,2017-01-16
homesteadsprings,37.2009,-92.9937,452,-1.833,2017-01-16
howland1,45.2041,-68.7403,80,0.932,2017-01-16
howland2,45.2128,-68.7418,79,0.932,2017-01-16
hubbardbrook,43.9438,-71.701,253,0.613,2017-01-16
humnokericea,34.585192,-91.751684,61,-0.176,2017-01-16
humnokericec,34.588853,-91.7516729,70,-0.176,2017-01-16
huyckpreserveny,42.5266,-74.1587,478,0.013,2017-01-16
hwmo1,20.0212,-155.7331,585,-9999.0,2017-01-16
hwmo2,19.9766,-155.8298,12,-9999.0,2017-01-16
hwmo5,20.1117,-155.8151,635,-9999.0,2017-01-16
ibp,32.589,-106.847,1325,0.668,2017-01-16
imcrkfen,68.60583,-149.31101,900,-9999.0,2017-01-16
imcrkridge0,68.60681,-149.2958,951,-9999.0,2017-01-16
imcrkridge1,68.60681,-149.2958,951,-9999.0,2017-01-16
imcrktussock,68.60633,-149.30408,918,-9999.0,2017-01-16
jasperridge,37.402028,-122.22104,197,0.894,2017-01-16
jerbajada,32.57992,-106.633793,1402,0.649,2017-01-16
jergrassland,32.5833,-106.8333,1331,0.668,2017-01-16
jernort,32.619,-106.788,1328,0.637,2017-01-16
jernovel,32.6335,-106.8334,1324,0.625,2017-01-16
jernwern,32.6271,-106.7387,1325,0.676,2017-01-16
jersand,32.515,-106.798,1363,0.516,2017-01-16
jershrubland,32.6502,-106.8334,1328,0.649,2017-01-16
junipersavannah,34.4254,-105.8615,1931,0.671,2017-01-16
kamuela,20.015008,-155.661326,850,-9999.0,2017-01-16
kamuela2,20.014959,-155.661139,830,-9999.0,2017-01-16
kansas,39.0561,-95.1907,333,-0.981,2017-01-16
kelloggcorn,42.437536,-85.3225472,288,0.257,2017-01-16
kempnrs,45.83992,-89.67755,539,0.534,2017-01-16
kendall,31.73652,-109.94185,1529,0.07,2017-01-16
konza,39.0824,-96.5603,443,-0.801,2017-01-16
laupahoehoe,19.9322,-155.2912,1145,-9999.0,2017-01-16
ldeocam,41.0039,-73.9053,121,0.31,2017-01-16
lostcreek,46.0827,-89.9792,480,0.392,2017-01-16
luckyhills,31.743896,-110.052023,1366,0.027,2017-01-16
macleish,42.4484,-72.6804,251,-0.016,2017-01-16
macordway,44.8106,-93.0272,264,0.845,2017-01-16
mandanh5,46.775423,-100.95109,593,1.91,2017-01-16
mandani2,46.7614,-100.9257,590,1.909,2017-01-16
manilacotton,35.8872,-90.1371,73,-0.535,2017-01-16
marena,36.06434,-97.21271,327,-1.256,2017-01-16
mead1,41.1651,-96.4766,361,0.072,2017-01-16
mead2,41.1649,-96.4701,362,0.072,2017-01-16
mead3,41.1797,-96.4397,363,0.102,2017-01-16
meadpasture,41.1447,-96.4616,356,0.251,2017-01-16
meadpasturese,41.1447,-96.4616,356,0.251,2017-01-16
meadpasturesw,41.1447,-96.4616,356,0.251,2017-01-16
missouriozarks,38.7441,-92.2,219,-1.695,2017-01-16
morganmonroe,39.3231,-86.4131,275,-1.01,2017-01-16
morganmonroe2,39.3231,-86.4131,275,-1.01,2017-01-16
nahuku,19.415187,-155.238383,1202,-9999.0,2017-01-16
nationalelkrefuge,43.488931,-110.737824,1899,1.661,2017-01-16
ncssm,36.018446,-78.92075,175,-1.522,2017-01-16
NEON.D01.BART.DP1.00033,44.063869,-71.287375,285,0.493,2017-01-16
NEON.D01.HARV.DP1.00033,42.536911,-72.17265,359,0.019,2017-01-16
NEON.D01.HOPB.DP1.20002,42.471786,-72.329627,203,-0.112,2017-01-16
NEON.D02.BLAN.DP1.00033,39.033698,-78.041788,162,-1.026,2017-01-16
NEON.D02.LEWI.DP1.20002,39.09564,-77.98322,152,-1.047,2017-01-16
NEON.D02.POSE.DP1.20002,38.89332,-78.14678,293,-0.715,2017-01-16
NEON.D02.SCBI.DP1.00033,38.892925,-78.139494,364,-0.758,2017-01-16
NEON.D02.SERC.DP1.00033,38.89008,-76.56001,30,-1.674,2017-01-16
NEON.D03.BARC.DP1.20002,29.676473,-82.009089,35,-0.909,2017-01-16
NEON.D03.DSNY.DP1.00033,28.12505,-81.43619,22,-1.016,2017-01-16
NEON.D03.FLNT.DP1.20002,31.185424,-84.437403,27,1.157,2017-01-16
NEON.D03.JERC.DP1.00033,31.194839,-84.468623,58,1.072,2017-01-16
NEON.D03.OSBS.DP1.00033,29.689282,-81.993431,56,-0.877,2017-01-16
NEON.D03.SUGG.DP1.20002,29.687054,-82.016171,28,-0.877,2017-01-16
NEON.D04.CUPE.DP1.20002,18.11352,-66.98676,164,-9999.0,2017-01-16
NEON.D04.GUAN.DP1.00033,17.96955,-66.8687,136,-9999.0,2017-01-16
NEON.D04.GUIL.DP1.20002,18.1741,-66.79851,564,-9999.0,2017-01-16
NEON.D04.LAJA.DP1.00033,18.021261,-67.076889,22,-9999.0,2017-01-16
NEON.D05.CRAM.DP1.20002,46.21111,-89.47825,518,0.016,2017-01-16
NEON.D05.LIRO.DP1.20002,45.998269,-89.704767,495,0.432,2017-01-16
NEON.D05.STEI.DP1.00033,45.50894,-89.58637,476,0.235,2017-01-16
NEON.D05.TREE.DP1.00033,45.49373,-89.58572,474,0.235,2017-01-16
NEON.D05.UNDE.DP1.00033,46.23391,-89.537254,529,0.036,2017-01-16
NEON.D06.KING.DP1.20002,39.10506,-96.60336,339,-0.786,2017-01-16
NEON.D06.KONA.DP1.00033,39.110446,-96.612935,443,-0.786,2017-01-16
NEON.D06.KONZ.DP1.00033,39.10077,-96.56309,415,-0.801,2017-01-16
NEON.D06.MCDI.DP1.20002,38.94428,-96.44197,376,-0.99,2017-01-16
NEON.D06.UKFS.DP1.00033,39.040431,-95.19215,330,-0.981,2017-01-16
NEON.D07.GRSM.DP1.00033,35.68896,-83.50195,589,-0.6,2017-01-16
NEON.D07.LECO.DP1.20002,35.69043,-83.50379,578,-0.6,2017-01-16
NEON.D07.MLBS.DP1.00033,37.378314,-80.524847,1177,-0.725,2017-01-16
NEON.D07.ORNL.DP1.00033,35.964128,-84.282588,351,0.538,2017-01-16
NEON.D07.WALK.DP1.20002,35.95947,-84.28041,274,0.528,2017-01-16
NEON.D08.BLWA.DP1.20002,32.541529,-87.798151,23,-0.32,2017-01-16
NEON.D08.DELA.DP1.00033,32.541727,-87.803877,36,-0.32,2017-01-16
NEON.D08.LENO.DP1.00033,31.85388,-88.16122,10,0.15,2017-01-16
NEON.D08.MAYF.DP1.20002,32.959657,-87.408128,93,-1.468,2017-01-16
NEON.D08.TALL.DP1.00033,32.95047,-87.393259,167,-1.468,2017-01-16
NEON.D08.TOMB.DP1.20002,31.853431,-88.158872,10,0.15,2017-01-16
NEON.D09.DCFS.DP1.00033,47.161647,-99.106556,574,1.961,2017-01-16
NEON.D09.NOGP.DP1.00033,46.76972,-100.91535,589,1.909,2017-01-16
NEON.D09.PRLA.DP1.20002,47.15909,-99.11388,563,1.972,2017-01-16
NEON.D09.PRPO.DP1.20002,47.12999,-99.250551,587,1.96,2017-01-16
NEON.D09.WOOD.DP1.00033,47.1282,-99.241334,585,1.96,2017-01-16
NEON.D10.ARIK.DP1.20002,39.758246,-102.447103,1188,-0.789,2017-01-16
NEON.D10.CPER.DP1.00033,40.81553,-104.7456,1600,0.222,2017-01-16
NEON.D10.HQTW.DP1.00033,40.016704,-105.245612,1601,-0.251,2017-01-16
NEON.D10.RMNP.DP1.00033,40.275903,-105.545955,2751,2.816,2017-01-16
NEON.D10.STER.DP1.00033,40.461894,-103.02929,1366,-0.623,2017-01-16
NEON.D11.BLUE.DP1.20002,34.444218,-96.624201,288,-0.833,2017-01-16
NEON.D11.CLBJ.DP1.00033,33.40123,-97.57,279,0.347,2017-01-16
NEON.D11.OAES.DP1.00033,35.41059,-99.05879,520,-0.886,2017-01-16
NEON.D11.PRIN.DP1.20002,33.37859,-97.78226,255,0.089,2017-01-16
NEON.D12.BLDE.DP1.20002,44.95011,-110.58715,2035,1.457,2017-01-16
NEON.D12.YELL.DP1.00033,44.95348,-110.53914,2130,1.211,2017-01-16
NEON.D13.COMO.DP1.20002,40.03496,-105.54487,3036,2.43,2017-01-16
NEON.D13.MOAB.DP1.00033,38.24833,-109.38827,1803,0.349,2017-01-16
NEON.D13.NIWO.DP1.00033,40.05425,-105.58237,3493,2.594,2017-01-16
NEON.D13.WLOU.DP1.20002,39.891366,-105.915395,2920,1.785,2017-01-16
NEON.D14.JORN.DP1.00033,32.59068,-106.84254,1321,0.668,2017-01-16
NEON.D14.SRER.DP1.00033,31.91068,-110.83549,999,0.041,2017-01-16
NEON.D14.SYCA.DP1.20002,33.749057,-111.506903,644,0.441,2017-01-16
NEON.D15.ONAQ.DP1.00033,40.177599,-112.452452,1655,0.754,2017-01-16
NEON.D15.REDB.DP1.20002,40.783934,-111.797887,1696,1.125,2017-01-16
NEON.D16.ABBY.DP1.00033,45.76243,-122.33033,390,-0.428,2017-01-16
NEON.D16.MART.DP1.20002,45.791248,-121.931959,354,-0.536,2017-01-16
NEON.D16.MCRA.DP1.20002,44.259598,-122.165554,880,-0.115,2017-01-16
NEON.D16.WREF.DP1.00033,45.82049,-121.95191,368,-0.555,2017-01-16
NEON.D17.BIGC.DP1.20002,37.059719,-119.257549,1133,1.717,2017-01-16
NEON.D17.SJER.DP1.00033,37.10878,-119.73228,398,1.497,2017-01-16
NEON.D17.SOAP.DP1.00033,37.03337,-119.26219,1210,1.691,2017-01-16
NEON.D17.TEAK.DP1.00033,37.00583,-119.00602,2149,1.579,2017-01-16
NEON.D17.TECR.DP1.20002,36.955931,-119.027363,2053,1.614,2017-01-16
NEON.D18.BARR.DP1.00033,71.28241,-156.61936,7,-9999.0,2017-01-16
NEON.D18.OKSR.DP1.20002,68.669753,-149.143018,773,-9999.0,2017-01-16
NEON.D18.TOOK.DP1.20002,68.629562,-149.610509,715,-9999.0,2017-01-16
NEON.D18.TOOL.DP1.00033,68.66109,-149.37047,827,-9999.0,2017-01-16
NEON.D19.BONA.DP1.00033,65.15401,-147.50258,233,-9999.0,2017-01-16
NEON.D19.CARI.DP1.20002,65.15306,-147.50246,229,-9999.0,2017-01-16
NEON.D19.DEJU.DP1.00033,63.88112,-145.75136,504,-9999.0,2017-01-16
NEON.D19.HEAL.DP1.00033,63.87569,-149.21334,409,-9999.0,2017-01-16
NEON.D20.PUUM.DP1.00033,19.55309,-155.31731,1683,-9999.0,2017-01-16
nevcansnk3a,39.0099,-114.3095,3063,1.06,2017-01-16
nevcanspg1a,38.9253,-114.4082,1792,0.08,2017-01-16
nevcanspg2a,38.8921,-114.3521,2203,0.141,2017-01-16
nevcanspg3a,38.8898,-114.3314,2820,0.075,2017-01-16
nevcanspg4a,38.9061,-114.3089,3360,0.075,2017-01-16
ninemileprairie,40.86801886,-96.82208066,381,-0.229,2017-01-16
nist,39.139,-77.2125,100,-0.886,2017-01-16
niwot3,40.03286358,-105.5469702,3050,2.43,2017-01-16
niwot5,40.03286358,-105.5469702,2993,2.43,2017-01-16
northattleboroma,41.98369,-71.31056,60,-0.716,2017-01-16
northinletsaltmarsh,33.3455,-79.1957,1,-0.633,2017-01-16
oakville,47.899334,-97.316139,268,1.529,2017-01-16
oregonMP,44.4523,-121.5574,1253,0.455,2017-01-16
oregonYP,44.32384,-121.605993,977,0.938,2017-01-16
oregonYPbud,44.3238,-121.606,977,0.938,2017-01-16
othshardwood,44.934805,-68.6655,41,1.188,2017-01-16
othssoftwood,44.934527,-68.664888,41,1.188,2017-01-16
pace,37.9229,-78.2739,100,-1.253,2017-01-16
parkschoolbuffalo,42.9637,-78.7834,205,-0.266,2017-01-16
piedmontalpasture2,33.8875,-85.6935,238,-1.073,2017-01-16
portal,31.9385,-109.0823,1330,0.474,2017-01-16
proctor,44.525,-72.866,403,-0.085,2017-01-16
readingma,42.5304,-71.1272,100,-0.162,2017-01-16
robinson,37.4671,-83.1576,483,0.24,2017-01-16
robinson2,37.4671,-83.1576,483,0.24,2017-01-16
rosemountcons,44.6946,-93.0578,283,0.886,2017-01-16
rosemountconv,44.691,-93.0576,283,0.886,2017-01-16
rosemountnprs,44.6781,-93.0723,274,0.884,2017-01-16
russellsage,32.456961,-91.974322,20,-0.433,2017-01-16
sagehen,39.4315,-120.2398,1934,1.679,2017-01-16
sagehen2,39.4307,-120.2407,1937,1.679,2017-01-16
sagehen3,39.4311,-120.2405,1935,1.679,2017-01-16
sanford,42.726777,-84.464482,268,0.685,2017-01-16
santacruz1,36.9741,-122.0308,11,1.316,2017-01-16
santacruz2,36.9741,-122.0308,11,1.316,2017-01-16
santaluciapreserve1,36.5265,-121.8682,500,0.86,2017-01-16
santaluciapreserve2,36.5265,-121.8682,500,0.86,2017-01-16
segaarboretum10,35.16209,-111.73151,2170,0.912,2017-01-16
segaarboretum2,35.16209,-111.73151,2170,0.912,2017-01-16
segaarboretum3,35.16209,-111.73151,2170,0.912,2017-01-16
segaarboretum4,35.16214,-111.73153,2170,0.912,2017-01-16
segaarboretum6,35.16209,-111.73151,2170,0.912,2017-01-16
segaarboretum9,35.16222,-111.73158,2170,0.912,2017-01-16
segaarboretumforest,35.1613,-111.7359,2173,0.912,2017-01-16
segaarboretummeadow,35.1621,-111.7316,2157,0.912,2017-01-16
segablackpoint,35.6814,-111.4754,1566,0.789,2017-01-16
segabluechute,35.5876,-111.9716,1930,0.97,2017-01-16
segabluechute1,35.58759,-111.97115,1931,0.97,2017-01-16
segabluechute2,35.58759,-111.97115,1931,0.97,2017-01-16
segabluechute4,35.58759,-111.9716,1931,0.97,2017-01-16
segabluechute6,35.58759,-111.97115,1931,0.97,2017-01-16
segabluechute7,35.58759,-111.97115,1931,0.97,2017-01-16
segabluechute8,35.58759,-111.97115,1931,0.97,2017-01-16
segabradshaw,34.9109,-111.9285,1402,0.912,2017-01-16
segahartprairie,35.3536,-111.7324,2585,0.886,2017-01-16
segalcr,35.7231,-111.321,1275,0.862,2017-01-16
segalcr2,35.7069,-111.36,1495,0.863,2017-01-16
segalittlemountain,36.5865,-112.3634,2276,0.877,2017-01-16
segasoapcreek,36.751,-111.716,1233,0.943,2017-01-16
segawhitepockets,36.6081,-112.4082,2057,0.944,2017-01-16
sevilletagrass,34.360444,-106.700186,1600,1.168,2017-01-16
sevilletanewgrass,34.358,-106.6799,1603,1.184,2017-01-16
sevilletashrub,34.334956,-106.744469,1603,1.202,2017-01-16
sevMRME10L,34.3438,-106.7269,1604,1.157,2017-01-16
sevMRME11C,34.3438,-106.7268,1604,1.157,2017-01-16
sevMRME1S,34.3442,-106.7272,1604,1.157,2017-01-16
sevpjrm12,34.38615,-106.52621,1905,1.207,2017-01-16
sevpjrm13,34.38631,-106.52791,1914,1.207,2017-01-16
shalehillsczo,40.6658,-77.9041,310,-0.892,2017-01-16
shenandoah,38.6167,-78.35,1037,-1.179,2017-01-16
silverton,44.9986,-122.6948,347,-0.24,2017-01-16
siwetland,38.0369,-121.7546,-5,0.949,2017-01-16
slatefloodplain,38.9094,-107.0282,2725,1.737,2017-01-16
snodgrass1,38.92619636,-106.9714376,3023,1.627,2017-01-16
snodgrass2,38.92619636,-106.9714376,3023,1.627,2017-01-16
snodgrass3,38.92839978,-106.9781196,3141,1.627,2017-01-16
snodgrass4,38.92839978,-106.9781196,3141,1.627,2017-01-16
snodgrass5,38.92744789,-106.9785209,3152,1.627,2017-01-16
snodgrass6,38.92744789,-106.9785209,3152,1.627,2017-01-16
snodgrass7,38.93142134,-106.9852388,3363,1.661,2017-01-16
snodgrass8,38.93142134,-106.9852388,3363,1.661,2017-01-16
southerngreatplains,36.6058,-97.4888,314,-1.273,2017-01-16
springfieldma,42.135162,-72.585972,56,-0.398,2017-01-16
spruceA0EMI,47.5049,-93.4541,413,1.221,2017-01-16
spruceA0EMT,47.5049,-93.4541,418,1.221,2017-01-16
spruceA0P07,47.50493,-93.45314,413,1.221,2017-01-16
spruceA0P07SH,47.50493,-93.45314,413,1.221,2017-01-16
spruceA0P21,47.50625,-93.45275,413,1.221,2017-01-16
spruceA0P21SH,47.50625,-93.45275,413,1.221,2017-01-16
srg,31.7894,-110.8276,1281,-0.157,2017-01-16
srm,31.8214,-110.8661,1116,0.112,2017-01-16
statenrice1,38.1235,-121.549,-5,1.263,2017-01-16
stjones,39.088222,-75.43725,2,-1.458,2017-01-16
sweetbriar,37.57341,-79.08482,242,-0.93,2017-01-16
sweetbriarclearcut,37.5753,-79.0872,242,-0.93,2017-01-16
sweetbriargrass,37.5605,-79.0884,240,-0.93,2017-01-16
sylvania,46.242,-89.348,540,0.021,2017-01-16
templefieldstation1,40.1667,-75.1894,105,-0.468,2017-01-16
tfforest,43.1086,-70.9505,23,0.71,2017-01-16
tidmarshplymouth,41.9157,-70.5754,9,-0.692,2017-01-16
tonzi,38.43091667,-120.9658861,177,1.455,2017-01-16
townsenddemeadow,39.3917,-75.6281,11,-1.21,2017-01-16
tsubiology,36.1671,-86.8295,164,-0.066,2017-01-16
tsubiology2,36.1171,-86.8295,100,-0.218,2017-01-16
tuckerprairie,38.9491,-91.9952,274,-1.226,2017-01-16
twodafo,29.1658,-95.829,16,-1.095,2017-01-16
tworfaa,31.4777,-96.8882,167,-0.126,2017-01-16
tworfpr,31.4802,-96.8826,162,-0.348,2017-01-16
tworfta,31.4693,-96.8864,173,-0.126,2017-01-16
twosfpr,30.6176,-97.2938,157,0.099,2017-01-16
ucnrsanzaborrego,33.2401,-116.3886,214,0.793,2017-01-16
ufona,27.3836,-81.950856,25,-1.692,2017-01-16
uiefmaize2,40.0628,-88.1961,224,-0.693,2017-01-16
uiefmiscanthus2,40.0628,-88.1984,221,-0.693,2017-01-16
uiefprairie2,40.0637,-88.1973,224,-0.693,2017-01-16
uiefsorghum,40.0065,-88.2032,224,-0.714,2017-01-16
uiefswitchgrass2,40.0637,-88.1973,224,-0.693,2017-01-16
umichbiological,45.55984,-84.71382,230,-0.221,2017-01-16
umichbiological2,45.5625,-84.6976,240,-0.304,2017-01-16
unca,35.5951,-82.5515,650,-1.103,2017-01-16
usgseros,43.7343,-96.6234,448,0.844,2017-01-16
usmpj,34.43845,-106.2543606,2126,0.486,2017-01-16
usof5,35.7297,-90.0406,70,-0.471,2017-01-16
usof6,35.7333,-90.0403,70,-0.471,2017-01-16
uwmfieldsta,43.38709,-88.0229,265,0.63,2017-01-16
vaira,38.41328056,-120.9506361,129,1.455,2017-01-16
vallesburnedconifer,35.8884,-106.5321,3043,0.428,2017-01-16
vallesmixedconifer,35.9192,-106.6142,2752,0.485,2017-01-16
vallesponderosapine,35.864,-106.5964,2501,0.463,2017-01-16
waahila,21.3017,-157.8152,55,-9999.0,2017-01-16
warrenwilson,35.6069,-82.4421,2198,-1.336,2017-01-16
willamettepoplar,44.1368,-123.1823,112,-0.033,2017-01-16
willowcreek,45.805986,-90.07912,521,0.4,2017-01-16
windriver,45.8212833,-121.9520833,371,-0.555,2017-01-16
windriverunderstory,45.8212833,-121.9520833,371,-0.555,2017-01-16
wolfesneckfarm,43.8305,-70.0715,16,1.188,2017-01-16
worcester,42.2697,-71.8428,185,0.543,2017-01-16
alligatorriver,35.7879,-75.9038,1,-0.484,2017-01-23
arbutuslake,43.98207,-74.23322,535,0.777,2017-01-23
arbutuslakeinlet,43.99336,-74.24527,527,0.777,2017-01-23
archboldavir,27.176064,-81.21958,8,-1.642,2017-01-23
archboldavirx,27.166627,-81.219828,8,-1.642,2017-01-23
archboldbahia,27.1656,-81.216112,8,-1.642,2017-01-23
archboldpnot,27.187948,-81.200345,9,-1.642,2017-01-23
archboldpnotx,27.180677,-81.20068,9,-1.642,2017-01-23
arkansascornsoy,34.416,-91.6723,61,0.609,2017-01-23
arsbrooks10,41.9749,-93.6905,312,0.415,2017-01-23
arsbrooks11,41.9744,-93.6937,313,0.415,2017-01-23
arscolesnorth,42.4884,-93.5225,356,0.45,2017-01-23
arscolessouth,42.4816,-93.5235,352,0.45,2017-01-23
arsgacp1,31.5109,-83.6179,96,0.779,2017-01-23
arsgacp3,31.7563,-83.7516,139,0.961,2017-01-23
arsgacp4,31.7093,-83.7287,127,1.03,2017-01-23
arsgreatbasinltar098,43.1675,-116.7132,1426,1.406,2017-01-23
arsgreatbasinltar117,43.1432,-116.7357,1625,0.8,2017-01-23
arsgreatbasinltar177,43.0645,-116.7484,2114,0.292,2017-01-23
arsltarmdcr,39.0587,-75.8513,17,-1.515,2017-01-23
arsltarmdcrnatw,39.0575,-75.7531,16,-1.489,2017-01-23
arsltarmdcrprcw,39.0667,-75.7609,17,-1.489,2017-01-23
arsltarmdcrresw,39.0549,-75.7532,16,-1.489,2017-01-23
arsltarucbec1,40.7537,-78.0057,400,-0.85,2017-01-23
arsltarucbec2,40.7558,-77.9999,396,-0.85,2017-01-23
arsmnswanlake1,45.684508,-95.799703,370,0.795,2017-01-23
arsmorris1,45.6167,-96.1269,341,0.914,2017-01-23
arsmorris2,45.627,-96.127,338,0.914,2017-01-23
arsmorris3,45.6091,-96.1265,342,0.914,2017-01-23
arsope3ltar,39.0309,-76.8442,41,-1.093,2017-01-23
ashburnham,42.6029,-71.926,292,-0.726,2017-01-23
asuhighlands,36.2076,-81.7032,1016,-0.876,2017-01-23
austincary,29.738,-82.2188,44,-0.963,2017-01-23
barrow,71.28007453,-156.6091492,5,-9999.0,2017-01-23
bartlettir,44.0646,-71.2881,268,-0.117,2017-01-23
bigtraillake,64.9194,-147.822,190,-9999.0,2017-01-23
bitterbrush001,48.154,-119.9456,667,-0.741,2017-01-23
blackrockforest,41.3974,-74.0239,427,-0.225,2017-01-23
bnzblackspruce,64.6963,-148.3235,102,-9999.0,2017-01-23
bnzrichfen,64.70134,-148.31195,97,-9999.0,2017-01-23
bnzthermokarstbog,64.6955,-148.3208,104,-9999.0,2017-01-23
boglakepeatland,47.5051,-93.4893,416,1.446,2017-01-23
bostoncommon,42.355912,-71.064145,10,-0.757,2017-01-23
bostonu,42.35041,-71.10438,10,-0.734,2017-01-23
bouldinalfalfa,38.0985,-121.4993,-5,1.255,2017-01-23
bouldincorn,38.109,-121.535,-5,1.251,2017-01-23
bozeman,45.783056,-110.777778,2332,-0.156,2017-01-23
brackishimpoundment,33.2015,-79.2973,1,-0.725,2017-01-23
bullshoals,36.562833,-93.06663,260,-1.162,2017-01-23
burnssagebrush,43.4712,-119.6909,1398,0.891,2017-01-23
butte,45.95304,-112.47964,1682,0.048,2017-01-23
butterice,39.5793,-121.858,33,0.857,2017-01-23
cafboydnorthltar01,46.755104,-117.126052,795,-0.146,2017-01-23
cafboydsouthltar01,46.751809,-117.128502,795,-0.146,2017-01-23
cafcookeastltar01,46.78152,-117.0821,794,0.211,2017-01-23
cafcookwestltar01,46.784037,-117.09083,807,0.211,2017-01-23
caryinstitute,41.7839,-73.7341,127,0.441,2017-01-23
centralredwoods1,38.632272,-123.301511,200,1.087,2017-01-23
centralredwoods2,38.632272,-123.301511,200,1.087,2017-01-23
cperagm,40.8402,-104.7672,1644,0.519,2017-01-23
cperheavy,40.8153,-104.7386,1652,0.565,2017-01-23
cpertgm,40.833,-104.76,1644,0.633,2017-01-23
cperuvb,40.8055764,-104.7558542,1641,0.633,2017-01-23
cuny,40.8162,-73.9507,42,0.168,2017-01-23
doverdesaltmarsh,39.0888,-75.4368,0,-1.52,2017-01-23
downerwoods,43.07938,-87.88076,213,0.268,2017-01-23
dukehw,35.973583,-79.100371,400,-1.523,2017-01-23
ecb1,41.5348,-84.8068,275,0.287,2017-01-23
ecb2,41.5321,-84.808,275,0.287,2017-01-23
ecb4,41.1796,-83.0604,240,-0.276,2017-01-23
elverde,18.320654,-65.8199,312,-9999.0,2017-01-23
flagstaff,35.17961521,-111.6049032,6983,1.102,2017-01-23
flagstaff2,35.179225,-111.604506,6983,1.102,2017-01-23
flagstaffchimneysprings,35.257296,-111.678542,2250,1.108,2017-01-23
forbes,39.232,-121.2972,360,1.441,2017-01-23
fortpaynealpasture1,34.3824,-85.6428,405,-1.091,2017-01-23
fortpaynealpasture2,34.3824,-85.6447,403,-1.091,2017-01-23
gcesapelo,31.4440444,-81.283528,0,-0.188,2017-01-23
gilberttract,38.0015,-121.6691,6,1.098,2017-01-23
glees,41.3644,-106.2394,3150,1.342,2017-01-23
glennorganicrice,39.6805,-122.0026,2,0.847,2017-01-23
glennrice,39.5944,-122.0253,36,0.729,2017-01-23
goodnow,43.96018,-74.20994,820,0.735,2017-01-23
goodwater,39.22848,-92.11936,264,-0.76,2017-01-23
goodwaterbau,39.23115,-92.15216,274,-0.767,2017-01-23
grandteton,43.915017,-110.578036,2054,1.445,2017-01-23
grca1pj,36.0241,-112.2211,1978,1.418,2017-01-23
greenridge1,39.6905,-78.4067,285,-0.525,2017-01-23
harvard,42.5378,-72.1715,340,-0.428,2017-01-23
harvardbarn,42.53532,-72.1899,350,-0.461,2017-01-23
harvardbarn2,42.53532,-72.1899,350,-0.461,2017-01-23
harvardems2,42.5378,-72.1715,340,-0.428,2017-01-23
harvardfarmnorth,42.520465,-72.182242,355,-0.461,2017-01-23
harvardfarmsouth,42.522466,-72.182339,355,-0.461,2017-01-23
harvardgarden,42.5291,-72.1863,335,-0.461,2017-01-23
harvardhemlock,42.539,-72.18,355,-0.461,2017-01-23
harvardhemlock2,42.539407,-72.177976,355,-0.428,2017-01-23
harvardlph,42.542,-72.185,380,-0.461,2017-01-23
hawbeckereddy,40.6608,-77.848849,310,-1.051,2017-01-23
hobcawclearcutlongleaf,33.3486,-79.232,4,-0.595,2017-01-23
hobcawmaturelongleaf,33.3242,-79.2439,8,-0.595,2017-01-23
homesteadsprings,37.2009,-92.9937,452,-1.242,2017-01-23
howland1,45.2041,-68.7403,80,0.732,2017-01-23
howland2,45.2128,-68.7418,79,0.732,2017-01-23
hubbardbrook,43.9438,-71.701,253,0.091,2017-01-23
humnokericea,34.585192,-91.751684,61,0.304,2017-01-23
humnokericec,34.588853,-91.7516729,70,0.304,2017-01-23
huyckpreserveny,42.5266,-74.1587,478,-0.342,2017-01-23
hwmo1,20.0212,-155.7331,585,-9999.0,2017-01-23
hwmo2,19.9766,-155.8298,12,-9999.0,2017-01-23
hwmo5,20.1117,-155.8151,635,-9999.0,2017-01-23
ibp,32.589,-106.847,1325,1.431,2017-01-23
imcrkfen,68.60583,-149.31101,900,-9999.0,2017-01-23
imcrkridge0,68.60681,-149.2958,951,-9999.0,2017-01-23
imcrkridge1,68.60681,-149.2958,951,-9999.0,2017-01-23
imcrktussock,68.60633,-149.30408,918,-9999.0,2017-01-23
jasperridge,37.402028,-122.22104,197,0.945,2017-01-23
jerbajada,32.57992,-106.633793,1402,1.388,2017-01-23
jergrassland,32.5833,-106.8333,1331,1.431,2017-01-23
jernort,32.619,-106.788,1328,1.384,2017-01-23
jernovel,32.6335,-106.8334,1324,1.397,2017-01-23
jernwern,32.6271,-106.7387,1325,1.425,2017-01-23
jersand,32.515,-106.798,1363,1.3,2017-01-23
jershrubland,32.6502,-106.8334,1328,1.403,2017-01-23
junipersavannah,34.4254,-105.8615,1931,1.144,2017-01-23
kamuela,20.015008,-155.661326,850,-9999.0,2017-01-23
kamuela2,20.014959,-155.661139,830,-9999.0,2017-01-23
kansas,39.0561,-95.1907,333,-0.413,2017-01-23
kelloggcorn,42.437536,-85.3225472,288,0.494,2017-01-23
kempnrs,45.83992,-89.67755,539,0.683,2017-01-23
kendall,31.73652,-109.94185,1529,0.287,2017-01-23
konza,39.0824,-96.5603,443,-0.142,2017-01-23
laupahoehoe,19.9322,-155.2912,1145,-9999.0,2017-01-23
ldeocam,41.0039,-73.9053,121,-0.067,2017-01-23
lostcreek,46.0827,-89.9792,480,0.552,2017-01-23
luckyhills,31.743896,-110.052023,1366,0.227,2017-01-23
macleish,42.4484,-72.6804,251,-0.19,2017-01-23
macordway,44.8106,-93.0272,264,0.838,2017-01-23
mandanh5,46.775423,-100.95109,593,2.026,2017-01-23
mandani2,46.7614,-100.9257,590,2.019,2017-01-23
manilacotton,35.8872,-90.1371,73,-0.282,2017-01-23
marena,36.06434,-97.21271,327,-0.215,2017-01-23
mead1,41.1651,-96.4766,361,0.571,2017-01-23
mead2,41.1649,-96.4701,362,0.571,2017-01-23
mead3,41.1797,-96.4397,363,0.596,2017-01-23
meadpasture,41.1447,-96.4616,356,0.706,2017-01-23
meadpasturese,41.1447,-96.4616,356,0.706,2017-01-23
meadpasturesw,41.1447,-96.4616,356,0.706,2017-01-23
missouriozarks,38.7441,-92.2,219,-1.351,2017-01-23
morganmonroe,39.3231,-86.4131,275,-0.196,2017-01-23
morganmonroe2,39.3231,-86.4131,275,-0.196,2017-01-23
nahuku,19.415187,-155.238383,1202,-9999.0,2017-01-23
nationalelkrefuge,43.488931,-110.737824,1899,1.333,2017-01-23
ncssm,36.018446,-78.92075,175,-1.629,2017-01-23
NEON.D01.BART.DP1.00033,44.063869,-71.287375,285,-0.117,2017-01-23
NEON.D01.HARV.DP1.00033,42.536911,-72.17265,359,-0.428,2017-01-23
NEON.D01.HOPB.DP1.20002,42.471786,-72.329627,203,-0.536,2017-01-23
NEON.D02.BLAN.DP1.00033,39.033698,-78.041788,162,-0.9,2017-01-23
NEON.D02.LEWI.DP1.20002,39.09564,-77.98322,152,-0.926,2017-01-23
NEON.D02.POSE.DP1.20002,38.89332,-78.14678,293,-0.606,2017-01-23
NEON.D02.SCBI.DP1.00033,38.892925,-78.139494,364,-0.64,2017-01-23
NEON.D02.SERC.DP1.00033,38.89008,-76.56001,30,-1.602,2017-01-23
NEON.D03.BARC.DP1.20002,29.676473,-82.009089,35,-1.09,2017-01-23
NEON.D03.DSNY.DP1.00033,28.12505,-81.43619,22,-1.085,2017-01-23
NEON.D03.FLNT.DP1.20002,31.185424,-84.437403,27,1.142,2017-01-23
NEON.D03.JERC.DP1.00033,31.194839,-84.468623,58,1.051,2017-01-23
NEON.D03.OSBS.DP1.00033,29.689282,-81.993431,56,-1.064,2017-01-23
NEON.D03.SUGG.DP1.20002,29.687054,-82.016171,28,-1.064,2017-01-23
NEON.D04.CUPE.DP1.20002,18.11352,-66.98676,164,-9999.0,2017-01-23
NEON.D04.GUAN.DP1.00033,17.96955,-66.8687,136,-9999.0,2017-01-23
NEON.D04.GUIL.DP1.20002,18.1741,-66.79851,564,-9999.0,2017-01-23
NEON.D04.LAJA.DP1.00033,18.021261,-67.076889,22,-9999.0,2017-01-23
NEON.D05.CRAM.DP1.20002,46.21111,-89.47825,518,0.23,2017-01-23
NEON.D05.LIRO.DP1.20002,45.998269,-89.704767,495,0.583,2017-01-23
NEON.D05.STEI.DP1.00033,45.50894,-89.58637,476,0.423,2017-01-23
NEON.D05.TREE.DP1.00033,45.49373,-89.58572,474,0.423,2017-01-23
NEON.D05.UNDE.DP1.00033,46.23391,-89.537254,529,0.243,2017-01-23
NEON.D06.KING.DP1.20002,39.10506,-96.60336,339,-0.157,2017-01-23
NEON.D06.KONA.DP1.00033,39.110446,-96.612935,443,-0.157,2017-01-23
NEON.D06.KONZ.DP1.00033,39.10077,-96.56309,415,-0.142,2017-01-23
NEON.D06.MCDI.DP1.20002,38.94428,-96.44197,376,-0.536,2017-01-23
NEON.D06.UKFS.DP1.00033,39.040431,-95.19215,330,-0.413,2017-01-23
NEON.D07.GRSM.DP1.00033,35.68896,-83.50195,589,-0.637,2017-01-23
NEON.D07.LECO.DP1.20002,35.69043,-83.50379,578,-0.637,2017-01-23
NEON.D07.MLBS.DP1.00033,37.378314,-80.524847,1177,-0.444,2017-01-23
NEON.D07.ORNL.DP1.00033,35.964128,-84.282588,351,0.64,2017-01-23
NEON.D07.WALK.DP1.20002,35.95947,-84.28041,274,0.597,2017-01-23
NEON.D08.BLWA.DP1.20002,32.541529,-87.798151,23,0.309,2017-01-23
NEON.D08.DELA.DP1.00033,32.541727,-87.803877,36,0.309,2017-01-23
NEON.D08.LENO.DP1.00033,31.85388,-88.16122,10,0.434,2017-01-23
NEON.D08.MAYF.DP1.20002,32.959657,-87.408128,93,-0.849,2017-01-23
NEON.D08.TALL.DP1.00033,32.95047,-87.393259,167,-0.849,2017-01-23
NEON.D08.TOMB.DP1.20002,31.853431,-88.158872,10,0.434,2017-01-23
NEON.D09.DCFS.DP1.00033,47.161647,-99.106556,574,1.883,2017-01-23
NEON.D09.NOGP.DP1.00033,46.76972,-100.91535,589,2.019,2017-01-23
NEON.D09.PRLA.DP1.20002,47.15909,-99.11388,563,1.877,2017-01-23
NEON.D09.PRPO.DP1.20002,47.12999,-99.250551,587,1.914,2017-01-23
NEON.D09.WOOD.DP1.00033,47.1282,-99.241334,585,1.914,2017-01-23
NEON.D10.ARIK.DP1.20002,39.758246,-102.447103,1188,0.263,2017-01-23
NEON.D10.CPER.DP1.00033,40.81553,-104.7456,1600,0.633,2017-01-23
NEON.D10.HQTW.DP1.00033,40.016704,-105.245612,1601,0.3,2017-01-23
NEON.D10.RMNP.DP1.00033,40.275903,-105.545955,2751,2.799,2017-01-23
NEON.D10.STER.DP1.00033,40.461894,-103.02929,1366,-0.207,2017-01-23
NEON.D11.BLUE.DP1.20002,34.444218,-96.624201,288,-0.106,2017-01-23
NEON.D11.CLBJ.DP1.00033,33.40123,-97.57,279,0.712,2017-01-23
NEON.D11.OAES.DP1.00033,35.41059,-99.05879,520,0.189,2017-01-23
NEON.D11.PRIN.DP1.20002,33.37859,-97.78226,255,0.59,2017-01-23
NEON.D12.BLDE.DP1.20002,44.95011,-110.58715,2035,1.126,2017-01-23
NEON.D12.YELL.DP1.00033,44.95348,-110.53914,2130,0.888,2017-01-23
NEON.D13.COMO.DP1.20002,40.03496,-105.54487,3036,2.321,2017-01-23
NEON.D13.MOAB.DP1.00033,38.24833,-109.38827,1803,0.48,2017-01-23
NEON.D13.NIWO.DP1.00033,40.05425,-105.58237,3493,2.443,2017-01-23
NEON.D13.WLOU.DP1.20002,39.891366,-105.915395,2920,1.854,2017-01-23
NEON.D14.JORN.DP1.00033,32.59068,-106.84254,1321,1.431,2017-01-23
NEON.D14.SRER.DP1.00033,31.91068,-110.83549,999,0.3,2017-01-23
NEON.D14.SYCA.DP1.20002,33.749057,-111.506903,644,0.648,2017-01-23
NEON.D15.ONAQ.DP1.00033,40.177599,-112.452452,1655,1.058,2017-01-23
NEON.D15.REDB.DP1.20002,40.783934,-111.797887,1696,1.187,2017-01-23
NEON.D16.ABBY.DP1.00033,45.76243,-122.33033,390,-0.463,2017-01-23
NEON.D16.MART.DP1.20002,45.791248,-121.931959,354,-0.568,2017-01-23
NEON.D16.MCRA.DP1.20002,44.259598,-122.165554,880,-0.254,2017-01-23
NEON.D16.WREF.DP1.00033,45.82049,-121.95191,368,-0.575,2017-01-23
NEON.D17.BIGC.DP1.20002,37.059719,-119.257549,1133,1.814,2017-01-23
NEON.D17.SJER.DP1.00033,37.10878,-119.73228,398,1.579,2017-01-23
NEON.D17.SOAP.DP1.00033,37.03337,-119.26219,1210,1.803,2017-01-23
NEON.D17.TEAK.DP1.00033,37.00583,-119.00602,2149,1.672,2017-01-23
NEON.D17.TECR.DP1.20002,36.955931,-119.027363,2053,1.726,2017-01-23
NEON.D18.BARR.DP1.00033,71.28241,-156.61936,7,-9999.0,2017-01-23
NEON.D18.OKSR.DP1.20002,68.669753,-149.143018,773,-9999.0,2017-01-23
NEON.D18.TOOK.DP1.20002,68.629562,-149.610509,715,-9999.0,2017-01-23
NEON.D18.TOOL.DP1.00033,68.66109,-149.37047,827,-9999.0,2017-01-23
NEON.D19.BONA.DP1.00033,65.15401,-147.50258,233,-9999.0,2017-01-23
NEON.D19.CARI.DP1.20002,65.15306,-147.50246,229,-9999.0,2017-01-23
NEON.D19.DEJU.DP1.00033,63.88112,-145.75136,504,-9999.0,2017-01-23
NEON.D19.HEAL.DP1.00033,63.87569,-149.21334,409,-9999.0,2017-01-23
NEON.D20.PUUM.DP1.00033,19.55309,-155.31731,1683,-9999.0,2017-01-23
nevcansnk3a,39.0099,-114.3095,3063,1.133,2017-01-23
nevcanspg1a,38.9253,-114.4082,1792,-0.555,2017-01-23
nevcanspg2a,38.8921,-114.3521,2203,-0.275,2017-01-23
nevcanspg3a,38.8898,-114.3314,2820,-0.128,2017-01-23
nevcanspg4a,38.9061,-114.3089,3360,-0.128,2017-01-23
ninemileprairie,40.86801886,-96.82208066,381,0.507,2017-01-23
nist,39.139,-77.2125,100,-0.726,2017-01-23
niwot3,40.03286358,-105.5469702,3050,2.321,2017-01-23
niwot5,40.03286358,-105.5469702,2993,2.321,2017-01-23
northattleboroma,41.98369,-71.31056,60,-1.141,2017-01-23
northinletsaltmarsh,33.3455,-79.1957,1,-0.649,2017-01-23
oakville,47.899334,-97.316139,268,1.583,2017-01-23
oregonMP,44.4523,-121.5574,1253,0.335,2017-01-23
oregonYP,44.32384,-121.605993,977,0.766,2017-01-23
oregonYPbud,44.3238,-121.606,977,0.766,2017-01-23
othshardwood,44.934805,-68.6655,41,0.836,2017-01-23
othssoftwood,44.934527,-68.664888,41,0.836,2017-01-23
pace,37.9229,-78.2739,100,-1.216,2017-01-23
parkschoolbuffalo,42.9637,-78.7834,205,-0.294,2017-01-23
piedmontalpasture2,33.8875,-85.6935,238,-0.844,2017-01-23
portal,31.9385,-109.0823,1330,0.919,2017-01-23
proctor,44.525,-72.866,403,-0.753,2017-01-23
readingma,42.5304,-71.1272,100,-0.837,2017-01-23
robinson,37.4671,-83.1576,483,0.542,2017-01-23
robinson2,37.4671,-83.1576,483,0.542,2017-01-23
rosemountcons,44.6946,-93.0578,283,0.905,2017-01-23
rosemountconv,44.691,-93.0576,283,0.905,2017-01-23
rosemountnprs,44.6781,-93.0723,274,0.892,2017-01-23
russellsage,32.456961,-91.974322,20,0.351,2017-01-23
sagehen,39.4315,-120.2398,1934,1.674,2017-01-23
sagehen2,39.4307,-120.2407,1937,1.674,2017-01-23
sagehen3,39.4311,-120.2405,1935,1.674,2017-01-23
sanford,42.726777,-84.464482,268,0.733,2017-01-23
santacruz1,36.9741,-122.0308,11,1.383,2017-01-23
santacruz2,36.9741,-122.0308,11,1.383,2017-01-23
santaluciapreserve1,36.5265,-121.8682,500,0.708,2017-01-23
santaluciapreserve2,36.5265,-121.8682,500,0.708,2017-01-23
segaarboretum10,35.16209,-111.73151,2170,1.133,2017-01-23
segaarboretum2,35.16209,-111.73151,2170,1.133,2017-01-23
segaarboretum3,35.16209,-111.73151,2170,1.133,2017-01-23
segaarboretum4,35.16214,-111.73153,2170,1.133,2017-01-23
segaarboretum6,35.16209,-111.73151,2170,1.133,2017-01-23
segaarboretum9,35.16222,-111.73158,2170,1.133,2017-01-23
segaarboretumforest,35.1613,-111.7359,2173,1.133,2017-01-23
segaarboretummeadow,35.1621,-111.7316,2157,1.133,2017-01-23
segablackpoint,35.6814,-111.4754,1566,1.108,2017-01-23
segabluechute,35.5876,-111.9716,1930,1.164,2017-01-23
segabluechute1,35.58759,-111.97115,1931,1.164,2017-01-23
segabluechute2,35.58759,-111.97115,1931,1.164,2017-01-23
segabluechute4,35.58759,-111.9716,1931,1.164,2017-01-23
segabluechute6,35.58759,-111.97115,1931,1.164,2017-01-23
segabluechute7,35.58759,-111.97115,1931,1.164,2017-01-23
segabluechute8,35.58759,-111.97115,1931,1.164,2017-01-23
segabradshaw,34.9109,-111.9285,1402,1.119,2017-01-23
segahartprairie,35.3536,-111.7324,2585,1.154,2017-01-23
segalcr,35.7231,-111.321,1275,1.145,2017-01-23
segalcr2,35.7069,-111.36,1495,1.121,2017-01-23
segalittlemountain,36.5865,-112.3634,2276,1.216,2017-01-23
segasoapcreek,36.751,-111.716,1233,1.253,2017-01-23
segawhitepockets,36.6081,-112.4082,2057,1.257,2017-01-23
sevilletagrass,34.360444,-106.700186,1600,1.733,2017-01-23
sevilletanewgrass,34.358,-106.6799,1603,1.788,2017-01-23
sevilletashrub,34.334956,-106.744469,1603,1.728,2017-01-23
sevMRME10L,34.3438,-106.7269,1604,1.692,2017-01-23
sevMRME11C,34.3438,-106.7268,1604,1.692,2017-01-23
sevMRME1S,34.3442,-106.7272,1604,1.692,2017-01-23
sevpjrm12,34.38615,-106.52621,1905,1.83,2017-01-23
sevpjrm13,34.38631,-106.52791,1914,1.83,2017-01-23
shalehillsczo,40.6658,-77.9041,310,-0.978,2017-01-23
shenandoah,38.6167,-78.35,1037,-1.057,2017-01-23
silverton,44.9986,-122.6948,347,-0.372,2017-01-23
siwetland,38.0369,-121.7546,-5,0.937,2017-01-23
slatefloodplain,38.9094,-107.0282,2725,1.856,2017-01-23
snodgrass1,38.92619636,-106.9714376,3023,1.735,2017-01-23
snodgrass2,38.92619636,-106.9714376,3023,1.735,2017-01-23
snodgrass3,38.92839978,-106.9781196,3141,1.735,2017-01-23
snodgrass4,38.92839978,-106.9781196,3141,1.735,2017-01-23
snodgrass5,38.92744789,-106.9785209,3152,1.735,2017-01-23
snodgrass6,38.92744789,-106.9785209,3152,1.735,2017-01-23
snodgrass7,38.93142134,-106.9852388,3363,1.78,2017-01-23
snodgrass8,38.93142134,-106.9852388,3363,1.78,2017-01-23
southerngreatplains,36.6058,-97.4888,314,-0.327,2017-01-23
springfieldma,42.135162,-72.585972,56,-0.707,2017-01-23
spruceA0EMI,47.5049,-93.4541,413,1.465,2017-01-23
spruceA0EMT,47.5049,-93.4541,418,1.465,2017-01-23
spruceA0P07,47.50493,-93.45314,413,1.465,2017-01-23
spruceA0P07SH,47.50493,-93.45314,413,1.465,2017-01-23
spruceA0P21,47.50625,-93.45275,413,1.465,2017-01-23
spruceA0P21SH,47.50625,-93.45275,413,1.465,2017-01-23
srg,31.7894,-110.8276,1281,0.056,2017-01-23
srm,31.8214,-110.8661,1116,0.294,2017-01-23
statenrice1,38.1235,-121.549,-5,1.24,2017-01-23
stjones,39.088222,-75.43725,2,-1.52,2017-01-23
sweetbriar,37.57341,-79.08482,242,-0.941,2017-01-23
sweetbriarclearcut,37.5753,-79.0872,242,-0.941,2017-01-23
sweetbriargrass,37.5605,-79.0884,240,-0.941,2017-01-23
sylvania,46.242,-89.348,540,0.22,2017-01-23
templefieldstation1,40.1667,-75.1894,105,-0.579,2017-01-23
tfforest,43.1086,-70.9505,23,-0.006,2017-01-23
tidmarshplymouth,41.9157,-70.5754,9,-1.135,2017-01-23
tonzi,38.43091667,-120.9658861,177,1.455,2017-01-23
townsenddemeadow,39.3917,-75.6281,11,-1.343,2017-01-23
tsubiology,36.1671,-86.8295,164,0.662,2017-01-23
tsubiology2,36.1171,-86.8295,100,0.488,2017-01-23
tuckerprairie,38.9491,-91.9952,274,-0.934,2017-01-23
twodafo,29.1658,-95.829,16,-0.641,2017-01-23
tworfaa,31.4777,-96.8882,167,0.605,2017-01-23
tworfpr,31.4802,-96.8826,162,0.429,2017-01-23
tworfta,31.4693,-96.8864,173,0.605,2017-01-23
twosfpr,30.6176,-97.2938,157,0.801,2017-01-23
ucnrsanzaborrego,33.2401,-116.3886,214,0.801,2017-01-23
ufona,27.3836,-81.950856,25,-1.674,2017-01-23
uiefmaize2,40.0628,-88.1961,224,0.011,2017-01-23
uiefmiscanthus2,40.0628,-88.1984,221,0.011,2017-01-23
uiefprairie2,40.0637,-88.1973,224,0.011,2017-01-23
uiefsorghum,40.0065,-88.2032,224,0.002,2017-01-23
uiefswitchgrass2,40.0637,-88.1973,224,0.011,2017-01-23
umichbiological,45.55984,-84.71382,230,-0.259,2017-01-23
umichbiological2,45.5625,-84.6976,240,-0.356,2017-01-23
unca,35.5951,-82.5515,650,-1.288,2017-01-23
usgseros,43.7343,-96.6234,448,1.017,2017-01-23
usmpj,34.43845,-106.2543606,2126,0.926,2017-01-23
usof5,35.7297,-90.0406,70,-0.18,2017-01-23
usof6,35.7333,-90.0403,70,-0.18,2017-01-23
uwmfieldsta,43.38709,-88.0229,265,0.191,2017-01-23
vaira,38.41328056,-120.9506361,129,1.455,2017-01-23
vallesburnedconifer,35.8884,-106.5321,3043,0.85,2017-01-23
vallesmixedconifer,35.9192,-106.6142,2752,0.881,2017-01-23
vallesponderosapine,35.864,-106.5964,2501,0.862,2017-01-23
waahila,21.3017,-157.8152,55,-9999.0,2017-01-23
warrenwilson,35.6069,-82.4421,2198,-1.519,2017-01-23
willamettepoplar,44.1368,-123.1823,112,-0.315,2017-01-23
willowcreek,45.805986,-90.07912,521,0.574,2017-01-23
windriver,45.8212833,-121.9520833,371,-0.575,2017-01-23
windriverunderstory,45.8212833,-121.9520833,371,-0.575,2017-01-23
wolfesneckfarm,43.8305,-70.0715,16,0.199,2017-01-23
worcester,42.2697,-71.8428,185,-0.395,2017-01-23
alligatorriver,35.7879,-75.9038,1,-0.298,2017-01-30
arbutuslake,43.98207,-74.23322,535,1.258,2017-01-30
arbutuslakeinlet,43.99336,-74.24527,527,1.258,2017-01-30
archboldavir,27.176064,-81.21958,8,-1.471,2017-01-30
archboldavirx,27.166627,-81.219828,8,-1.471,2017-01-30
archboldbahia,27.1656,-81.216112,8,-1.471,2017-01-30
archboldpnot,27.187948,-81.200345,9,-1.471,2017-01-30
archboldpnotx,27.180677,-81.20068,9,-1.471,2017-01-30
arkansascornsoy,34.416,-91.6723,61,0.856,2017-01-30
arsbrooks10,41.9749,-93.6905,312,0.717,2017-01-30
arsbrooks11,41.9744,-93.6937,313,0.717,2017-01-30
arscolesnorth,42.4884,-93.5225,356,0.853,2017-01-30
arscolessouth,42.4816,-93.5235,352,0.853,2017-01-30
arsgacp1,31.5109,-83.6179,96,1.705,2017-01-30
arsgacp3,31.7563,-83.7516,139,1.847,2017-01-30
arsgacp4,31.7093,-83.7287,127,1.886,2017-01-30
arsgreatbasinltar098,43.1675,-116.7132,1426,1.29,2017-01-30
arsgreatbasinltar117,43.1432,-116.7357,1625,0.732,2017-01-30
arsgreatbasinltar177,43.0645,-116.7484,2114,0.251,2017-01-30
arsltarmdcr,39.0587,-75.8513,17,-1.347,2017-01-30
arsltarmdcrnatw,39.0575,-75.7531,16,-1.354,2017-01-30
arsltarmdcrprcw,39.0667,-75.7609,17,-1.354,2017-01-30
arsltarmdcrresw,39.0549,-75.7532,16,-1.354,2017-01-30
arsltarucbec1,40.7537,-78.0057,400,-0.354,2017-01-30
arsltarucbec2,40.7558,-77.9999,396,-0.354,2017-01-30
arsmnswanlake1,45.684508,-95.799703,370,1.001,2017-01-30
arsmorris1,45.6167,-96.1269,341,1.049,2017-01-30
arsmorris2,45.627,-96.127,338,1.049,2017-01-30
arsmorris3,45.6091,-96.1265,342,1.049,2017-01-30
arsope3ltar,39.0309,-76.8442,41,-0.713,2017-01-30
ashburnham,42.6029,-71.926,292,-0.251,2017-01-30
asuhighlands,36.2076,-81.7032,1016,-0.078,2017-01-30
austincary,29.738,-82.2188,44,-0.971,2017-01-30
barrow,71.28007453,-156.6091492,5,-9999.0,2017-01-30
bartlettir,44.0646,-71.2881,268,-0.025,2017-01-30
bigtraillake,64.9194,-147.822,190,-9999.0,2017-01-30
bitterbrush001,48.154,-119.9456,667,-0.485,2017-01-30
blackrockforest,41.3974,-74.0239,427,0.404,2017-01-30
bnzblackspruce,64.6963,-148.3235,102,-9999.0,2017-01-30
bnzrichfen,64.70134,-148.31195,97,-9999.0,2017-01-30
bnzthermokarstbog,64.6955,-148.3208,104,-9999.0,2017-01-30
boglakepeatland,47.5051,-93.4893,416,1.734,2017-01-30
bostoncommon,42.355912,-71.064145,10,-0.1,2017-01-30
bostonu,42.35041,-71.10438,10,-0.089,2017-01-30
bouldinalfalfa,38.0985,-121.4993,-5,1.263,2017-01-30
bouldincorn,38.109,-121.535,-5,1.256,2017-01-30
bozeman,45.783056,-110.777778,2332,-0.754,2017-01-30
brackishimpoundment,33.2015,-79.2973,1,-0.13,2017-01-30
bullshoals,36.562833,-93.06663,260,-1.055,2017-01-30
burnssagebrush,43.4712,-119.6909,1398,0.993,2017-01-30
butte,45.95304,-112.47964,1682,-0.001,2017-01-30
butterice,39.5793,-121.858,33,0.8,2017-01-30
cafboydnorthltar01,46.755104,-117.126052,795,-0.502,2017-01-30
cafboydsouthltar01,46.751809,-117.128502,795,-0.502,2017-01-30
cafcookeastltar01,46.78152,-117.0821,794,-0.084,2017-01-30
cafcookwestltar01,46.784037,-117.09083,807,-0.084,2017-01-30
caryinstitute,41.7839,-73.7341,127,1.078,2017-01-30
centralredwoods1,38.632272,-123.301511,200,1.08,2017-01-30
centralredwoods2,38.632272,-123.301511,200,1.08,2017-01-30
cperagm,40.8402,-104.7672,1644,0.957,2017-01-30
cperheavy,40.8153,-104.7386,1652,0.918,2017-01-30
cpertgm,40.833,-104.76,1644,1.006,2017-01-30
cperuvb,40.8055764,-104.7558542,1641,1.006,2017-01-30
cuny,40.8162,-73.9507,42,0.996,2017-01-30
doverdesaltmarsh,39.0888,-75.4368,0,-1.345,2017-01-30
downerwoods,43.07938,-87.88076,213,0.212,2017-01-30
dukehw,35.973583,-79.100371,400,-1.005,2017-01-30
ecb1,41.5348,-84.8068,275,0.248,2017-01-30
ecb2,41.5321,-84.808,275,0.248,2017-01-30
ecb4,41.1796,-83.0604,240,0.083,2017-01-30
elverde,18.320654,-65.8199,312,-9999.0,2017-01-30
flagstaff,35.17961521,-111.6049032,6983,1.425,2017-01-30
flagstaff2,35.179225,-111.604506,6983,1.425,2017-01-30
flagstaffchimneysprings,35.257296,-111.678542,2250,1.463,2017-01-30
forbes,39.232,-121.2972,360,1.363,2017-01-30
fortpaynealpasture1,34.3824,-85.6428,405,0.432,2017-01-30
fortpaynealpasture2,34.3824,-85.6447,403,0.432,2017-01-30
gcesapelo,31.4440444,-81.283528,0,0.732,2017-01-30
gilberttract,38.0015,-121.6691,6,1.069,2017-01-30
glees,41.3644,-106.2394,3150,1.46,2017-01-30
glennorganicrice,39.6805,-122.0026,2,0.795,2017-01-30
glennrice,39.5944,-122.0253,36,0.675,2017-01-30
goodnow,43.96018,-74.20994,820,1.219,2017-01-30
goodwater,39.22848,-92.11936,264,-0.92,2017-01-30
goodwaterbau,39.23115,-92.15216,274,-0.934,2017-01-30
grandteton,43.915017,-110.578036,2054,1.082,2017-01-30
grca1pj,36.0241,-112.2211,1978,1.785,2017-01-30
greenridge1,39.6905,-78.4067,285,0.161,2017-01-30
harvard,42.5378,-72.1715,340,-0.002,2017-01-30
harvardbarn,42.53532,-72.1899,350,-0.028,2017-01-30
harvardbarn2,42.53532,-72.1899,350,-0.028,2017-01-30
harvardems2,42.5378,-72.1715,340,-0.002,2017-01-30
harvardfarmnorth,42.520465,-72.182242,355,-0.028,2017-01-30
harvardfarmsouth,42.522466,-72.182339,355,-0.028,2017-01-30
harvardgarden,42.5291,-72.1863,335,-0.028,2017-01-30
harvardhemlock,42.539,-72.18,355,-0.028,2017-01-30
harvardhemlock2,42.539407,-72.177976,355,-0.002,2017-01-30
harvardlph,42.542,-72.185,380,-0.028,2017-01-30
hawbeckereddy,40.6608,-77.848849,310,-0.696,2017-01-30
hobcawclearcutlongleaf,33.3486,-79.232,4,-0.067,2017-01-30
hobcawmaturelongleaf,33.3242,-79.2439,8,-0.067,2017-01-30
homesteadsprings,37.2009,-92.9937,452,-1.281,2017-01-30
howland1,45.2041,-68.7403,80,1.28,2017-01-30
howland2,45.2128,-68.7418,79,1.28,2017-01-30
hubbardbrook,43.9438,-71.701,253,0.039,2017-01-30
humnokericea,34.585192,-91.751684,61,0.554,2017-01-30
humnokericec,34.588853,-91.7516729,70,0.554,2017-01-30
huyckpreserveny,42.5266,-74.1587,478,0.485,2017-01-30
hwmo1,20.0212,-155.7331,585,-9999.0,2017-01-30
hwmo2,19.9766,-155.8298,12,-9999.0,2017-01-30
hwmo5,20.1117,-155.8151,635,-9999.0,2017-01-30
ibp,32.589,-106.847,1325,1.352,2017-01-30
imcrkfen,68.60583,-149.31101,900,-9999.0,2017-01-30
imcrkridge0,68.60681,-149.2958,951,-9999.0,2017-01-30
imcrkridge1,68.60681,-149.2958,951,-9999.0,2017-01-30
imcrktussock,68.60633,-149.30408,918,-9999.0,2017-01-30
jasperridge,37.402028,-122.22104,197,0.981,2017-01-30
jerbajada,32.57992,-106.633793,1402,1.339,2017-01-30
jergrassland,32.5833,-106.8333,1331,1.352,2017-01-30
jernort,32.619,-106.788,1328,1.293,2017-01-30
jernovel,32.6335,-106.8334,1324,1.322,2017-01-30
jernwern,32.6271,-106.7387,1325,1.34,2017-01-30
jersand,32.515,-106.798,1363,1.277,2017-01-30
jershrubland,32.6502,-106.8334,1328,1.335,2017-01-30
junipersavannah,34.4254,-105.8615,1931,1.005,2017-01-30
kamuela,20.015008,-155.661326,850,-9999.0,2017-01-30
kamuela2,20.014959,-155.661139,830,-9999.0,2017-01-30
kansas,39.0561,-95.1907,333,-0.638,2017-01-30
kelloggcorn,42.437536,-85.3225472,288,0.5,2017-01-30
kempnrs,45.83992,-89.67755,539,0.968,2017-01-30
kendall,31.73652,-109.94185,1529,0.403,2017-01-30
konza,39.0824,-96.5603,443,-0.001,2017-01-30
laupahoehoe,19.9322,-155.2912,1145,-9999.0,2017-01-30
ldeocam,41.0039,-73.9053,121,0.644,2017-01-30
lostcreek,46.0827,-89.9792,480,0.921,2017-01-30
luckyhills,31.743896,-110.052023,1366,0.328,2017-01-30
macleish,42.4484,-72.6804,251,0.454,2017-01-30
macordway,44.8106,-93.0272,264,1.028,2017-01-30
mandanh5,46.775423,-100.95109,593,2.263,2017-01-30
mandani2,46.7614,-100.9257,590,2.24,2017-01-30
manilacotton,35.8872,-90.1371,73,-0.191,2017-01-30
marena,36.06434,-97.21271,327,-0.267,2017-01-30
mead1,41.1651,-96.4766,361,0.884,2017-01-30
mead2,41.1649,-96.4701,362,0.884,2017-01-30
mead3,41.1797,-96.4397,363,0.918,2017-01-30
meadpasture,41.1447,-96.4616,356,1.015,2017-01-30
meadpasturese,41.1447,-96.4616,356,1.015,2017-01-30
meadpasturesw,41.1447,-96.4616,356,1.015,2017-01-30
missouriozarks,38.7441,-92.2,219,-1.602,2017-01-30
morganmonroe,39.3231,-86.4131,275,-0.12,2017-01-30
morganmonroe2,39.3231,-86.4131,275,-0.12,2017-01-30
nahuku,19.415187,-155.238383,1202,-9999.0,2017-01-30
nationalelkrefuge,43.488931,-110.737824,1899,1.08,2017-01-30
ncssm,36.018446,-78.92075,175,-1.202,2017-01-30
NEON.D01.BART.DP1.00033,44.063869,-71.287375,285,-0.025,2017-01-30
NEON.D01.HARV.DP1.00033,42.536911,-72.17265,359,-0.002,2017-01-30
NEON.D01.HOPB.DP1.20002,42.471786,-72.329627,203,-0.106,2017-01-30
NEON.D02.BLAN.DP1.00033,39.033698,-78.041788,162,-0.123,2017-01-30
NEON.D02.LEWI.DP1.20002,39.09564,-77.98322,152,-0.199,2017-01-30
NEON.D02.POSE.DP1.20002,38.89332,-78.14678,293,0.265,2017-01-30
NEON.D02.SCBI.DP1.00033,38.892925,-78.139494,364,0.189,2017-01-30
NEON.D02.SERC.DP1.00033,38.89008,-76.56001,30,-1.358,2017-01-30
NEON.D03.BARC.DP1.20002,29.676473,-82.009089,35,-1.313,2017-01-30
NEON.D03.DSNY.DP1.00033,28.12505,-81.43619,22,-0.933,2017-01-30
NEON.D03.FLNT.DP1.20002,31.185424,-84.437403,27,1.698,2017-01-30
NEON.D03.JERC.DP1.00033,31.194839,-84.468623,58,1.644,2017-01-30
NEON.D03.OSBS.DP1.00033,29.689282,-81.993431,56,-1.187,2017-01-30
NEON.D03.SUGG.DP1.20002,29.687054,-82.016171,28,-1.187,2017-01-30
NEON.D04.CUPE.DP1.20002,18.11352,-66.98676,164,-9999.0,2017-01-30
NEON.D04.GUAN.DP1.00033,17.96955,-66.8687,136,-9999.0,2017-01-30
NEON.D04.GUIL.DP1.20002,18.1741,-66.79851,564,-9999.0,2017-01-30
NEON.D04.LAJA.DP1.00033,18.021261,-67.076889,22,-9999.0,2017-01-30
NEON.D05.CRAM.DP1.20002,46.21111,-89.47825,518,0.668,2017-01-30
NEON.D05.LIRO.DP1.20002,45.998269,-89.704767,495,0.879,2017-01-30
NEON.D05.STEI.DP1.00033,45.50894,-89.58637,476,0.639,2017-01-30
NEON.D05.TREE.DP1.00033,45.49373,-89.58572,474,0.639,2017-01-30
NEON.D05.UNDE.DP1.00033,46.23391,-89.537254,529,0.686,2017-01-30
NEON.D06.KING.DP1.20002,39.10506,-96.60336,339,-0.004,2017-01-30
NEON.D06.KONA.DP1.00033,39.110446,-96.612935,443,-0.004,2017-01-30
NEON.D06.KONZ.DP1.00033,39.10077,-96.56309,415,-0.001,2017-01-30
NEON.D06.MCDI.DP1.20002,38.94428,-96.44197,376,-0.335,2017-01-30
NEON.D06.UKFS.DP1.00033,39.040431,-95.19215,330,-0.638,2017-01-30
NEON.D07.GRSM.DP1.00033,35.68896,-83.50195,589,0.046,2017-01-30
NEON.D07.LECO.DP1.20002,35.69043,-83.50379,578,0.046,2017-01-30
NEON.D07.MLBS.DP1.00033,37.378314,-80.524847,1177,0.388,2017-01-30
NEON.D07.ORNL.DP1.00033,35.964128,-84.282588,351,0.928,2017-01-30
NEON.D07.WALK.DP1.20002,35.95947,-84.28041,274,0.916,2017-01-30
NEON.D08.BLWA.DP1.20002,32.541529,-87.798151,23,0.867,2017-01-30
NEON.D08.DELA.DP1.00033,32.541727,-87.803877,36,0.867,2017-01-30
NEON.D08.LENO.DP1.00033,31.85388,-88.16122,10,0.728,2017-01-30
NEON.D08.MAYF.DP1.20002,32.959657,-87.408128,93,-0.041,2017-01-30
NEON.D08.TALL.DP1.00033,32.95047,-87.393259,167,-0.041,2017-01-30
NEON.D08.TOMB.DP1.20002,31.853431,-88.158872,10,0.728,2017-01-30
NEON.D09.DCFS.DP1.00033,47.161647,-99.106556,574,2.122,2017-01-30
NEON.D09.NOGP.DP1.00033,46.76972,-100.91535,589,2.24,2017-01-30
NEON.D09.PRLA.DP1.20002,47.15909,-99.11388,563,2.126,2017-01-30
NEON.D09.PRPO.DP1.20002,47.12999,-99.250551,587,2.146,2017-01-30
NEON.D09.WOOD.DP1.00033,47.1282,-99.241334,585,2.146,2017-01-30
NEON.D10.ARIK.DP1.20002,39.758246,-102.447103,1188,0.459,2017-01-30
NEON.D10.CPER.DP1.00033,40.81553,-104.7456,1600,1.006,2017-01-30
NEON.D10.HQTW.DP1.00033,40.016704,-105.245612,1601,0.48,2017-01-30
NEON.D10.RMNP.DP1.00033,40.275903,-105.545955,2751,2.806,2017-01-30
NEON.D10.STER.DP1.00033,40.461894,-103.02929,1366,0.073,2017-01-30
NEON.D11.BLUE.DP1.20002,34.444218,-96.624201,288,-0.137,2017-01-30
NEON.D11.CLBJ.DP1.00033,33.40123,-97.57,279,0.378,2017-01-30
NEON.D11.OAES.DP1.00033,35.41059,-99.05879,520,0.191,2017-01-30
NEON.D11.PRIN.DP1.20002,33.37859,-97.78226,255,0.297,2017-01-30
NEON.D12.BLDE.DP1.20002,44.95011,-110.58715,2035,0.39,2017-01-30
NEON.D12.YELL.DP1.00033,44.95348,-110.53914,2130,0.292,2017-01-30
NEON.D13.COMO.DP1.20002,40.03496,-105.54487,3036,2.338,2017-01-30
NEON.D13.MOAB.DP1.00033,38.24833,-109.38827,1803,0.925,2017-01-30
NEON.D13.NIWO.DP1.00033,40.05425,-105.58237,3493,2.484,2017-01-30
NEON.D13.WLOU.DP1.20002,39.891366,-105.915395,2920,2.168,2017-01-30
NEON.D14.JORN.DP1.00033,32.59068,-106.84254,1321,1.352,2017-01-30
NEON.D14.SRER.DP1.00033,31.91068,-110.83549,999,0.415,2017-01-30
NEON.D14.SYCA.DP1.20002,33.749057,-111.506903,644,0.814,2017-01-30
NEON.D15.ONAQ.DP1.00033,40.177599,-112.452452,1655,1.226,2017-01-30
NEON.D15.REDB.DP1.20002,40.783934,-111.797887,1696,1.476,2017-01-30
NEON.D16.ABBY.DP1.00033,45.76243,-122.33033,390,-0.475,2017-01-30
NEON.D16.MART.DP1.20002,45.791248,-121.931959,354,-0.584,2017-01-30
NEON.D16.MCRA.DP1.20002,44.259598,-122.165554,880,-0.206,2017-01-30
NEON.D16.WREF.DP1.00033,45.82049,-121.95191,368,-0.593,2017-01-30
NEON.D17.BIGC.DP1.20002,37.059719,-119.257549,1133,1.94,2017-01-30
NEON.D17.SJER.DP1.00033,37.10878,-119.73228,398,1.704,2017-01-30
NEON.D17.SOAP.DP1.00033,37.03337,-119.26219,1210,1.947,2017-01-30
NEON.D17.TEAK.DP1.00033,37.00583,-119.00602,2149,1.756,2017-01-30
NEON.D17.TECR.DP1.20002,36.955931,-119.027363,2053,1.841,2017-01-30
NEON.D18.BARR.DP1.00033,71.28241,-156.61936,7,-9999.0,2017-01-30
NEON.D18.OKSR.DP1.20002,68.669753,-149.143018,773,-9999.0,2017-01-30
NEON.D18.TOOK.DP1.20002,68.629562,-149.610509,715,-9999.0,2017-01-30
NEON.D18.TOOL.DP1.00033,68.66109,-149.37047,827,-9999.0,2017-01-30
NEON.D19.BONA.DP1.00033,65.15401,-147.50258,233,-9999.0,2017-01-30
NEON.D19.CARI.DP1.20002,65.15306,-147.50246,229,-9999.0,2017-01-30
NEON.D19.DEJU.DP1.00033,63.88112,-145.75136,504,-9999.0,2017-01-30
NEON.D19.HEAL.DP1.00033,63.87569,-149.21334,409,-9999.0,2017-01-30
NEON.D20.PUUM.DP1.00033,19.55309,-155.31731,1683,-9999.0,2017-01-30
nevcansnk3a,39.0099,-114.3095,3063,1.427,2017-01-30
nevcanspg1a,38.9253,-114.4082,1792,-0.716,2017-01-30
nevcanspg2a,38.8921,-114.3521,2203,-0.418,2017-01-30
nevcanspg3a,38.8898,-114.3314,2820,-0.211,2017-01-30
nevcanspg4a,38.9061,-114.3089,3360,-0.211,2017-01-30
ninemileprairie,40.86801886,-96.82208066,381,0.805,2017-01-30
nist,39.139,-77.2125,100,-0.351,2017-01-30
niwot3,40.03286358,-105.5469702,3050,2.338,2017-01-30
niwot5,40.03286358,-105.5469702,2993,2.338,2017-01-30
northattleboroma,41.98369,-71.31056,60,-0.458,2017-01-30
northinletsaltmarsh,33.3455,-79.1957,1,-0.099,2017-01-30
oakville,47.899334,-97.316139,268,1.941,2017-01-30
oregonMP,44.4523,-121.5574,1253,0.287,2017-01-30
oregonYP,44.32384,-121.605993,977,0.686,2017-01-30
oregonYPbud,44.3238,-121.606,977,0.686,2017-01-30
othshardwood,44.934805,-68.6655,41,1.407,2017-01-30
othssoftwood,44.934527,-68.664888,41,1.407,2017-01-30
pace,37.9229,-78.2739,100,-0.651,2017-01-30
parkschoolbuffalo,42.9637,-78.7834,205,-0.637,2017-01-30
piedmontalpasture2,33.8875,-85.6935,238,0.221,2017-01-30
portal,31.9385,-109.0823,1330,0.954,2017-01-30
proctor,44.525,-72.866,403,-0.484,2017-01-30
readingma,42.5304,-71.1272,100,-0.209,2017-01-30
robinson,37.4671,-83.1576,483,1.037,2017-01-30
robinson2,37.4671,-83.1576,483,1.037,2017-01-30
rosemountcons,44.6946,-93.0578,283,1.132,2017-01-30
rosemountconv,44.691,-93.0576,283,1.132,2017-01-30
rosemountnprs,44.6781,-93.0723,274,1.107,2017-01-30
russellsage,32.456961,-91.974322,20,0.403,2017-01-30
sagehen,39.4315,-120.2398,1934,1.601,2017-01-30
sagehen2,39.4307,-120.2407,1937,1.601,2017-01-30
sagehen3,39.4311,-120.2405,1935,1.601,2017-01-30
sanford,42.726777,-84.464482,268,0.653,2017-01-30
santacruz1,36.9741,-122.0308,11,1.39,2017-01-30
santacruz2,36.9741,-122.0308,11,1.39,2017-01-30
santaluciapreserve1,36.5265,-121.8682,500,0.8,2017-01-30
santaluciapreserve2,36.5265,-121.8682,500,0.8,2017-01-30
segaarboretum10,35.16209,-111.73151,2170,1.502,2017-01-30
segaarboretum2,35.16209,-111.73151,2170,1.502,2017-01-30
segaarboretum3,35.16209,-111.73151,2170,1.502,2017-01-30
segaarboretum4,35.16214,-111.73153,2170,1.502,2017-01-30
segaarboretum6,35.16209,-111.73151,2170,1.502,2017-01-30
segaarboretum9,35.16222,-111.73158,2170,1.502,2017-01-30
segaarboretumforest,35.1613,-111.7359,2173,1.502,2017-01-30
