site,lat,lon,elev,values,date
alligatorriver,35.7879,-75.9038,1,-1.369,2011-01-03
arbutuslake,43.98207,-74.23322,535,-0.624,2011-01-03
arbutuslakeinlet,43.99336,-74.24527,527,-0.624,2011-01-03
archboldavir,27.176064,-81.21958,8,-1.071,2011-01-03
archboldavirx,27.166627,-81.219828,8,-1.071,2011-01-03
archboldbahia,27.1656,-81.216112,8,-1.071,2011-01-03
archboldpnot,27.187948,-81.200345,9,-1.071,2011-01-03
archboldpnotx,27.180677,-81.20068,9,-1.071,2011-01-03
arkansascornsoy,34.416,-91.6723,61,-1.019,2011-01-03
arsbrooks10,41.9749,-93.6905,312,-0.632,2011-01-03
arsbrooks11,41.9744,-93.6937,313,-0.632,2011-01-03
arscolesnorth,42.4884,-93.5225,356,-0.371,2011-01-03
arscolessouth,42.4816,-93.5235,352,-0.371,2011-01-03
arsgacp1,31.5109,-83.6179,96,-0.687,2011-01-03
arsgacp3,31.7563,-83.7516,139,-1.014,2011-01-03
arsgacp4,31.7093,-83.7287,127,-0.97,2011-01-03
arsgreatbasinltar098,43.1675,-116.7132,1426,0.798,2011-01-03
arsgreatbasinltar117,43.1432,-116.7357,1625,0.758,2011-01-03
arsgreatbasinltar177,43.0645,-116.7484,2114,0.769,2011-01-03
arsltarmdcr,39.0587,-75.8513,17,-0.681,2011-01-03
arsltarmdcrnatw,39.0575,-75.7531,16,-0.718,2011-01-03
arsltarmdcrprcw,39.0667,-75.7609,17,-0.718,2011-01-03
arsltarmdcrresw,39.0549,-75.7532,16,-0.718,2011-01-03
arsltarucbec1,40.7537,-78.0057,400,0.119,2011-01-03
arsltarucbec2,40.7558,-77.9999,396,0.119,2011-01-03
arsmnswanlake1,45.684508,-95.799703,370,0.984,2011-01-03
arsmorris1,45.6167,-96.1269,341,0.869,2011-01-03
arsmorris2,45.627,-96.127,338,0.869,2011-01-03
arsmorris3,45.6091,-96.1265,342,0.869,2011-01-03
arsope3ltar,39.0309,-76.8442,41,-0.87,2011-01-03
ashburnham,42.6029,-71.926,292,-0.107,2011-01-03
asuhighlands,36.2076,-81.7032,1016,-0.605,2011-01-03
austincary,29.738,-82.2188,44,-1.865,2011-01-03
barrow,71.28007453,-156.6091492,5,-9999.0,2011-01-03
bartlettir,44.0646,-71.2881,268,0.722,2011-01-03
bigtraillake,64.9194,-147.822,190,-9999.0,2011-01-03
bitterbrush001,48.154,-119.9456,667,0.357,2011-01-03
blackrockforest,41.3974,-74.0239,427,-0.365,2011-01-03
bnzblackspruce,64.6963,-148.3235,102,-9999.0,2011-01-03
bnzrichfen,64.70134,-148.31195,97,-9999.0,2011-01-03
bnzthermokarstbog,64.6955,-148.3208,104,-9999.0,2011-01-03
boglakepeatland,47.5051,-93.4893,416,0.819,2011-01-03
bostoncommon,42.355912,-71.064145,10,-0.735,2011-01-03
bostonu,42.35041,-71.10438,10,-0.6,2011-01-03
bouldinalfalfa,38.0985,-121.4993,-5,1.306,2011-01-03
bouldincorn,38.109,-121.535,-5,1.283,2011-01-03
bozeman,45.783056,-110.777778,2332,1.194,2011-01-03
brackishimpoundment,33.2015,-79.2973,1,-1.289,2011-01-03
bullshoals,36.562833,-93.06663,260,-1.895,2011-01-03
burnssagebrush,43.4712,-119.6909,1398,0.929,2011-01-03
butte,45.95304,-112.47964,1682,0.604,2011-01-03
butterice,39.5793,-121.858,33,1.13,2011-01-03
cafboydnorthltar01,46.755104,-117.126052,795,0.659,2011-01-03
cafboydsouthltar01,46.751809,-117.128502,795,0.659,2011-01-03
cafcookeastltar01,46.78152,-117.0821,794,0.638,2011-01-03
cafcookwestltar01,46.784037,-117.09083,807,0.638,2011-01-03
caryinstitute,41.7839,-73.7341,127,-0.466,2011-01-03
centralredwoods1,38.632272,-123.301511,200,1.042,2011-01-03
centralredwoods2,38.632272,-123.301511,200,1.042,2011-01-03
cperagm,40.8402,-104.7672,1644,0.907,2011-01-03
cperheavy,40.8153,-104.7386,1652,0.819,2011-01-03
cpertgm,40.833,-104.76,1644,0.748,2011-01-03
cperuvb,40.8055764,-104.7558542,1641,0.748,2011-01-03
cuny,40.8162,-73.9507,42,-0.659,2011-01-03
doverdesaltmarsh,39.0888,-75.4368,0,-0.917,2011-01-03
downerwoods,43.07938,-87.88076,213,-0.793,2011-01-03
dukehw,35.973583,-79.100371,400,-1.09,2011-01-03
ecb1,41.5348,-84.8068,275,-0.78,2011-01-03
ecb2,41.5321,-84.808,275,-0.78,2011-01-03
ecb4,41.1796,-83.0604,240,-0.438,2011-01-03
elverde,18.320654,-65.8199,312,-9999.0,2011-01-03
flagstaff,35.17961521,-111.6049032,6983,0.563,2011-01-03
flagstaff2,35.179225,-111.604506,6983,0.563,2011-01-03
flagstaffchimneysprings,35.257296,-111.678542,2250,0.507,2011-01-03
forbes,39.232,-121.2972,360,1.553,2011-01-03
fortpaynealpasture1,34.3824,-85.6428,405,-0.251,2011-01-03
fortpaynealpasture2,34.3824,-85.6447,403,-0.251,2011-01-03
gcesapelo,31.4440444,-81.283528,0,-1.147,2011-01-03
gilberttract,38.0015,-121.6691,6,1.053,2011-01-03
glees,41.3644,-106.2394,3150,2.23,2011-01-03
glennorganicrice,39.6805,-122.0026,2,0.505,2011-01-03
glennrice,39.5944,-122.0253,36,0.698,2011-01-03
goodnow,43.96018,-74.20994,820,-0.578,2011-01-03
goodwater,39.22848,-92.11936,264,-1.138,2011-01-03
goodwaterbau,39.23115,-92.15216,274,-1.1,2011-01-03
grandteton,43.915017,-110.578036,2054,1.394,2011-01-03
grca1pj,36.0241,-112.2211,1978,0.373,2011-01-03
greenridge1,39.6905,-78.4067,285,-0.385,2011-01-03
harvard,42.5378,-72.1715,340,-0.232,2011-01-03
harvardbarn,42.53532,-72.1899,350,-0.248,2011-01-03
harvardbarn2,42.53532,-72.1899,350,-0.248,2011-01-03
harvardems2,42.5378,-72.1715,340,-0.232,2011-01-03
harvardfarmnorth,42.520465,-72.182242,355,-0.248,2011-01-03
harvardfarmsouth,42.522466,-72.182339,355,-0.248,2011-01-03
harvardgarden,42.5291,-72.1863,335,-0.248,2011-01-03
harvardhemlock,42.539,-72.18,355,-0.248,2011-01-03
harvardhemlock2,42.539407,-72.177976,355,-0.232,2011-01-03
harvardlph,42.542,-72.185,380,-0.248,2011-01-03
hawbeckereddy,40.6608,-77.848849,310,-0.198,2011-01-03
hobcawclearcutlongleaf,33.3486,-79.232,4,-1.207,2011-01-03
hobcawmaturelongleaf,33.3242,-79.2439,8,-1.207,2011-01-03
homesteadsprings,37.2009,-92.9937,452,-0.235,2011-01-03
howland1,45.2041,-68.7403,80,1.147,2011-01-03
howland2,45.2128,-68.7418,79,1.147,2011-01-03
hubbardbrook,43.9438,-71.701,253,0.655,2011-01-03
humnokericea,34.585192,-91.751684,61,-0.626,2011-01-03
humnokericec,34.588853,-91.7516729,70,-0.626,2011-01-03
huyckpreserveny,42.5266,-74.1587,478,0.256,2011-01-03
hwmo1,20.0212,-155.7331,585,-9999.0,2011-01-03
hwmo2,19.9766,-155.8298,12,-9999.0,2011-01-03
hwmo5,20.1117,-155.8151,635,-9999.0,2011-01-03
ibp,32.589,-106.847,1325,-2.731,2011-01-03
imcrkfen,68.60583,-149.31101,900,-9999.0,2011-01-03
imcrkridge0,68.60681,-149.2958,951,-9999.0,2011-01-03
imcrkridge1,68.60681,-149.2958,951,-9999.0,2011-01-03
imcrktussock,68.60633,-149.30408,918,-9999.0,2011-01-03
jasperridge,37.402028,-122.22104,197,0.96,2011-01-03
jerbajada,32.57992,-106.633793,1402,-2.253,2011-01-03
jergrassland,32.5833,-106.8333,1331,-2.731,2011-01-03
jernort,32.619,-106.788,1328,-2.652,2011-01-03
jernovel,32.6335,-106.8334,1324,-2.743,2011-01-03
jernwern,32.6271,-106.7387,1325,-2.478,2011-01-03
jersand,32.515,-106.798,1363,-3.0,2011-01-03
jershrubland,32.6502,-106.8334,1328,-2.797,2011-01-03
junipersavannah,34.4254,-105.8615,1931,-0.818,2011-01-03
kamuela,20.015008,-155.661326,850,-9999.0,2011-01-03
kamuela2,20.014959,-155.661139,830,-9999.0,2011-01-03
kansas,39.0561,-95.1907,333,-0.772,2011-01-03
kelloggcorn,42.437536,-85.3225472,288,-1.51,2011-01-03
kempnrs,45.83992,-89.67755,539,-0.588,2011-01-03
kendall,31.73652,-109.94185,1529,-1.143,2011-01-03
konza,39.0824,-96.5603,443,-0.75,2011-01-03
laupahoehoe,19.9322,-155.2912,1145,-9999.0,2011-01-03
ldeocam,41.0039,-73.9053,121,-0.813,2011-01-03
lostcreek,46.0827,-89.9792,480,-0.157,2011-01-03
luckyhills,31.743896,-110.052023,1366,-1.102,2011-01-03
macleish,42.4484,-72.6804,251,0.057,2011-01-03
macordway,44.8106,-93.0272,264,1.149,2011-01-03
mandanh5,46.775423,-100.95109,593,0.892,2011-01-03
mandani2,46.7614,-100.9257,590,0.927,2011-01-03
manilacotton,35.8872,-90.1371,73,-0.953,2011-01-03
marena,36.06434,-97.21271,327,-0.842,2011-01-03
mead1,41.1651,-96.4766,361,-0.874,2011-01-03
mead2,41.1649,-96.4701,362,-0.874,2011-01-03
mead3,41.1797,-96.4397,363,-0.864,2011-01-03
meadpasture,41.1447,-96.4616,356,-0.809,2011-01-03
meadpasturese,41.1447,-96.4616,356,-0.809,2011-01-03
meadpasturesw,41.1447,-96.4616,356,-0.809,2011-01-03
missouriozarks,38.7441,-92.2,219,-1.256,2011-01-03
morganmonroe,39.3231,-86.4131,275,-0.143,2011-01-03
morganmonroe2,39.3231,-86.4131,275,-0.143,2011-01-03
nahuku,19.415187,-155.238383,1202,-9999.0,2011-01-03
nationalelkrefuge,43.488931,-110.737824,1899,1.09,2011-01-03
ncssm,36.018446,-78.92075,175,-0.988,2011-01-03
NEON.D01.BART.DP1.00033,44.063869,-71.287375,285,0.722,2011-01-03
NEON.D01.HARV.DP1.00033,42.536911,-72.17265,359,-0.232,2011-01-03
NEON.D01.HOPB.DP1.20002,42.471786,-72.329627,203,-0.305,2011-01-03
NEON.D02.BLAN.DP1.00033,39.033698,-78.041788,162,-0.599,2011-01-03
NEON.D02.LEWI.DP1.20002,39.09564,-77.98322,152,-0.593,2011-01-03
NEON.D02.POSE.DP1.20002,38.89332,-78.14678,293,-0.86,2011-01-03
NEON.D02.SCBI.DP1.00033,38.892925,-78.139494,364,-0.792,2011-01-03
NEON.D02.SERC.DP1.00033,38.89008,-76.56001,30,-0.88,2011-01-03
NEON.D03.BARC.DP1.20002,29.676473,-82.009089,35,-2.14,2011-01-03
NEON.D03.DSNY.DP1.00033,28.12505,-81.43619,22,-1.674,2011-01-03
NEON.D03.FLNT.DP1.20002,31.185424,-84.437403,27,-0.922,2011-01-03
NEON.D03.JERC.DP1.00033,31.194839,-84.468623,58,-0.933,2011-01-03
NEON.D03.OSBS.DP1.00033,29.689282,-81.993431,56,-2.098,2011-01-03
NEON.D03.SUGG.DP1.20002,29.687054,-82.016171,28,-2.098,2011-01-03
NEON.D04.CUPE.DP1.20002,18.11352,-66.98676,164,-9999.0,2011-01-03
NEON.D04.GUAN.DP1.00033,17.96955,-66.8687,136,-9999.0,2011-01-03
NEON.D04.GUIL.DP1.20002,18.1741,-66.79851,564,-9999.0,2011-01-03
NEON.D04.LAJA.DP1.00033,18.021261,-67.076889,22,-9999.0,2011-01-03
NEON.D05.CRAM.DP1.20002,46.21111,-89.47825,518,-0.602,2011-01-03
NEON.D05.LIRO.DP1.20002,45.998269,-89.704767,495,-0.72,2011-01-03
NEON.D05.STEI.DP1.00033,45.50894,-89.58637,476,0.116,2011-01-03
NEON.D05.TREE.DP1.00033,45.49373,-89.58572,474,0.116,2011-01-03
NEON.D05.UNDE.DP1.00033,46.23391,-89.537254,529,-0.595,2011-01-03
NEON.D06.KING.DP1.20002,39.10506,-96.60336,339,-0.748,2011-01-03
NEON.D06.KONA.DP1.00033,39.110446,-96.612935,443,-0.748,2011-01-03
NEON.D06.KONZ.DP1.00033,39.10077,-96.56309,415,-0.75,2011-01-03
NEON.D06.MCDI.DP1.20002,38.94428,-96.44197,376,-1.128,2011-01-03
NEON.D06.UKFS.DP1.00033,39.040431,-95.19215,330,-0.772,2011-01-03
NEON.D07.GRSM.DP1.00033,35.68896,-83.50195,589,0.974,2011-01-03
NEON.D07.LECO.DP1.20002,35.69043,-83.50379,578,0.974,2011-01-03
NEON.D07.MLBS.DP1.00033,37.378314,-80.524847,1177,0.019,2011-01-03
NEON.D07.ORNL.DP1.00033,35.964128,-84.282588,351,0.939,2011-01-03
NEON.D07.WALK.DP1.20002,35.95947,-84.28041,274,0.97,2011-01-03
NEON.D08.BLWA.DP1.20002,32.541529,-87.798151,23,-0.39,2011-01-03
NEON.D08.DELA.DP1.00033,32.541727,-87.803877,36,-0.39,2011-01-03
NEON.D08.LENO.DP1.00033,31.85388,-88.16122,10,-1.067,2011-01-03
NEON.D08.MAYF.DP1.20002,32.959657,-87.408128,93,-0.389,2011-01-03
NEON.D08.TALL.DP1.00033,32.95047,-87.393259,167,-0.389,2011-01-03
NEON.D08.TOMB.DP1.20002,31.853431,-88.158872,10,-1.067,2011-01-03
NEON.D09.DCFS.DP1.00033,47.161647,-99.106556,574,0.911,2011-01-03
NEON.D09.NOGP.DP1.00033,46.76972,-100.91535,589,0.927,2011-01-03
NEON.D09.PRLA.DP1.20002,47.15909,-99.11388,563,0.83,2011-01-03
NEON.D09.PRPO.DP1.20002,47.12999,-99.250551,587,0.809,2011-01-03
NEON.D09.WOOD.DP1.00033,47.1282,-99.241334,585,0.809,2011-01-03
NEON.D10.ARIK.DP1.20002,39.758246,-102.447103,1188,-0.764,2011-01-03
NEON.D10.CPER.DP1.00033,40.81553,-104.7456,1600,0.748,2011-01-03
NEON.D10.HQTW.DP1.00033,40.016704,-105.245612,1601,-0.866,2011-01-03
NEON.D10.RMNP.DP1.00033,40.275903,-105.545955,2751,1.505,2011-01-03
NEON.D10.STER.DP1.00033,40.461894,-103.02929,1366,0.494,2011-01-03
NEON.D11.BLUE.DP1.20002,34.444218,-96.624201,288,-0.335,2011-01-03
NEON.D11.CLBJ.DP1.00033,33.40123,-97.57,279,-0.911,2011-01-03
NEON.D11.OAES.DP1.00033,35.41059,-99.05879,520,0.072,2011-01-03
NEON.D11.PRIN.DP1.20002,33.37859,-97.78226,255,-1.087,2011-01-03
NEON.D12.BLDE.DP1.20002,44.95011,-110.58715,2035,1.461,2011-01-03
NEON.D12.YELL.DP1.00033,44.95348,-110.53914,2130,1.487,2011-01-03
NEON.D13.COMO.DP1.20002,40.03496,-105.54487,3036,1.002,2011-01-03
NEON.D13.MOAB.DP1.00033,38.24833,-109.38827,1803,0.379,2011-01-03
NEON.D13.NIWO.DP1.00033,40.05425,-105.58237,3493,1.364,2011-01-03
NEON.D13.WLOU.DP1.20002,39.891366,-105.915395,2920,0.828,2011-01-03
NEON.D14.JORN.DP1.00033,32.59068,-106.84254,1321,-2.731,2011-01-03
NEON.D14.SRER.DP1.00033,31.91068,-110.83549,999,-0.569,2011-01-03
NEON.D14.SYCA.DP1.20002,33.749057,-111.506903,644,0.198,2011-01-03
NEON.D15.ONAQ.DP1.00033,40.177599,-112.452452,1655,1.343,2011-01-03
NEON.D15.REDB.DP1.20002,40.783934,-111.797887,1696,1.73,2011-01-03
NEON.D16.ABBY.DP1.00033,45.76243,-122.33033,390,0.822,2011-01-03
NEON.D16.MART.DP1.20002,45.791248,-121.931959,354,0.863,2011-01-03
NEON.D16.MCRA.DP1.20002,44.259598,-122.165554,880,0.745,2011-01-03
NEON.D16.WREF.DP1.00033,45.82049,-121.95191,368,0.707,2011-01-03
NEON.D17.BIGC.DP1.20002,37.059719,-119.257549,1133,1.687,2011-01-03
NEON.D17.SJER.DP1.00033,37.10878,-119.73228,398,1.891,2011-01-03
NEON.D17.SOAP.DP1.00033,37.03337,-119.26219,1210,1.771,2011-01-03
NEON.D17.TEAK.DP1.00033,37.00583,-119.00602,2149,1.787,2011-01-03
NEON.D17.TECR.DP1.20002,36.955931,-119.027363,2053,1.699,2011-01-03
NEON.D18.BARR.DP1.00033,71.28241,-156.61936,7,-9999.0,2011-01-03
NEON.D18.OKSR.DP1.20002,68.669753,-149.143018,773,-9999.0,2011-01-03
NEON.D18.TOOK.DP1.20002,68.629562,-149.610509,715,-9999.0,2011-01-03
NEON.D18.TOOL.DP1.00033,68.66109,-149.37047,827,-9999.0,2011-01-03
NEON.D19.BONA.DP1.00033,65.15401,-147.50258,233,-9999.0,2011-01-03
NEON.D19.CARI.DP1.20002,65.15306,-147.50246,229,-9999.0,2011-01-03
NEON.D19.DEJU.DP1.00033,63.88112,-145.75136,504,-9999.0,2011-01-03
NEON.D19.HEAL.DP1.00033,63.87569,-149.21334,409,-9999.0,2011-01-03
NEON.D20.PUUM.DP1.00033,19.55309,-155.31731,1683,-9999.0,2011-01-03
nevcansnk3a,39.0099,-114.3095,3063,2.296,2011-01-03
nevcanspg1a,38.9253,-114.4082,1792,1.924,2011-01-03
nevcanspg2a,38.8921,-114.3521,2203,2.129,2011-01-03
nevcanspg3a,38.8898,-114.3314,2820,2.273,2011-01-03
nevcanspg4a,38.9061,-114.3089,3360,2.273,2011-01-03
ninemileprairie,40.86801886,-96.82208066,381,-1.04,2011-01-03
nist,39.139,-77.2125,100,-0.765,2011-01-03
niwot3,40.03286358,-105.5469702,3050,1.002,2011-01-03
niwot5,40.03286358,-105.5469702,2993,1.002,2011-01-03
northattleboroma,41.98369,-71.31056,60,-0.267,2011-01-03
northinletsaltmarsh,33.3455,-79.1957,1,-1.246,2011-01-03
oakville,47.899334,-97.316139,268,0.339,2011-01-03
oregonMP,44.4523,-121.5574,1253,0.656,2011-01-03
oregonYP,44.32384,-121.605993,977,0.638,2011-01-03
oregonYPbud,44.3238,-121.606,977,0.638,2011-01-03
othshardwood,44.934805,-68.6655,41,0.951,2011-01-03
othssoftwood,44.934527,-68.664888,41,0.951,2011-01-03
pace,37.9229,-78.2739,100,-0.539,2011-01-03
parkschoolbuffalo,42.9637,-78.7834,205,-0.127,2011-01-03
piedmontalpasture2,33.8875,-85.6935,238,-0.915,2011-01-03
portal,31.9385,-109.0823,1330,-1.18,2011-01-03
proctor,44.525,-72.866,403,0.341,2011-01-03
readingma,42.5304,-71.1272,100,-0.546,2011-01-03
robinson,37.4671,-83.1576,483,0.522,2011-01-03
robinson2,37.4671,-83.1576,483,0.522,2011-01-03
rosemountcons,44.6946,-93.0578,283,1.078,2011-01-03
rosemountconv,44.691,-93.0576,283,1.078,2011-01-03
rosemountnprs,44.6781,-93.0723,274,1.065,2011-01-03
russellsage,32.456961,-91.974322,20,-1.172,2011-01-03
sagehen,39.4315,-120.2398,1934,1.326,2011-01-03
sagehen2,39.4307,-120.2407,1937,1.326,2011-01-03
sagehen3,39.4311,-120.2405,1935,1.326,2011-01-03
sanford,42.726777,-84.464482,268,-1.047,2011-01-03
santacruz1,36.9741,-122.0308,11,1.042,2011-01-03
santacruz2,36.9741,-122.0308,11,1.042,2011-01-03
santaluciapreserve1,36.5265,-121.8682,500,0.764,2011-01-03
santaluciapreserve2,36.5265,-121.8682,500,0.764,2011-01-03
segaarboretum10,35.16209,-111.73151,2170,0.46,2011-01-03
segaarboretum2,35.16209,-111.73151,2170,0.46,2011-01-03
segaarboretum3,35.16209,-111.73151,2170,0.46,2011-01-03
segaarboretum4,35.16214,-111.73153,2170,0.46,2011-01-03
segaarboretum6,35.16209,-111.73151,2170,0.46,2011-01-03
segaarboretum9,35.16222,-111.73158,2170,0.46,2011-01-03
segaarboretumforest,35.1613,-111.7359,2173,0.46,2011-01-03
segaarboretummeadow,35.1621,-111.7316,2157,0.46,2011-01-03
segablackpoint,35.6814,-111.4754,1566,-0.126,2011-01-03
segabluechute,35.5876,-111.9716,1930,0.314,2011-01-03
segabluechute1,35.58759,-111.97115,1931,0.314,2011-01-03
segabluechute2,35.58759,-111.97115,1931,0.314,2011-01-03
segabluechute4,35.58759,-111.9716,1931,0.314,2011-01-03
segabluechute6,35.58759,-111.97115,1931,0.314,2011-01-03
segabluechute7,35.58759,-111.97115,1931,0.314,2011-01-03
segabluechute8,35.58759,-111.97115,1931,0.314,2011-01-03
segabradshaw,34.9109,-111.9285,1402,0.58,2011-01-03
segahartprairie,35.3536,-111.7324,2585,0.557,2011-01-03
segalcr,35.7231,-111.321,1275,-0.344,2011-01-03
segalcr2,35.7069,-111.36,1495,-0.304,2011-01-03
segalittlemountain,36.5865,-112.3634,2276,1.032,2011-01-03
segasoapcreek,36.751,-111.716,1233,-0.391,2011-01-03
segawhitepockets,36.6081,-112.4082,2057,1.101,2011-01-03
sevilletagrass,34.360444,-106.700186,1600,-0.764,2011-01-03
sevilletanewgrass,34.358,-106.6799,1603,-0.891,2011-01-03
sevilletashrub,34.334956,-106.744469,1603,-0.839,2011-01-03
sevMRME10L,34.3438,-106.7269,1604,-0.85,2011-01-03
sevMRME11C,34.3438,-106.7268,1604,-0.85,2011-01-03
sevMRME1S,34.3442,-106.7272,1604,-0.85,2011-01-03
sevpjrm12,34.38615,-106.52621,1905,-1.316,2011-01-03
sevpjrm13,34.38631,-106.52791,1914,-1.316,2011-01-03
shalehillsczo,40.6658,-77.9041,310,-0.127,2011-01-03
shenandoah,38.6167,-78.35,1037,-0.762,2011-01-03
silverton,44.9986,-122.6948,347,1.233,2011-01-03
siwetland,38.0369,-121.7546,-5,0.737,2011-01-03
slatefloodplain,38.9094,-107.0282,2725,1.639,2011-01-03
snodgrass1,38.92619636,-106.9714376,3023,1.582,2011-01-03
snodgrass2,38.92619636,-106.9714376,3023,1.582,2011-01-03
snodgrass3,38.92839978,-106.9781196,3141,1.582,2011-01-03
snodgrass4,38.92839978,-106.9781196,3141,1.582,2011-01-03
snodgrass5,38.92744789,-106.9785209,3152,1.582,2011-01-03
snodgrass6,38.92744789,-106.9785209,3152,1.582,2011-01-03
snodgrass7,38.93142134,-106.9852388,3363,1.666,2011-01-03
snodgrass8,38.93142134,-106.9852388,3363,1.666,2011-01-03
southerngreatplains,36.6058,-97.4888,314,-0.882,2011-01-03
springfieldma,42.135162,-72.585972,56,0.029,2011-01-03
spruceA0EMI,47.5049,-93.4541,413,0.868,2011-01-03
spruceA0EMT,47.5049,-93.4541,418,0.868,2011-01-03
spruceA0P07,47.50493,-93.45314,413,0.868,2011-01-03
spruceA0P07SH,47.50493,-93.45314,413,0.868,2011-01-03
spruceA0P21,47.50625,-93.45275,413,0.868,2011-01-03
spruceA0P21SH,47.50625,-93.45275,413,0.868,2011-01-03
srg,31.7894,-110.8276,1281,-0.47,2011-01-03
srm,31.8214,-110.8661,1116,-0.496,2011-01-03
statenrice1,38.1235,-121.549,-5,1.257,2011-01-03
stjones,39.088222,-75.43725,2,-0.917,2011-01-03
sweetbriar,37.57341,-79.08482,242,-0.327,2011-01-03
sweetbriarclearcut,37.5753,-79.0872,242,-0.327,2011-01-03
sweetbriargrass,37.5605,-79.0884,240,-0.327,2011-01-03
sylvania,46.242,-89.348,540,-0.706,2011-01-03
templefieldstation1,40.1667,-75.1894,105,-0.727,2011-01-03
tfforest,43.1086,-70.9505,23,-0.053,2011-01-03
tidmarshplymouth,41.9157,-70.5754,9,-0.453,2011-01-03
tonzi,38.43091667,-120.9658861,177,1.559,2011-01-03
townsenddemeadow,39.3917,-75.6281,11,-0.677,2011-01-03
tsubiology,36.1671,-86.8295,164,-0.102,2011-01-03
tsubiology2,36.1171,-86.8295,100,-0.079,2011-01-03
tuckerprairie,38.9491,-91.9952,274,-0.918,2011-01-03
twodafo,29.1658,-95.829,16,-1.384,2011-01-03
tworfaa,31.4777,-96.8882,167,-1.133,2011-01-03
tworfpr,31.4802,-96.8826,162,-1.105,2011-01-03
tworfta,31.4693,-96.8864,173,-1.133,2011-01-03
twosfpr,30.6176,-97.2938,157,-1.823,2011-01-03
ucnrsanzaborrego,33.2401,-116.3886,214,1.595,2011-01-03
ufona,27.3836,-81.950856,25,-0.159,2011-01-03
uiefmaize2,40.0628,-88.1961,224,-0.206,2011-01-03
uiefmiscanthus2,40.0628,-88.1984,221,-0.206,2011-01-03
uiefprairie2,40.0637,-88.1973,224,-0.206,2011-01-03
uiefsorghum,40.0065,-88.2032,224,-0.249,2011-01-03
uiefswitchgrass2,40.0637,-88.1973,224,-0.206,2011-01-03
umichbiological,45.55984,-84.71382,230,-1.831,2011-01-03
umichbiological2,45.5625,-84.6976,240,-1.713,2011-01-03
unca,35.5951,-82.5515,650,-0.186,2011-01-03
usgseros,43.7343,-96.6234,448,-0.278,2011-01-03
usmpj,34.43845,-106.2543606,2126,-1.21,2011-01-03
usof5,35.7297,-90.0406,70,-1.143,2011-01-03
usof6,35.7333,-90.0403,70,-1.143,2011-01-03
uwmfieldsta,43.38709,-88.0229,265,-0.553,2011-01-03
vaira,38.41328056,-120.9506361,129,1.559,2011-01-03
vallesburnedconifer,35.8884,-106.5321,3043,-0.024,2011-01-03
vallesmixedconifer,35.9192,-106.6142,2752,0.106,2011-01-03
vallesponderosapine,35.864,-106.5964,2501,0.09,2011-01-03
waahila,21.3017,-157.8152,55,-9999.0,2011-01-03
warrenwilson,35.6069,-82.4421,2198,-0.04,2011-01-03
willamettepoplar,44.1368,-123.1823,112,0.423,2011-01-03
willowcreek,45.805986,-90.07912,521,-0.131,2011-01-03
windriver,45.8212833,-121.9520833,371,0.707,2011-01-03
windriverunderstory,45.8212833,-121.9520833,371,0.707,2011-01-03
wolfesneckfarm,43.8305,-70.0715,16,0.521,2011-01-03
worcester,42.2697,-71.8428,185,-0.404,2011-01-03
alligatorriver,35.7879,-75.9038,1,-1.646,2011-01-10
arbutuslake,43.98207,-74.23322,535,-0.941,2011-01-10
arbutuslakeinlet,43.99336,-74.24527,527,-0.941,2011-01-10
archboldavir,27.176064,-81.21958,8,-0.617,2011-01-10
archboldavirx,27.166627,-81.219828,8,-0.617,2011-01-10
archboldbahia,27.1656,-81.216112,8,-0.617,2011-01-10
archboldpnot,27.187948,-81.200345,9,-0.617,2011-01-10
archboldpnotx,27.180677,-81.20068,9,-0.617,2011-01-10
arkansascornsoy,34.416,-91.6723,61,-1.191,2011-01-10
arsbrooks10,41.9749,-93.6905,312,-0.628,2011-01-10
arsbrooks11,41.9744,-93.6937,313,-0.628,2011-01-10
arscolesnorth,42.4884,-93.5225,356,-0.185,2011-01-10
arscolessouth,42.4816,-93.5235,352,-0.185,2011-01-10
arsgacp1,31.5109,-83.6179,96,-0.454,2011-01-10
arsgacp3,31.7563,-83.7516,139,-0.824,2011-01-10
arsgacp4,31.7093,-83.7287,127,-0.75,2011-01-10
arsgreatbasinltar098,43.1675,-116.7132,1426,0.664,2011-01-10
arsgreatbasinltar117,43.1432,-116.7357,1625,0.564,2011-01-10
arsgreatbasinltar177,43.0645,-116.7484,2114,0.509,2011-01-10
arsltarmdcr,39.0587,-75.8513,17,-1.157,2011-01-10
arsltarmdcrnatw,39.0575,-75.7531,16,-1.199,2011-01-10
arsltarmdcrprcw,39.0667,-75.7609,17,-1.199,2011-01-10
arsltarmdcrresw,39.0549,-75.7532,16,-1.199,2011-01-10
arsltarucbec1,40.7537,-78.0057,400,0.023,2011-01-10
arsltarucbec2,40.7558,-77.9999,396,0.023,2011-01-10
arsmnswanlake1,45.684508,-95.799703,370,1.35,2011-01-10
arsmorris1,45.6167,-96.1269,341,1.305,2011-01-10
arsmorris2,45.627,-96.127,338,1.305,2011-01-10
arsmorris3,45.6091,-96.1265,342,1.305,2011-01-10
arsope3ltar,39.0309,-76.8442,41,-1.344,2011-01-10
ashburnham,42.6029,-71.926,292,-0.611,2011-01-10
asuhighlands,36.2076,-81.7032,1016,-0.689,2011-01-10
austincary,29.738,-82.2188,44,-1.033,2011-01-10
barrow,71.28007453,-156.6091492,5,-9999.0,2011-01-10
bartlettir,44.0646,-71.2881,268,0.517,2011-01-10
bigtraillake,64.9194,-147.822,190,-9999.0,2011-01-10
bitterbrush001,48.154,-119.9456,667,-0.056,2011-01-10
blackrockforest,41.3974,-74.0239,427,-0.678,2011-01-10
bnzblackspruce,64.6963,-148.3235,102,-9999.0,2011-01-10
bnzrichfen,64.70134,-148.31195,97,-9999.0,2011-01-10
bnzthermokarstbog,64.6955,-148.3208,104,-9999.0,2011-01-10
boglakepeatland,47.5051,-93.4893,416,1.094,2011-01-10
bostoncommon,42.355912,-71.064145,10,-1.26,2011-01-10
bostonu,42.35041,-71.10438,10,-1.155,2011-01-10
bouldinalfalfa,38.0985,-121.4993,-5,1.095,2011-01-10
bouldincorn,38.109,-121.535,-5,1.076,2011-01-10
bozeman,45.783056,-110.777778,2332,1.215,2011-01-10
brackishimpoundment,33.2015,-79.2973,1,-1.235,2011-01-10
bullshoals,36.562833,-93.06663,260,-1.883,2011-01-10
burnssagebrush,43.4712,-119.6909,1398,0.85,2011-01-10
butte,45.95304,-112.47964,1682,0.69,2011-01-10
butterice,39.5793,-121.858,33,0.951,2011-01-10
cafboydnorthltar01,46.755104,-117.126052,795,0.341,2011-01-10
cafboydsouthltar01,46.751809,-117.128502,795,0.341,2011-01-10
cafcookeastltar01,46.78152,-117.0821,794,0.336,2011-01-10
cafcookwestltar01,46.784037,-117.09083,807,0.336,2011-01-10
caryinstitute,41.7839,-73.7341,127,-0.829,2011-01-10
centralredwoods1,38.632272,-123.301511,200,0.842,2011-01-10
centralredwoods2,38.632272,-123.301511,200,0.842,2011-01-10
cperagm,40.8402,-104.7672,1644,0.554,2011-01-10
cperheavy,40.8153,-104.7386,1652,0.488,2011-01-10
cpertgm,40.833,-104.76,1644,0.408,2011-01-10
cperuvb,40.8055764,-104.7558542,1641,0.408,2011-01-10
cuny,40.8162,-73.9507,42,-1.243,2011-01-10
doverdesaltmarsh,39.0888,-75.4368,0,-1.368,2011-01-10
downerwoods,43.07938,-87.88076,213,-0.823,2011-01-10
dukehw,35.973583,-79.100371,400,-1.675,2011-01-10
ecb1,41.5348,-84.8068,275,-0.744,2011-01-10
ecb2,41.5321,-84.808,275,-0.744,2011-01-10
ecb4,41.1796,-83.0604,240,-0.607,2011-01-10
elverde,18.320654,-65.8199,312,-9999.0,2011-01-10
flagstaff,35.17961521,-111.6049032,6983,0.523,2011-01-10
flagstaff2,35.179225,-111.604506,6983,0.523,2011-01-10
flagstaffchimneysprings,35.257296,-111.678542,2250,0.418,2011-01-10
forbes,39.232,-121.2972,360,1.346,2011-01-10
fortpaynealpasture1,34.3824,-85.6428,405,0.427,2011-01-10
fortpaynealpasture2,34.3824,-85.6447,403,0.427,2011-01-10
gcesapelo,31.4440444,-81.283528,0,-0.978,2011-01-10
gilberttract,38.0015,-121.6691,6,0.866,2011-01-10
glees,41.3644,-106.2394,3150,2.104,2011-01-10
glennorganicrice,39.6805,-122.0026,2,0.418,2011-01-10
glennrice,39.5944,-122.0253,36,0.608,2011-01-10
goodnow,43.96018,-74.20994,820,-0.871,2011-01-10
goodwater,39.22848,-92.11936,264,-1.094,2011-01-10
goodwaterbau,39.23115,-92.15216,274,-1.046,2011-01-10
grandteton,43.915017,-110.578036,2054,1.138,2011-01-10
grca1pj,36.0241,-112.2211,1978,0.267,2011-01-10
greenridge1,39.6905,-78.4067,285,-0.578,2011-01-10
harvard,42.5378,-72.1715,340,-0.755,2011-01-10
harvardbarn,42.53532,-72.1899,350,-0.761,2011-01-10
harvardbarn2,42.53532,-72.1899,350,-0.761,2011-01-10
harvardems2,42.5378,-72.1715,340,-0.755,2011-01-10
harvardfarmnorth,42.520465,-72.182242,355,-0.761,2011-01-10
harvardfarmsouth,42.522466,-72.182339,355,-0.761,2011-01-10
harvardgarden,42.5291,-72.1863,335,-0.761,2011-01-10
harvardhemlock,42.539,-72.18,355,-0.761,2011-01-10
harvardhemlock2,42.539407,-72.177976,355,-0.755,2011-01-10
harvardlph,42.542,-72.185,380,-0.761,2011-01-10
hawbeckereddy,40.6608,-77.848849,310,-0.379,2011-01-10
hobcawclearcutlongleaf,33.3486,-79.232,4,-1.228,2011-01-10
hobcawmaturelongleaf,33.3242,-79.2439,8,-1.228,2011-01-10
homesteadsprings,37.2009,-92.9937,452,-0.179,2011-01-10
howland1,45.2041,-68.7403,80,1.123,2011-01-10
howland2,45.2128,-68.7418,79,1.123,2011-01-10
hubbardbrook,43.9438,-71.701,253,0.362,2011-01-10
humnokericea,34.585192,-91.751684,61,-0.706,2011-01-10
humnokericec,34.588853,-91.7516729,70,-0.706,2011-01-10
huyckpreserveny,42.5266,-74.1587,478,0.121,2011-01-10
hwmo1,20.0212,-155.7331,585,-9999.0,2011-01-10
hwmo2,19.9766,-155.8298,12,-9999.0,2011-01-10
hwmo5,20.1117,-155.8151,635,-9999.0,2011-01-10
ibp,32.589,-106.847,1325,-2.642,2011-01-10
imcrkfen,68.60583,-149.31101,900,-9999.0,2011-01-10
imcrkridge0,68.60681,-149.2958,951,-9999.0,2011-01-10
imcrkridge1,68.60681,-149.2958,951,-9999.0,2011-01-10
imcrktussock,68.60633,-149.30408,918,-9999.0,2011-01-10
jasperridge,37.402028,-122.22104,197,0.759,2011-01-10
jerbajada,32.57992,-106.633793,1402,-2.188,2011-01-10
jergrassland,32.5833,-106.8333,1331,-2.642,2011-01-10
jernort,32.619,-106.788,1328,-2.565,2011-01-10
jernovel,32.6335,-106.8334,1324,-2.654,2011-01-10
jernwern,32.6271,-106.7387,1325,-2.401,2011-01-10
jersand,32.515,-106.798,1363,-3.0,2011-01-10
jershrubland,32.6502,-106.8334,1328,-2.702,2011-01-10
junipersavannah,34.4254,-105.8615,1931,-0.824,2011-01-10
kamuela,20.015008,-155.661326,850,-9999.0,2011-01-10
kamuela2,20.014959,-155.661139,830,-9999.0,2011-01-10
kansas,39.0561,-95.1907,333,-1.044,2011-01-10
kelloggcorn,42.437536,-85.3225472,288,-1.538,2011-01-10
kempnrs,45.83992,-89.67755,539,-0.295,2011-01-10
kendall,31.73652,-109.94185,1529,-1.17,2011-01-10
konza,39.0824,-96.5603,443,-0.813,2011-01-10
laupahoehoe,19.9322,-155.2912,1145,-9999.0,2011-01-10
ldeocam,41.0039,-73.9053,121,-1.359,2011-01-10
lostcreek,46.0827,-89.9792,480,0.179,2011-01-10
luckyhills,31.743896,-110.052023,1366,-1.143,2011-01-10
macleish,42.4484,-72.6804,251,-0.298,2011-01-10
macordway,44.8106,-93.0272,264,1.26,2011-01-10
mandanh5,46.775423,-100.95109,593,0.983,2011-01-10
mandani2,46.7614,-100.9257,590,1.008,2011-01-10
manilacotton,35.8872,-90.1371,73,-0.903,2011-01-10
marena,36.06434,-97.21271,327,-0.753,2011-01-10
mead1,41.1651,-96.4766,361,-0.763,2011-01-10
mead2,41.1649,-96.4701,362,-0.763,2011-01-10
mead3,41.1797,-96.4397,363,-0.759,2011-01-10
meadpasture,41.1447,-96.4616,356,-0.692,2011-01-10
meadpasturese,41.1447,-96.4616,356,-0.692,2011-01-10
meadpasturesw,41.1447,-96.4616,356,-0.692,2011-01-10
missouriozarks,38.7441,-92.2,219,-1.071,2011-01-10
morganmonroe,39.3231,-86.4131,275,-0.248,2011-01-10
morganmonroe2,39.3231,-86.4131,275,-0.248,2011-01-10
nahuku,19.415187,-155.238383,1202,-9999.0,2011-01-10
nationalelkrefuge,43.488931,-110.737824,1899,0.919,2011-01-10
ncssm,36.018446,-78.92075,175,-1.487,2011-01-10
NEON.D01.BART.DP1.00033,44.063869,-71.287375,285,0.517,2011-01-10
NEON.D01.HARV.DP1.00033,42.536911,-72.17265,359,-0.755,2011-01-10
NEON.D01.HOPB.DP1.20002,42.471786,-72.329627,203,-0.78,2011-01-10
NEON.D02.BLAN.DP1.00033,39.033698,-78.041788,162,-0.816,2011-01-10
NEON.D02.LEWI.DP1.20002,39.09564,-77.98322,152,-0.88,2011-01-10
NEON.D02.POSE.DP1.20002,38.89332,-78.14678,293,-0.998,2011-01-10
NEON.D02.SCBI.DP1.00033,38.892925,-78.139494,364,-0.933,2011-01-10
NEON.D02.SERC.DP1.00033,38.89008,-76.56001,30,-1.395,2011-01-10
NEON.D03.BARC.DP1.20002,29.676473,-82.009089,35,-1.211,2011-01-10
NEON.D03.DSNY.DP1.00033,28.12505,-81.43619,22,-1.239,2011-01-10
NEON.D03.FLNT.DP1.20002,31.185424,-84.437403,27,-0.553,2011-01-10
NEON.D03.JERC.DP1.00033,31.194839,-84.468623,58,-0.57,2011-01-10
NEON.D03.OSBS.DP1.00033,29.689282,-81.993431,56,-1.239,2011-01-10
NEON.D03.SUGG.DP1.20002,29.687054,-82.016171,28,-1.239,2011-01-10
NEON.D04.CUPE.DP1.20002,18.11352,-66.98676,164,-9999.0,2011-01-10
NEON.D04.GUAN.DP1.00033,17.96955,-66.8687,136,-9999.0,2011-01-10
NEON.D04.GUIL.DP1.20002,18.1741,-66.79851,564,-9999.0,2011-01-10
NEON.D04.LAJA.DP1.00033,18.021261,-67.076889,22,-9999.0,2011-01-10
NEON.D05.CRAM.DP1.20002,46.21111,-89.47825,518,-0.425,2011-01-10
NEON.D05.LIRO.DP1.20002,45.998269,-89.704767,495,-0.37,2011-01-10
NEON.D05.STEI.DP1.00033,45.50894,-89.58637,476,0.331,2011-01-10
NEON.D05.TREE.DP1.00033,45.49373,-89.58572,474,0.331,2011-01-10
NEON.D05.UNDE.DP1.00033,46.23391,-89.537254,529,-0.42,2011-01-10
NEON.D06.KING.DP1.20002,39.10506,-96.60336,339,-0.81,2011-01-10
NEON.D06.KONA.DP1.00033,39.110446,-96.612935,443,-0.81,2011-01-10
NEON.D06.KONZ.DP1.00033,39.10077,-96.56309,415,-0.813,2011-01-10
NEON.D06.MCDI.DP1.20002,38.94428,-96.44197,376,-1.147,2011-01-10
NEON.D06.UKFS.DP1.00033,39.040431,-95.19215,330,-1.044,2011-01-10
NEON.D07.GRSM.DP1.00033,35.68896,-83.50195,589,0.991,2011-01-10
NEON.D07.LECO.DP1.20002,35.69043,-83.50379,578,0.991,2011-01-10
NEON.D07.MLBS.DP1.00033,37.378314,-80.524847,1177,-0.393,2011-01-10
NEON.D07.ORNL.DP1.00033,35.964128,-84.282588,351,1.385,2011-01-10
NEON.D07.WALK.DP1.20002,35.95947,-84.28041,274,1.402,2011-01-10
NEON.D08.BLWA.DP1.20002,32.541529,-87.798151,23,0.062,2011-01-10
NEON.D08.DELA.DP1.00033,32.541727,-87.803877,36,0.062,2011-01-10
NEON.D08.LENO.DP1.00033,31.85388,-88.16122,10,-0.798,2011-01-10
NEON.D08.MAYF.DP1.20002,32.959657,-87.408128,93,0.085,2011-01-10
NEON.D08.TALL.DP1.00033,32.95047,-87.393259,167,0.085,2011-01-10
NEON.D08.TOMB.DP1.20002,31.853431,-88.158872,10,-0.798,2011-01-10
NEON.D09.DCFS.DP1.00033,47.161647,-99.106556,574,1.155,2011-01-10
NEON.D09.NOGP.DP1.00033,46.76972,-100.91535,589,1.008,2011-01-10
NEON.D09.PRLA.DP1.20002,47.15909,-99.11388,563,1.094,2011-01-10
NEON.D09.PRPO.DP1.20002,47.12999,-99.250551,587,1.062,2011-01-10
NEON.D09.WOOD.DP1.00033,47.1282,-99.241334,585,1.062,2011-01-10
NEON.D10.ARIK.DP1.20002,39.758246,-102.447103,1188,-0.95,2011-01-10
NEON.D10.CPER.DP1.00033,40.81553,-104.7456,1600,0.408,2011-01-10
NEON.D10.HQTW.DP1.00033,40.016704,-105.245612,1601,-1.532,2011-01-10
NEON.D10.RMNP.DP1.00033,40.275903,-105.545955,2751,1.296,2011-01-10
NEON.D10.STER.DP1.00033,40.461894,-103.02929,1366,0.117,2011-01-10
NEON.D11.BLUE.DP1.20002,34.444218,-96.624201,288,-0.438,2011-01-10
NEON.D11.CLBJ.DP1.00033,33.40123,-97.57,279,-0.825,2011-01-10
NEON.D11.OAES.DP1.00033,35.41059,-99.05879,520,0.185,2011-01-10
NEON.D11.PRIN.DP1.20002,33.37859,-97.78226,255,-0.96,2011-01-10
NEON.D12.BLDE.DP1.20002,44.95011,-110.58715,2035,1.438,2011-01-10
NEON.D12.YELL.DP1.00033,44.95348,-110.53914,2130,1.394,2011-01-10
NEON.D13.COMO.DP1.20002,40.03496,-105.54487,3036,0.691,2011-01-10
NEON.D13.MOAB.DP1.00033,38.24833,-109.38827,1803,0.507,2011-01-10
NEON.D13.NIWO.DP1.00033,40.05425,-105.58237,3493,1.109,2011-01-10
NEON.D13.WLOU.DP1.20002,39.891366,-105.915395,2920,0.555,2011-01-10
NEON.D14.JORN.DP1.00033,32.59068,-106.84254,1321,-2.642,2011-01-10
NEON.D14.SRER.DP1.00033,31.91068,-110.83549,999,-1.004,2011-01-10
NEON.D14.SYCA.DP1.20002,33.749057,-111.506903,644,-0.001,2011-01-10
NEON.D15.ONAQ.DP1.00033,40.177599,-112.452452,1655,1.344,2011-01-10
NEON.D15.REDB.DP1.20002,40.783934,-111.797887,1696,1.791,2011-01-10
NEON.D16.ABBY.DP1.00033,45.76243,-122.33033,390,0.455,2011-01-10
NEON.D16.MART.DP1.20002,45.791248,-121.931959,354,0.474,2011-01-10
NEON.D16.MCRA.DP1.20002,44.259598,-122.165554,880,0.407,2011-01-10
NEON.D16.WREF.DP1.00033,45.82049,-121.95191,368,0.319,2011-01-10
NEON.D17.BIGC.DP1.20002,37.059719,-119.257549,1133,1.568,2011-01-10
NEON.D17.SJER.DP1.00033,37.10878,-119.73228,398,1.763,2011-01-10
NEON.D17.SOAP.DP1.00033,37.03337,-119.26219,1210,1.643,2011-01-10
NEON.D17.TEAK.DP1.00033,37.00583,-119.00602,2149,1.68,2011-01-10
NEON.D17.TECR.DP1.20002,36.955931,-119.027363,2053,1.596,2011-01-10
NEON.D18.BARR.DP1.00033,71.28241,-156.61936,7,-9999.0,2011-01-10
NEON.D18.OKSR.DP1.20002,68.669753,-149.143018,773,-9999.0,2011-01-10
NEON.D18.TOOK.DP1.20002,68.629562,-149.610509,715,-9999.0,2011-01-10
NEON.D18.TOOL.DP1.00033,68.66109,-149.37047,827,-9999.0,2011-01-10
NEON.D19.BONA.DP1.00033,65.15401,-147.50258,233,-9999.0,2011-01-10
NEON.D19.CARI.DP1.20002,65.15306,-147.50246,229,-9999.0,2011-01-10
NEON.D19.DEJU.DP1.00033,63.88112,-145.75136,504,-9999.0,2011-01-10
NEON.D19.HEAL.DP1.00033,63.87569,-149.21334,409,-9999.0,2011-01-10
NEON.D20.PUUM.DP1.00033,19.55309,-155.31731,1683,-9999.0,2011-01-10
nevcansnk3a,39.0099,-114.3095,3063,2.283,2011-01-10
nevcanspg1a,38.9253,-114.4082,1792,2.008,2011-01-10
nevcanspg2a,38.8921,-114.3521,2203,2.171,2011-01-10
nevcanspg3a,38.8898,-114.3314,2820,2.243,2011-01-10
nevcanspg4a,38.9061,-114.3089,3360,2.243,2011-01-10
ninemileprairie,40.86801886,-96.82208066,381,-1.103,2011-01-10
nist,39.139,-77.2125,100,-1.227,2011-01-10
niwot3,40.03286358,-105.5469702,3050,0.691,2011-01-10
niwot5,40.03286358,-105.5469702,2993,0.691,2011-01-10
northattleboroma,41.98369,-71.31056,60,-0.652,2011-01-10
northinletsaltmarsh,33.3455,-79.1957,1,-1.249,2011-01-10
oakville,47.899334,-97.316139,268,0.734,2011-01-10
oregonMP,44.4523,-121.5574,1253,0.412,2011-01-10
oregonYP,44.32384,-121.605993,977,0.414,2011-01-10
oregonYPbud,44.3238,-121.606,977,0.414,2011-01-10
othshardwood,44.934805,-68.6655,41,0.953,2011-01-10
othssoftwood,44.934527,-68.664888,41,0.953,2011-01-10
pace,37.9229,-78.2739,100,-0.755,2011-01-10
parkschoolbuffalo,42.9637,-78.7834,205,-0.104,2011-01-10
piedmontalpasture2,33.8875,-85.6935,238,-0.427,2011-01-10
portal,31.9385,-109.0823,1330,-1.219,2011-01-10
proctor,44.525,-72.866,403,0.036,2011-01-10
readingma,42.5304,-71.1272,100,-1.087,2011-01-10
robinson,37.4671,-83.1576,483,0.534,2011-01-10
robinson2,37.4671,-83.1576,483,0.534,2011-01-10
rosemountcons,44.6946,-93.0578,283,1.208,2011-01-10
rosemountconv,44.691,-93.0576,283,1.208,2011-01-10
rosemountnprs,44.6781,-93.0723,274,1.191,2011-01-10
russellsage,32.456961,-91.974322,20,-1.129,2011-01-10
sagehen,39.4315,-120.2398,1934,1.124,2011-01-10
sagehen2,39.4307,-120.2407,1937,1.124,2011-01-10
sagehen3,39.4311,-120.2405,1935,1.124,2011-01-10
sanford,42.726777,-84.464482,268,-1.164,2011-01-10
santacruz1,36.9741,-122.0308,11,0.861,2011-01-10
santacruz2,36.9741,-122.0308,11,0.861,2011-01-10
santaluciapreserve1,36.5265,-121.8682,500,0.795,2011-01-10
santaluciapreserve2,36.5265,-121.8682,500,0.795,2011-01-10
segaarboretum10,35.16209,-111.73151,2170,0.4,2011-01-10
segaarboretum2,35.16209,-111.73151,2170,0.4,2011-01-10
segaarboretum3,35.16209,-111.73151,2170,0.4,2011-01-10
segaarboretum4,35.16214,-111.73153,2170,0.4,2011-01-10
segaarboretum6,35.16209,-111.73151,2170,0.4,2011-01-10
segaarboretum9,35.16222,-111.73158,2170,0.4,2011-01-10
segaarboretumforest,35.1613,-111.7359,2173,0.4,2011-01-10
segaarboretummeadow,35.1621,-111.7316,2157,0.4,2011-01-10
segablackpoint,35.6814,-111.4754,1566,-0.345,2011-01-10
segabluechute,35.5876,-111.9716,1930,0.222,2011-01-10
segabluechute1,35.58759,-111.97115,1931,0.222,2011-01-10
segabluechute2,35.58759,-111.97115,1931,0.222,2011-01-10
segabluechute4,35.58759,-111.9716,1931,0.222,2011-01-10
segabluechute6,35.58759,-111.97115,1931,0.222,2011-01-10
segabluechute7,35.58759,-111.97115,1931,0.222,2011-01-10
segabluechute8,35.58759,-111.97115,1931,0.222,2011-01-10
segabradshaw,34.9109,-111.9285,1402,0.496,2011-01-10
segahartprairie,35.3536,-111.7324,2585,0.458,2011-01-10
segalcr,35.7231,-111.321,1275,-0.466,2011-01-10
segalcr2,35.7069,-111.36,1495,-0.419,2011-01-10
segalittlemountain,36.5865,-112.3634,2276,1.001,2011-01-10
segasoapcreek,36.751,-111.716,1233,-0.511,2011-01-10
segawhitepockets,36.6081,-112.4082,2057,1.078,2011-01-10
sevilletagrass,34.360444,-106.700186,1600,-0.643,2011-01-10
sevilletanewgrass,34.358,-106.6799,1603,-0.783,2011-01-10
sevilletashrub,34.334956,-106.744469,1603,-0.724,2011-01-10
sevMRME10L,34.3438,-106.7269,1604,-0.732,2011-01-10
sevMRME11C,34.3438,-106.7268,1604,-0.732,2011-01-10
sevMRME1S,34.3442,-106.7272,1604,-0.732,2011-01-10
sevpjrm12,34.38615,-106.52621,1905,-1.254,2011-01-10
sevpjrm13,34.38631,-106.52791,1914,-1.254,2011-01-10
shalehillsczo,40.6658,-77.9041,310,-0.294,2011-01-10
shenandoah,38.6167,-78.35,1037,-0.883,2011-01-10
silverton,44.9986,-122.6948,347,0.774,2011-01-10
siwetland,38.0369,-121.7546,-5,0.585,2011-01-10
slatefloodplain,38.9094,-107.0282,2725,1.694,2011-01-10
snodgrass1,38.92619636,-106.9714376,3023,1.639,2011-01-10
snodgrass2,38.92619636,-106.9714376,3023,1.639,2011-01-10
snodgrass3,38.92839978,-106.9781196,3141,1.639,2011-01-10
snodgrass4,38.92839978,-106.9781196,3141,1.639,2011-01-10
snodgrass5,38.92744789,-106.9785209,3152,1.639,2011-01-10
snodgrass6,38.92744789,-106.9785209,3152,1.639,2011-01-10
snodgrass7,38.93142134,-106.9852388,3363,1.727,2011-01-10
snodgrass8,38.93142134,-106.9852388,3363,1.727,2011-01-10
southerngreatplains,36.6058,-97.4888,314,-1.176,2011-01-10
springfieldma,42.135162,-72.585972,56,-0.286,2011-01-10
spruceA0EMI,47.5049,-93.4541,413,1.145,2011-01-10
spruceA0EMT,47.5049,-93.4541,418,1.145,2011-01-10
spruceA0P07,47.50493,-93.45314,413,1.145,2011-01-10
spruceA0P07SH,47.50493,-93.45314,413,1.145,2011-01-10
spruceA0P21,47.50625,-93.45275,413,1.145,2011-01-10
spruceA0P21SH,47.50625,-93.45275,413,1.145,2011-01-10
srg,31.7894,-110.8276,1281,-0.71,2011-01-10
srm,31.8214,-110.8661,1116,-0.914,2011-01-10
statenrice1,38.1235,-121.549,-5,1.046,2011-01-10
stjones,39.088222,-75.43725,2,-1.368,2011-01-10
sweetbriar,37.57341,-79.08482,242,-0.489,2011-01-10
sweetbriarclearcut,37.5753,-79.0872,242,-0.489,2011-01-10
sweetbriargrass,37.5605,-79.0884,240,-0.489,2011-01-10
sylvania,46.242,-89.348,540,-0.419,2011-01-10
templefieldstation1,40.1667,-75.1894,105,-1.211,2011-01-10
tfforest,43.1086,-70.9505,23,-0.625,2011-01-10
tidmarshplymouth,41.9157,-70.5754,9,-0.789,2011-01-10
tonzi,38.43091667,-120.9658861,177,1.364,2011-01-10
townsenddemeadow,39.3917,-75.6281,11,-1.035,2011-01-10
tsubiology,36.1671,-86.8295,164,-0.093,2011-01-10
tsubiology2,36.1171,-86.8295,100,0.046,2011-01-10
tuckerprairie,38.9491,-91.9952,274,-0.761,2011-01-10
twodafo,29.1658,-95.829,16,-1.333,2011-01-10
tworfaa,31.4777,-96.8882,167,-1.09,2011-01-10
tworfpr,31.4802,-96.8826,162,-1.09,2011-01-10
tworfta,31.4693,-96.8864,173,-1.09,2011-01-10
twosfpr,30.6176,-97.2938,157,-1.65,2011-01-10
ucnrsanzaborrego,33.2401,-116.3886,214,1.482,2011-01-10
ufona,27.3836,-81.950856,25,0.167,2011-01-10
uiefmaize2,40.0628,-88.1961,224,-0.341,2011-01-10
uiefmiscanthus2,40.0628,-88.1984,221,-0.341,2011-01-10
uiefprairie2,40.0637,-88.1973,224,-0.341,2011-01-10
uiefsorghum,40.0065,-88.2032,224,-0.387,2011-01-10
uiefswitchgrass2,40.0637,-88.1973,224,-0.341,2011-01-10
umichbiological,45.55984,-84.71382,230,-1.271,2011-01-10
umichbiological2,45.5625,-84.6976,240,-1.206,2011-01-10
unca,35.5951,-82.5515,650,-0.143,2011-01-10
usgseros,43.7343,-96.6234,448,-0.024,2011-01-10
usmpj,34.43845,-106.2543606,2126,-1.18,2011-01-10
usof5,35.7297,-90.0406,70,-1.052,2011-01-10
usof6,35.7333,-90.0403,70,-1.052,2011-01-10
uwmfieldsta,43.38709,-88.0229,265,-0.522,2011-01-10
vaira,38.41328056,-120.9506361,129,1.364,2011-01-10
vallesburnedconifer,35.8884,-106.5321,3043,-0.002,2011-01-10
vallesmixedconifer,35.9192,-106.6142,2752,0.128,2011-01-10
vallesponderosapine,35.864,-106.5964,2501,0.127,2011-01-10
waahila,21.3017,-157.8152,55,-9999.0,2011-01-10
warrenwilson,35.6069,-82.4421,2198,-0.106,2011-01-10
willamettepoplar,44.1368,-123.1823,112,0.081,2011-01-10
willowcreek,45.805986,-90.07912,521,0.121,2011-01-10
windriver,45.8212833,-121.9520833,371,0.319,2011-01-10
windriverunderstory,45.8212833,-121.9520833,371,0.319,2011-01-10
wolfesneckfarm,43.8305,-70.0715,16,0.169,2011-01-10
worcester,42.2697,-71.8428,185,-0.832,2011-01-10
alligatorriver,35.7879,-75.9038,1,-1.633,2011-01-17
arbutuslake,43.98207,-74.23322,535,-0.936,2011-01-17
arbutuslakeinlet,43.99336,-74.24527,527,-0.936,2011-01-17
archboldavir,27.176064,-81.21958,8,-0.602,2011-01-17
archboldavirx,27.166627,-81.219828,8,-0.602,2011-01-17
archboldbahia,27.1656,-81.216112,8,-0.602,2011-01-17
archboldpnot,27.187948,-81.200345,9,-0.602,2011-01-17
archboldpnotx,27.180677,-81.20068,9,-0.602,2011-01-17
arkansascornsoy,34.416,-91.6723,61,-1.054,2011-01-17
arsbrooks10,41.9749,-93.6905,312,-0.095,2011-01-17
arsbrooks11,41.9744,-93.6937,313,-0.095,2011-01-17
arscolesnorth,42.4884,-93.5225,356,0.446,2011-01-17
arscolessouth,42.4816,-93.5235,352,0.446,2011-01-17
arsgacp1,31.5109,-83.6179,96,-0.468,2011-01-17
arsgacp3,31.7563,-83.7516,139,-0.819,2011-01-17
arsgacp4,31.7093,-83.7287,127,-0.756,2011-01-17
arsgreatbasinltar098,43.1675,-116.7132,1426,0.675,2011-01-17
arsgreatbasinltar117,43.1432,-116.7357,1625,0.55,2011-01-17
arsgreatbasinltar177,43.0645,-116.7484,2114,0.459,2011-01-17
arsltarmdcr,39.0587,-75.8513,17,-1.22,2011-01-17
arsltarmdcrnatw,39.0575,-75.7531,16,-1.281,2011-01-17
arsltarmdcrprcw,39.0667,-75.7609,17,-1.281,2011-01-17
arsltarmdcrresw,39.0549,-75.7532,16,-1.281,2011-01-17
arsltarucbec1,40.7537,-78.0057,400,0.189,2011-01-17
arsltarucbec2,40.7558,-77.9999,396,0.189,2011-01-17
arsmnswanlake1,45.684508,-95.799703,370,1.901,2011-01-17
arsmorris1,45.6167,-96.1269,341,1.892,2011-01-17
arsmorris2,45.627,-96.127,338,1.892,2011-01-17
arsmorris3,45.6091,-96.1265,342,1.892,2011-01-17
arsope3ltar,39.0309,-76.8442,41,-1.405,2011-01-17
ashburnham,42.6029,-71.926,292,-0.382,2011-01-17
asuhighlands,36.2076,-81.7032,1016,-0.692,2011-01-17
austincary,29.738,-82.2188,44,-0.976,2011-01-17
barrow,71.28007453,-156.6091492,5,-9999.0,2011-01-17
bartlettir,44.0646,-71.2881,268,0.623,2011-01-17
bigtraillake,64.9194,-147.822,190,-9999.0,2011-01-17
bitterbrush001,48.154,-119.9456,667,0.121,2011-01-17
blackrockforest,41.3974,-74.0239,427,-0.448,2011-01-17
bnzblackspruce,64.6963,-148.3235,102,-9999.0,2011-01-17
bnzrichfen,64.70134,-148.31195,97,-9999.0,2011-01-17
bnzthermokarstbog,64.6955,-148.3208,104,-9999.0,2011-01-17
boglakepeatland,47.5051,-93.4893,416,1.691,2011-01-17
bostoncommon,42.355912,-71.064145,10,-0.626,2011-01-17
bostonu,42.35041,-71.10438,10,-0.544,2011-01-17
bouldinalfalfa,38.0985,-121.4993,-5,0.993,2011-01-17
bouldincorn,38.109,-121.535,-5,0.97,2011-01-17
bozeman,45.783056,-110.777778,2332,1.27,2011-01-17
brackishimpoundment,33.2015,-79.2973,1,-1.034,2011-01-17
bullshoals,36.562833,-93.06663,260,-1.743,2011-01-17
burnssagebrush,43.4712,-119.6909,1398,0.886,2011-01-17
butte,45.95304,-112.47964,1682,0.875,2011-01-17
butterice,39.5793,-121.858,33,0.903,2011-01-17
cafboydnorthltar01,46.755104,-117.126052,795,0.359,2011-01-17
cafboydsouthltar01,46.751809,-117.128502,795,0.359,2011-01-17
cafcookeastltar01,46.78152,-117.0821,794,0.391,2011-01-17
cafcookwestltar01,46.784037,-117.09083,807,0.391,2011-01-17
caryinstitute,41.7839,-73.7341,127,-0.587,2011-01-17
centralredwoods1,38.632272,-123.301511,200,0.736,2011-01-17
centralredwoods2,38.632272,-123.301511,200,0.736,2011-01-17
cperagm,40.8402,-104.7672,1644,0.098,2011-01-17
cperheavy,40.8153,-104.7386,1652,0.342,2011-01-17
cpertgm,40.833,-104.76,1644,0.303,2011-01-17
cperuvb,40.8055764,-104.7558542,1641,0.303,2011-01-17
cuny,40.8162,-73.9507,42,-1.012,2011-01-17
doverdesaltmarsh,39.0888,-75.4368,0,-1.46,2011-01-17
downerwoods,43.07938,-87.88076,213,-0.57,2011-01-17
dukehw,35.973583,-79.100371,400,-1.588,2011-01-17
ecb1,41.5348,-84.8068,275,-0.496,2011-01-17
ecb2,41.5321,-84.808,275,-0.496,2011-01-17
ecb4,41.1796,-83.0604,240,-0.356,2011-01-17
elverde,18.320654,-65.8199,312,-9999.0,2011-01-17
flagstaff,35.17961521,-111.6049032,6983,0.311,2011-01-17
flagstaff2,35.179225,-111.604506,6983,0.311,2011-01-17
flagstaffchimneysprings,35.257296,-111.678542,2250,0.168,2011-01-17
forbes,39.232,-121.2972,360,1.287,2011-01-17
fortpaynealpasture1,34.3824,-85.6428,405,0.381,2011-01-17
fortpaynealpasture2,34.3824,-85.6447,403,0.381,2011-01-17
gcesapelo,31.4440444,-81.283528,0,-0.763,2011-01-17
gilberttract,38.0015,-121.6691,6,0.756,2011-01-17
glees,41.3644,-106.2394,3150,2.044,2011-01-17
glennorganicrice,39.6805,-122.0026,2,0.37,2011-01-17
glennrice,39.5944,-122.0253,36,0.563,2011-01-17
goodnow,43.96018,-74.20994,820,-0.84,2011-01-17
goodwater,39.22848,-92.11936,264,-0.715,2011-01-17
goodwaterbau,39.23115,-92.15216,274,-0.672,2011-01-17
grandteton,43.915017,-110.578036,2054,1.14,2011-01-17
grca1pj,36.0241,-112.2211,1978,-0.224,2011-01-17
greenridge1,39.6905,-78.4067,285,-0.607,2011-01-17
harvard,42.5378,-72.1715,340,-0.461,2011-01-17
harvardbarn,42.53532,-72.1899,350,-0.471,2011-01-17
harvardbarn2,42.53532,-72.1899,350,-0.471,2011-01-17
harvardems2,42.5378,-72.1715,340,-0.461,2011-01-17
harvardfarmnorth,42.520465,-72.182242,355,-0.471,2011-01-17
harvardfarmsouth,42.522466,-72.182339,355,-0.471,2011-01-17
harvardgarden,42.5291,-72.1863,335,-0.471,2011-01-17
harvardhemlock,42.539,-72.18,355,-0.471,2011-01-17
harvardhemlock2,42.539407,-72.177976,355,-0.461,2011-01-17
harvardlph,42.542,-72.185,380,-0.471,2011-01-17
hawbeckereddy,40.6608,-77.848849,310,-0.272,2011-01-17
hobcawclearcutlongleaf,33.3486,-79.232,4,-1.032,2011-01-17
hobcawmaturelongleaf,33.3242,-79.2439,8,-1.032,2011-01-17
homesteadsprings,37.2009,-92.9937,452,-0.124,2011-01-17
howland1,45.2041,-68.7403,80,1.196,2011-01-17
howland2,45.2128,-68.7418,79,1.196,2011-01-17
hubbardbrook,43.9438,-71.701,253,0.458,2011-01-17
humnokericea,34.585192,-91.751684,61,-0.586,2011-01-17
humnokericec,34.588853,-91.7516729,70,-0.586,2011-01-17
huyckpreserveny,42.5266,-74.1587,478,0.256,2011-01-17
hwmo1,20.0212,-155.7331,585,-9999.0,2011-01-17
hwmo2,19.9766,-155.8298,12,-9999.0,2011-01-17
hwmo5,20.1117,-155.8151,635,-9999.0,2011-01-17
ibp,32.589,-106.847,1325,-2.035,2011-01-17
imcrkfen,68.60583,-149.31101,900,-9999.0,2011-01-17
imcrkridge0,68.60681,-149.2958,951,-9999.0,2011-01-17
imcrkridge1,68.60681,-149.2958,951,-9999.0,2011-01-17
imcrktussock,68.60633,-149.30408,918,-9999.0,2011-01-17
jasperridge,37.402028,-122.22104,197,0.627,2011-01-17
jerbajada,32.57992,-106.633793,1402,-2.051,2011-01-17
jergrassland,32.5833,-106.8333,1331,-2.035,2011-01-17
jernort,32.619,-106.788,1328,-1.964,2011-01-17
jernovel,32.6335,-106.8334,1324,-2.048,2011-01-17
jernwern,32.6271,-106.7387,1325,-2.009,2011-01-17
jersand,32.515,-106.798,1363,-2.554,2011-01-17
jershrubland,32.6502,-106.8334,1328,-2.087,2011-01-17
junipersavannah,34.4254,-105.8615,1931,-0.893,2011-01-17
kamuela,20.015008,-155.661326,850,-9999.0,2011-01-17
kamuela2,20.014959,-155.661139,830,-9999.0,2011-01-17
kansas,39.0561,-95.1907,333,-0.784,2011-01-17
kelloggcorn,42.437536,-85.3225472,288,-1.075,2011-01-17
kempnrs,45.83992,-89.67755,539,0.314,2011-01-17
kendall,31.73652,-109.94185,1529,-1.192,2011-01-17
konza,39.0824,-96.5603,443,-0.436,2011-01-17
laupahoehoe,19.9322,-155.2912,1145,-9999.0,2011-01-17
ldeocam,41.0039,-73.9053,121,-1.09,2011-01-17
lostcreek,46.0827,-89.9792,480,0.733,2011-01-17
luckyhills,31.743896,-110.052023,1366,-1.189,2011-01-17
macleish,42.4484,-72.6804,251,0.126,2011-01-17
macordway,44.8106,-93.0272,264,1.573,2011-01-17
mandanh5,46.775423,-100.95109,593,1.291,2011-01-17
mandani2,46.7614,-100.9257,590,1.311,2011-01-17
manilacotton,35.8872,-90.1371,73,-0.832,2011-01-17
marena,36.06434,-97.21271,327,-1.233,2011-01-17
mead1,41.1651,-96.4766,361,-0.044,2011-01-17
mead2,41.1649,-96.4701,362,-0.044,2011-01-17
mead3,41.1797,-96.4397,363,-0.023,2011-01-17
meadpasture,41.1447,-96.4616,356,-0.002,2011-01-17
meadpasturese,41.1447,-96.4616,356,-0.002,2011-01-17
meadpasturesw,41.1447,-96.4616,356,-0.002,2011-01-17
missouriozarks,38.7441,-92.2,219,-0.736,2011-01-17
morganmonroe,39.3231,-86.4131,275,-0.059,2011-01-17
morganmonroe2,39.3231,-86.4131,275,-0.059,2011-01-17
nahuku,19.415187,-155.238383,1202,-9999.0,2011-01-17
nationalelkrefuge,43.488931,-110.737824,1899,0.966,2011-01-17
ncssm,36.018446,-78.92075,175,-1.456,2011-01-17
NEON.D01.BART.DP1.00033,44.063869,-71.287375,285,0.623,2011-01-17
NEON.D01.HARV.DP1.00033,42.536911,-72.17265,359,-0.461,2011-01-17
NEON.D01.HOPB.DP1.20002,42.471786,-72.329627,203,-0.407,2011-01-17
NEON.D02.BLAN.DP1.00033,39.033698,-78.041788,162,-0.82,2011-01-17
NEON.D02.LEWI.DP1.20002,39.09564,-77.98322,152,-0.949,2011-01-17
NEON.D02.POSE.DP1.20002,38.89332,-78.14678,293,-0.966,2011-01-17
NEON.D02.SCBI.DP1.00033,38.892925,-78.139494,364,-0.877,2011-01-17
NEON.D02.SERC.DP1.00033,38.89008,-76.56001,30,-1.479,2011-01-17
NEON.D03.BARC.DP1.20002,29.676473,-82.009089,35,-1.174,2011-01-17
NEON.D03.DSNY.DP1.00033,28.12505,-81.43619,22,-1.205,2011-01-17
NEON.D03.FLNT.DP1.20002,31.185424,-84.437403,27,-0.542,2011-01-17
NEON.D03.JERC.DP1.00033,31.194839,-84.468623,58,-0.558,2011-01-17
NEON.D03.OSBS.DP1.00033,29.689282,-81.993431,56,-1.179,2011-01-17
NEON.D03.SUGG.DP1.20002,29.687054,-82.016171,28,-1.179,2011-01-17
NEON.D04.CUPE.DP1.20002,18.11352,-66.98676,164,-9999.0,2011-01-17
NEON.D04.GUAN.DP1.00033,17.96955,-66.8687,136,-9999.0,2011-01-17
NEON.D04.GUIL.DP1.20002,18.1741,-66.79851,564,-9999.0,2011-01-17
NEON.D04.LAJA.DP1.00033,18.021261,-67.076889,22,-9999.0,2011-01-17
NEON.D05.CRAM.DP1.20002,46.21111,-89.47825,518,0.321,2011-01-17
NEON.D05.LIRO.DP1.20002,45.998269,-89.704767,495,0.265,2011-01-17
NEON.D05.STEI.DP1.00033,45.50894,-89.58637,476,0.73,2011-01-17
NEON.D05.TREE.DP1.00033,45.49373,-89.58572,474,0.73,2011-01-17
NEON.D05.UNDE.DP1.00033,46.23391,-89.537254,529,0.325,2011-01-17
NEON.D06.KING.DP1.20002,39.10506,-96.60336,339,-0.434,2011-01-17
NEON.D06.KONA.DP1.00033,39.110446,-96.612935,443,-0.434,2011-01-17
NEON.D06.KONZ.DP1.00033,39.10077,-96.56309,415,-0.436,2011-01-17
NEON.D06.MCDI.DP1.20002,38.94428,-96.44197,376,-0.715,2011-01-17
NEON.D06.UKFS.DP1.00033,39.040431,-95.19215,330,-0.784,2011-01-17
NEON.D07.GRSM.DP1.00033,35.68896,-83.50195,589,0.851,2011-01-17
NEON.D07.LECO.DP1.20002,35.69043,-83.50379,578,0.851,2011-01-17
NEON.D07.MLBS.DP1.00033,37.378314,-80.524847,1177,-0.667,2011-01-17
NEON.D07.ORNL.DP1.00033,35.964128,-84.282588,351,1.21,2011-01-17
NEON.D07.WALK.DP1.20002,35.95947,-84.28041,274,1.227,2011-01-17
NEON.D08.BLWA.DP1.20002,32.541529,-87.798151,23,0.1,2011-01-17
NEON.D08.DELA.DP1.00033,32.541727,-87.803877,36,0.1,2011-01-17
NEON.D08.LENO.DP1.00033,31.85388,-88.16122,10,-0.892,2011-01-17
NEON.D08.MAYF.DP1.20002,32.959657,-87.408128,93,0.002,2011-01-17
NEON.D08.TALL.DP1.00033,32.95047,-87.393259,167,0.002,2011-01-17
NEON.D08.TOMB.DP1.20002,31.853431,-88.158872,10,-0.892,2011-01-17
NEON.D09.DCFS.DP1.00033,47.161647,-99.106556,574,1.482,2011-01-17
NEON.D09.NOGP.DP1.00033,46.76972,-100.91535,589,1.311,2011-01-17
NEON.D09.PRLA.DP1.20002,47.15909,-99.11388,563,1.428,2011-01-17
NEON.D09.PRPO.DP1.20002,47.12999,-99.250551,587,1.395,2011-01-17
NEON.D09.WOOD.DP1.00033,47.1282,-99.241334,585,1.395,2011-01-17
NEON.D10.ARIK.DP1.20002,39.758246,-102.447103,1188,-0.468,2011-01-17
NEON.D10.CPER.DP1.00033,40.81553,-104.7456,1600,0.303,2011-01-17
NEON.D10.HQTW.DP1.00033,40.016704,-105.245612,1601,-0.921,2011-01-17
NEON.D10.RMNP.DP1.00033,40.275903,-105.545955,2751,1.15,2011-01-17
NEON.D10.STER.DP1.00033,40.461894,-103.02929,1366,0.512,2011-01-17
NEON.D11.BLUE.DP1.20002,34.444218,-96.624201,288,-0.307,2011-01-17
NEON.D11.CLBJ.DP1.00033,33.40123,-97.57,279,-0.426,2011-01-17
NEON.D11.OAES.DP1.00033,35.41059,-99.05879,520,-0.262,2011-01-17
NEON.D11.PRIN.DP1.20002,33.37859,-97.78226,255,-0.637,2011-01-17
NEON.D12.BLDE.DP1.20002,44.95011,-110.58715,2035,1.367,2011-01-17
NEON.D12.YELL.DP1.00033,44.95348,-110.53914,2130,1.361,2011-01-17
NEON.D13.COMO.DP1.20002,40.03496,-105.54487,3036,0.421,2011-01-17
NEON.D13.MOAB.DP1.00033,38.24833,-109.38827,1803,0.375,2011-01-17
NEON.D13.NIWO.DP1.00033,40.05425,-105.58237,3493,0.87,2011-01-17
NEON.D13.WLOU.DP1.20002,39.891366,-105.915395,2920,0.415,2011-01-17
NEON.D14.JORN.DP1.00033,32.59068,-106.84254,1321,-2.035,2011-01-17
NEON.D14.SRER.DP1.00033,31.91068,-110.83549,999,-0.997,2011-01-17
NEON.D14.SYCA.DP1.20002,33.749057,-111.506903,644,-0.088,2011-01-17
NEON.D15.ONAQ.DP1.00033,40.177599,-112.452452,1655,1.433,2011-01-17
NEON.D15.REDB.DP1.20002,40.783934,-111.797887,1696,1.852,2011-01-17
NEON.D16.ABBY.DP1.00033,45.76243,-122.33033,390,0.619,2011-01-17
NEON.D16.MART.DP1.20002,45.791248,-121.931959,354,0.663,2011-01-17
NEON.D16.MCRA.DP1.20002,44.259598,-122.165554,880,0.421,2011-01-17
NEON.D16.WREF.DP1.00033,45.82049,-121.95191,368,0.485,2011-01-17
NEON.D17.BIGC.DP1.20002,37.059719,-119.257549,1133,1.515,2011-01-17
NEON.D17.SJER.DP1.00033,37.10878,-119.73228,398,1.7,2011-01-17
NEON.D17.SOAP.DP1.00033,37.03337,-119.26219,1210,1.589,2011-01-17
NEON.D17.TEAK.DP1.00033,37.00583,-119.00602,2149,1.622,2011-01-17
NEON.D17.TECR.DP1.20002,36.955931,-119.027363,2053,1.512,2011-01-17
NEON.D18.BARR.DP1.00033,71.28241,-156.61936,7,-9999.0,2011-01-17
NEON.D18.OKSR.DP1.20002,68.669753,-149.143018,773,-9999.0,2011-01-17
NEON.D18.TOOK.DP1.20002,68.629562,-149.610509,715,-9999.0,2011-01-17
NEON.D18.TOOL.DP1.00033,68.66109,-149.37047,827,-9999.0,2011-01-17
NEON.D19.BONA.DP1.00033,65.15401,-147.50258,233,-9999.0,2011-01-17
NEON.D19.CARI.DP1.20002,65.15306,-147.50246,229,-9999.0,2011-01-17
NEON.D19.DEJU.DP1.00033,63.88112,-145.75136,504,-9999.0,2011-01-17
NEON.D19.HEAL.DP1.00033,63.87569,-149.21334,409,-9999.0,2011-01-17
NEON.D20.PUUM.DP1.00033,19.55309,-155.31731,1683,-9999.0,2011-01-17
nevcansnk3a,39.0099,-114.3095,3063,2.183,2011-01-17
nevcanspg1a,38.9253,-114.4082,1792,1.953,2011-01-17
nevcanspg2a,38.8921,-114.3521,2203,2.056,2011-01-17
nevcanspg3a,38.8898,-114.3314,2820,2.11,2011-01-17
nevcanspg4a,38.9061,-114.3089,3360,2.11,2011-01-17
ninemileprairie,40.86801886,-96.82208066,381,-0.307,2011-01-17
nist,39.139,-77.2125,100,-1.351,2011-01-17
niwot3,40.03286358,-105.5469702,3050,0.421,2011-01-17
niwot5,40.03286358,-105.5469702,2993,0.421,2011-01-17
northattleboroma,41.98369,-71.31056,60,-0.109,2011-01-17
northinletsaltmarsh,33.3455,-79.1957,1,-1.051,2011-01-17
oakville,47.899334,-97.316139,268,1.213,2011-01-17
oregonMP,44.4523,-121.5574,1253,0.464,2011-01-17
oregonYP,44.32384,-121.605993,977,0.426,2011-01-17
oregonYPbud,44.3238,-121.606,977,0.426,2011-01-17
othshardwood,44.934805,-68.6655,41,1.045,2011-01-17
othssoftwood,44.934527,-68.664888,41,1.045,2011-01-17
pace,37.9229,-78.2739,100,-1.134,2011-01-17
parkschoolbuffalo,42.9637,-78.7834,205,-0.186,2011-01-17
piedmontalpasture2,33.8875,-85.6935,238,-0.361,2011-01-17
portal,31.9385,-109.0823,1330,-1.168,2011-01-17
proctor,44.525,-72.866,403,-0.097,2011-01-17
readingma,42.5304,-71.1272,100,-0.568,2011-01-17
robinson,37.4671,-83.1576,483,0.628,2011-01-17
robinson2,37.4671,-83.1576,483,0.628,2011-01-17
rosemountcons,44.6946,-93.0578,283,1.514,2011-01-17
rosemountconv,44.691,-93.0576,283,1.514,2011-01-17
rosemountnprs,44.6781,-93.0723,274,1.463,2011-01-17
russellsage,32.456961,-91.974322,20,-1.216,2011-01-17
sagehen,39.4315,-120.2398,1934,1.035,2011-01-17
sagehen2,39.4307,-120.2407,1937,1.035,2011-01-17
sagehen3,39.4311,-120.2405,1935,1.035,2011-01-17
sanford,42.726777,-84.464482,268,-0.937,2011-01-17
santacruz1,36.9741,-122.0308,11,0.718,2011-01-17
santacruz2,36.9741,-122.0308,11,0.718,2011-01-17
santaluciapreserve1,36.5265,-121.8682,500,0.567,2011-01-17
santaluciapreserve2,36.5265,-121.8682,500,0.567,2011-01-17
segaarboretum10,35.16209,-111.73151,2170,0.181,2011-01-17
segaarboretum2,35.16209,-111.73151,2170,0.181,2011-01-17
segaarboretum3,35.16209,-111.73151,2170,0.181,2011-01-17
segaarboretum4,35.16214,-111.73153,2170,0.181,2011-01-17
segaarboretum6,35.16209,-111.73151,2170,0.181,2011-01-17
segaarboretum9,35.16222,-111.73158,2170,0.181,2011-01-17
segaarboretumforest,35.1613,-111.7359,2173,0.181,2011-01-17
segaarboretummeadow,35.1621,-111.7316,2157,0.181,2011-01-17
segablackpoint,35.6814,-111.4754,1566,-0.66,2011-01-17
segabluechute,35.5876,-111.9716,1930,0.026,2011-01-17
segabluechute1,35.58759,-111.97115,1931,0.026,2011-01-17
segabluechute2,35.58759,-111.97115,1931,0.026,2011-01-17
segabluechute4,35.58759,-111.9716,1931,0.026,2011-01-17
segabluechute6,35.58759,-111.97115,1931,0.026,2011-01-17
segabluechute7,35.58759,-111.97115,1931,0.026,2011-01-17
segabluechute8,35.58759,-111.97115,1931,0.026,2011-01-17
segabradshaw,34.9109,-111.9285,1402,0.188,2011-01-17
segahartprairie,35.3536,-111.7324,2585,0.185,2011-01-17
segalcr,35.7231,-111.321,1275,-0.714,2011-01-17
segalcr2,35.7069,-111.36,1495,-0.724,2011-01-17
segalittlemountain,36.5865,-112.3634,2276,0.632,2011-01-17
segasoapcreek,36.751,-111.716,1233,-0.722,2011-01-17
segawhitepockets,36.6081,-112.4082,2057,0.708,2011-01-17
sevilletagrass,34.360444,-106.700186,1600,-1.265,2011-01-17
sevilletanewgrass,34.358,-106.6799,1603,-1.384,2011-01-17
sevilletashrub,34.334956,-106.744469,1603,-1.352,2011-01-17
sevMRME10L,34.3438,-106.7269,1604,-1.309,2011-01-17
sevMRME11C,34.3438,-106.7268,1604,-1.309,2011-01-17
sevMRME1S,34.3442,-106.7272,1604,-1.309,2011-01-17
sevpjrm12,34.38615,-106.52621,1905,-1.411,2011-01-17
sevpjrm13,34.38631,-106.52791,1914,-1.411,2011-01-17
shalehillsczo,40.6658,-77.9041,310,-0.176,2011-01-17
shenandoah,38.6167,-78.35,1037,-0.869,2011-01-17
silverton,44.9986,-122.6948,347,0.774,2011-01-17
siwetland,38.0369,-121.7546,-5,0.474,2011-01-17
slatefloodplain,38.9094,-107.0282,2725,1.474,2011-01-17
snodgrass1,38.92619636,-106.9714376,3023,1.446,2011-01-17
snodgrass2,38.92619636,-106.9714376,3023,1.446,2011-01-17
snodgrass3,38.92839978,-106.9781196,3141,1.446,2011-01-17
snodgrass4,38.92839978,-106.9781196,3141,1.446,2011-01-17
snodgrass5,38.92744789,-106.9785209,3152,1.446,2011-01-17
snodgrass6,38.92744789,-106.9785209,3152,1.446,2011-01-17
snodgrass7,38.93142134,-106.9852388,3363,1.519,2011-01-17
snodgrass8,38.93142134,-106.9852388,3363,1.519,2011-01-17
southerngreatplains,36.6058,-97.4888,314,-1.153,2011-01-17
springfieldma,42.135162,-72.585972,56,0.213,2011-01-17
spruceA0EMI,47.5049,-93.4541,413,1.757,2011-01-17
spruceA0EMT,47.5049,-93.4541,418,1.757,2011-01-17
spruceA0P07,47.50493,-93.45314,413,1.757,2011-01-17
spruceA0P07SH,47.50493,-93.45314,413,1.757,2011-01-17
spruceA0P21,47.50625,-93.45275,413,1.757,2011-01-17
spruceA0P21SH,47.50625,-93.45275,413,1.757,2011-01-17
srg,31.7894,-110.8276,1281,-0.902,2011-01-17
srm,31.8214,-110.8661,1116,-0.975,2011-01-17
statenrice1,38.1235,-121.549,-5,0.931,2011-01-17
stjones,39.088222,-75.43725,2,-1.46,2011-01-17
sweetbriar,37.57341,-79.08482,242,-0.997,2011-01-17
sweetbriarclearcut,37.5753,-79.0872,242,-0.997,2011-01-17
sweetbriargrass,37.5605,-79.0884,240,-0.997,2011-01-17
sylvania,46.242,-89.348,540,0.313,2011-01-17
templefieldstation1,40.1667,-75.1894,105,-1.261,2011-01-17
tfforest,43.1086,-70.9505,23,-0.386,2011-01-17
tidmarshplymouth,41.9157,-70.5754,9,-0.414,2011-01-17
tonzi,38.43091667,-120.9658861,177,1.269,2011-01-17
townsenddemeadow,39.3917,-75.6281,11,-1.219,2011-01-17
tsubiology,36.1671,-86.8295,164,-0.039,2011-01-17
tsubiology2,36.1171,-86.8295,100,0.086,2011-01-17
tuckerprairie,38.9491,-91.9952,274,-0.395,2011-01-17
twodafo,29.1658,-95.829,16,-0.987,2011-01-17
tworfaa,31.4777,-96.8882,167,-0.353,2011-01-17
tworfpr,31.4802,-96.8826,162,-0.336,2011-01-17
tworfta,31.4693,-96.8864,173,-0.353,2011-01-17
twosfpr,30.6176,-97.2938,157,-0.986,2011-01-17
ucnrsanzaborrego,33.2401,-116.3886,214,0.789,2011-01-17
ufona,27.3836,-81.950856,25,0.128,2011-01-17
uiefmaize2,40.0628,-88.1961,224,-0.053,2011-01-17
uiefmiscanthus2,40.0628,-88.1984,221,-0.053,2011-01-17
uiefprairie2,40.0637,-88.1973,224,-0.053,2011-01-17
uiefsorghum,40.0065,-88.2032,224,-0.102,2011-01-17
uiefswitchgrass2,40.0637,-88.1973,224,-0.053,2011-01-17
umichbiological,45.55984,-84.71382,230,-0.985,2011-01-17
umichbiological2,45.5625,-84.6976,240,-0.951,2011-01-17
unca,35.5951,-82.5515,650,-0.094,2011-01-17
usgseros,43.7343,-96.6234,448,0.658,2011-01-17
usmpj,34.43845,-106.2543606,2126,-1.248,2011-01-17
usof5,35.7297,-90.0406,70,-0.987,2011-01-17
usof6,35.7333,-90.0403,70,-0.987,2011-01-17
uwmfieldsta,43.38709,-88.0229,265,-0.266,2011-01-17
vaira,38.41328056,-120.9506361,129,1.269,2011-01-17
vallesburnedconifer,35.8884,-106.5321,3043,-0.403,2011-01-17
vallesmixedconifer,35.9192,-106.6142,2752,-0.261,2011-01-17
vallesponderosapine,35.864,-106.5964,2501,-0.278,2011-01-17
waahila,21.3017,-157.8152,55,-9999.0,2011-01-17
warrenwilson,35.6069,-82.4421,2198,-0.1,2011-01-17
willamettepoplar,44.1368,-123.1823,112,-0.016,2011-01-17
willowcreek,45.805986,-90.07912,521,0.634,2011-01-17
windriver,45.8212833,-121.9520833,371,0.485,2011-01-17
windriverunderstory,45.8212833,-121.9520833,371,0.485,2011-01-17
wolfesneckfarm,43.8305,-70.0715,16,0.373,2011-01-17
worcester,42.2697,-71.8428,185,-0.449,2011-01-17
alligatorriver,35.7879,-75.9038,1,-0.865,2011-01-24
arbutuslake,43.98207,-74.23322,535,-0.999,2011-01-24
arbutuslakeinlet,43.99336,-74.24527,527,-0.999,2011-01-24
archboldavir,27.176064,-81.21958,8,-0.39,2011-01-24
archboldavirx,27.166627,-81.219828,8,-0.39,2011-01-24
archboldbahia,27.1656,-81.216112,8,-0.39,2011-01-24
archboldpnot,27.187948,-81.200345,9,-0.39,2011-01-24
archboldpnotx,27.180677,-81.20068,9,-0.39,2011-01-24
arkansascornsoy,34.416,-91.6723,61,-1.136,2011-01-24
arsbrooks10,41.9749,-93.6905,312,0.046,2011-01-24
arsbrooks11,41.9744,-93.6937,313,0.046,2011-01-24
arscolesnorth,42.4884,-93.5225,356,0.386,2011-01-24
arscolessouth,42.4816,-93.5235,352,0.386,2011-01-24
arsgacp1,31.5109,-83.6179,96,-0.648,2011-01-24
arsgacp3,31.7563,-83.7516,139,-0.823,2011-01-24
arsgacp4,31.7093,-83.7287,127,-0.761,2011-01-24
arsgreatbasinltar098,43.1675,-116.7132,1426,0.635,2011-01-24
arsgreatbasinltar117,43.1432,-116.7357,1625,0.407,2011-01-24
arsgreatbasinltar177,43.0645,-116.7484,2114,0.21,2011-01-24
arsltarmdcr,39.0587,-75.8513,17,-1.318,2011-01-24
arsltarmdcrnatw,39.0575,-75.7531,16,-1.343,2011-01-24
arsltarmdcrprcw,39.0667,-75.7609,17,-1.343,2011-01-24
arsltarmdcrresw,39.0549,-75.7532,16,-1.343,2011-01-24
arsltarucbec1,40.7537,-78.0057,400,0.229,2011-01-24
arsltarucbec2,40.7558,-77.9999,396,0.229,2011-01-24
arsmnswanlake1,45.684508,-95.799703,370,0.754,2011-01-24
arsmorris1,45.6167,-96.1269,341,1.145,2011-01-24
arsmorris2,45.627,-96.127,338,1.145,2011-01-24
arsmorris3,45.6091,-96.1265,342,1.145,2011-01-24
arsope3ltar,39.0309,-76.8442,41,-1.702,2011-01-24
ashburnham,42.6029,-71.926,292,-0.165,2011-01-24
asuhighlands,36.2076,-81.7032,1016,-0.965,2011-01-24
austincary,29.738,-82.2188,44,-0.745,2011-01-24
barrow,71.28007453,-156.6091492,5,-9999.0,2011-01-24
bartlettir,44.0646,-71.2881,268,0.785,2011-01-24
bigtraillake,64.9194,-147.822,190,-9999.0,2011-01-24
bitterbrush001,48.154,-119.9456,667,0.103,2011-01-24
blackrockforest,41.3974,-74.0239,427,-0.108,2011-01-24
bnzblackspruce,64.6963,-148.3235,102,-9999.0,2011-01-24
bnzrichfen,64.70134,-148.31195,97,-9999.0,2011-01-24
bnzthermokarstbog,64.6955,-148.3208,104,-9999.0,2011-01-24
boglakepeatland,47.5051,-93.4893,416,0.611,2011-01-24
bostoncommon,42.355912,-71.064145,10,-0.281,2011-01-24
bostonu,42.35041,-71.10438,10,-0.18,2011-01-24
bouldinalfalfa,38.0985,-121.4993,-5,0.603,2011-01-24
bouldincorn,38.109,-121.535,-5,0.597,2011-01-24
bozeman,45.783056,-110.777778,2332,0.899,2011-01-24
brackishimpoundment,33.2015,-79.2973,1,-1.407,2011-01-24
bullshoals,36.562833,-93.06663,260,-1.864,2011-01-24
burnssagebrush,43.4712,-119.6909,1398,0.908,2011-01-24
butte,45.95304,-112.47964,1682,0.909,2011-01-24
butterice,39.5793,-121.858,33,0.33,2011-01-24
cafboydnorthltar01,46.755104,-117.126052,795,0.533,2011-01-24
cafboydsouthltar01,46.751809,-117.128502,795,0.533,2011-01-24
cafcookeastltar01,46.78152,-117.0821,794,0.568,2011-01-24
cafcookwestltar01,46.784037,-117.09083,807,0.568,2011-01-24
caryinstitute,41.7839,-73.7341,127,-0.375,2011-01-24
centralredwoods1,38.632272,-123.301511,200,-0.084,2011-01-24
centralredwoods2,38.632272,-123.301511,200,-0.084,2011-01-24
cperagm,40.8402,-104.7672,1644,-0.014,2011-01-24
cperheavy,40.8153,-104.7386,1652,0.32,2011-01-24
cpertgm,40.833,-104.76,1644,0.327,2011-01-24
cperuvb,40.8055764,-104.7558542,1641,0.327,2011-01-24
cuny,40.8162,-73.9507,42,-0.532,2011-01-24
doverdesaltmarsh,39.0888,-75.4368,0,-1.297,2011-01-24
downerwoods,43.07938,-87.88076,213,-0.908,2011-01-24
dukehw,35.973583,-79.100371,400,-2.025,2011-01-24
ecb1,41.5348,-84.8068,275,-0.523,2011-01-24
ecb2,41.5321,-84.808,275,-0.523,2011-01-24
ecb4,41.1796,-83.0604,240,-0.492,2011-01-24
elverde,18.320654,-65.8199,312,-9999.0,2011-01-24
flagstaff,35.17961521,-111.6049032,6983,0.248,2011-01-24
flagstaff2,35.179225,-111.604506,6983,0.248,2011-01-24
flagstaffchimneysprings,35.257296,-111.678542,2250,0.098,2011-01-24
forbes,39.232,-121.2972,360,0.584,2011-01-24
fortpaynealpasture1,34.3824,-85.6428,405,-0.369,2011-01-24
fortpaynealpasture2,34.3824,-85.6447,403,-0.369,2011-01-24
gcesapelo,31.4440444,-81.283528,0,-1.092,2011-01-24
gilberttract,38.0015,-121.6691,6,0.536,2011-01-24
glees,41.3644,-106.2394,3150,2.036,2011-01-24
glennorganicrice,39.6805,-122.0026,2,-0.183,2011-01-24
glennrice,39.5944,-122.0253,36,0.006,2011-01-24
goodnow,43.96018,-74.20994,820,-0.903,2011-01-24
goodwater,39.22848,-92.11936,264,-0.661,2011-01-24
goodwaterbau,39.23115,-92.15216,274,-0.635,2011-01-24
grandteton,43.915017,-110.578036,2054,0.781,2011-01-24
grca1pj,36.0241,-112.2211,1978,-0.319,2011-01-24
greenridge1,39.6905,-78.4067,285,-0.482,2011-01-24
harvard,42.5378,-72.1715,340,-0.326,2011-01-24
harvardbarn,42.53532,-72.1899,350,-0.328,2011-01-24
harvardbarn2,42.53532,-72.1899,350,-0.328,2011-01-24
harvardems2,42.5378,-72.1715,340,-0.326,2011-01-24
harvardfarmnorth,42.520465,-72.182242,355,-0.328,2011-01-24
harvardfarmsouth,42.522466,-72.182339,355,-0.328,2011-01-24
harvardgarden,42.5291,-72.1863,335,-0.328,2011-01-24
harvardhemlock,42.539,-72.18,355,-0.328,2011-01-24
harvardhemlock2,42.539407,-72.177976,355,-0.326,2011-01-24
harvardlph,42.542,-72.185,380,-0.328,2011-01-24
hawbeckereddy,40.6608,-77.848849,310,-0.158,2011-01-24
hobcawclearcutlongleaf,33.3486,-79.232,4,-1.361,2011-01-24
hobcawmaturelongleaf,33.3242,-79.2439,8,-1.361,2011-01-24
homesteadsprings,37.2009,-92.9937,452,-0.094,2011-01-24
howland1,45.2041,-68.7403,80,1.202,2011-01-24
howland2,45.2128,-68.7418,79,1.202,2011-01-24
hubbardbrook,43.9438,-71.701,253,0.206,2011-01-24
humnokericea,34.585192,-91.751684,61,-0.792,2011-01-24
humnokericec,34.588853,-91.7516729,70,-0.792,2011-01-24
huyckpreserveny,42.5266,-74.1587,478,0.413,2011-01-24
hwmo1,20.0212,-155.7331,585,-9999.0,2011-01-24
hwmo2,19.9766,-155.8298,12,-9999.0,2011-01-24
hwmo5,20.1117,-155.8151,635,-9999.0,2011-01-24
ibp,32.589,-106.847,1325,-2.03,2011-01-24
imcrkfen,68.60583,-149.31101,900,-9999.0,2011-01-24
imcrkridge0,68.60681,-149.2958,951,-9999.0,2011-01-24
imcrkridge1,68.60681,-149.2958,951,-9999.0,2011-01-24
imcrktussock,68.60633,-149.30408,918,-9999.0,2011-01-24
jasperridge,37.402028,-122.22104,197,0.368,2011-01-24
jerbajada,32.57992,-106.633793,1402,-2.059,2011-01-24
jergrassland,32.5833,-106.8333,1331,-2.03,2011-01-24
jernort,32.619,-106.788,1328,-1.957,2011-01-24
jernovel,32.6335,-106.8334,1324,-2.044,2011-01-24
jernwern,32.6271,-106.7387,1325,-2.005,2011-01-24
jersand,32.515,-106.798,1363,-2.565,2011-01-24
jershrubland,32.6502,-106.8334,1328,-2.082,2011-01-24
junipersavannah,34.4254,-105.8615,1931,-0.884,2011-01-24
kamuela,20.015008,-155.661326,850,-9999.0,2011-01-24
kamuela2,20.014959,-155.661139,830,-9999.0,2011-01-24
kansas,39.0561,-95.1907,333,-0.685,2011-01-24
kelloggcorn,42.437536,-85.3225472,288,-1.412,2011-01-24
kempnrs,45.83992,-89.67755,539,-0.738,2011-01-24
kendall,31.73652,-109.94185,1529,-1.302,2011-01-24
konza,39.0824,-96.5603,443,-0.311,2011-01-24
laupahoehoe,19.9322,-155.2912,1145,-9999.0,2011-01-24
ldeocam,41.0039,-73.9053,121,-0.557,2011-01-24
lostcreek,46.0827,-89.9792,480,-0.302,2011-01-24
luckyhills,31.743896,-110.052023,1366,-1.31,2011-01-24
macleish,42.4484,-72.6804,251,0.429,2011-01-24
macordway,44.8106,-93.0272,264,1.097,2011-01-24
mandanh5,46.775423,-100.95109,593,1.196,2011-01-24
mandani2,46.7614,-100.9257,590,1.192,2011-01-24
manilacotton,35.8872,-90.1371,73,-1.032,2011-01-24
marena,36.06434,-97.21271,327,-1.156,2011-01-24
mead1,41.1651,-96.4766,361,0.067,2011-01-24
mead2,41.1649,-96.4701,362,0.067,2011-01-24
mead3,41.1797,-96.4397,363,0.073,2011-01-24
meadpasture,41.1447,-96.4616,356,0.089,2011-01-24
meadpasturese,41.1447,-96.4616,356,0.089,2011-01-24
meadpasturesw,41.1447,-96.4616,356,0.089,2011-01-24
missouriozarks,38.7441,-92.2,219,-0.533,2011-01-24
morganmonroe,39.3231,-86.4131,275,-0.132,2011-01-24
morganmonroe2,39.3231,-86.4131,275,-0.132,2011-01-24
nahuku,19.415187,-155.238383,1202,-9999.0,2011-01-24
nationalelkrefuge,43.488931,-110.737824,1899,0.575,2011-01-24
ncssm,36.018446,-78.92075,175,-1.931,2011-01-24
NEON.D01.BART.DP1.00033,44.063869,-71.287375,285,0.785,2011-01-24
NEON.D01.HARV.DP1.00033,42.536911,-72.17265,359,-0.326,2011-01-24
NEON.D01.HOPB.DP1.20002,42.471786,-72.329627,203,-0.214,2011-01-24
NEON.D02.BLAN.DP1.00033,39.033698,-78.041788,162,-0.812,2011-01-24
NEON.D02.LEWI.DP1.20002,39.09564,-77.98322,152,-0.946,2011-01-24
NEON.D02.POSE.DP1.20002,38.89332,-78.14678,293,-0.996,2011-01-24
NEON.D02.SCBI.DP1.00033,38.892925,-78.139494,364,-0.943,2011-01-24
NEON.D02.SERC.DP1.00033,38.89008,-76.56001,30,-1.701,2011-01-24
NEON.D03.BARC.DP1.20002,29.676473,-82.009089,35,-0.842,2011-01-24
NEON.D03.DSNY.DP1.00033,28.12505,-81.43619,22,-0.348,2011-01-24
NEON.D03.FLNT.DP1.20002,31.185424,-84.437403,27,-0.567,2011-01-24
NEON.D03.JERC.DP1.00033,31.194839,-84.468623,58,-0.581,2011-01-24
NEON.D03.OSBS.DP1.00033,29.689282,-81.993431,56,-0.863,2011-01-24
NEON.D03.SUGG.DP1.20002,29.687054,-82.016171,28,-0.863,2011-01-24
NEON.D04.CUPE.DP1.20002,18.11352,-66.98676,164,-9999.0,2011-01-24
NEON.D04.GUAN.DP1.00033,17.96955,-66.8687,136,-9999.0,2011-01-24
NEON.D04.GUIL.DP1.20002,18.1741,-66.79851,564,-9999.0,2011-01-24
NEON.D04.LAJA.DP1.00033,18.021261,-67.076889,22,-9999.0,2011-01-24
NEON.D05.CRAM.DP1.20002,46.21111,-89.47825,518,-0.553,2011-01-24
NEON.D05.LIRO.DP1.20002,45.998269,-89.704767,495,-0.803,2011-01-24
NEON.D05.STEI.DP1.00033,45.50894,-89.58637,476,-0.259,2011-01-24
NEON.D05.TREE.DP1.00033,45.49373,-89.58572,474,-0.259,2011-01-24
NEON.D05.UNDE.DP1.00033,46.23391,-89.537254,529,-0.558,2011-01-24
NEON.D06.KING.DP1.20002,39.10506,-96.60336,339,-0.29,2011-01-24
NEON.D06.KONA.DP1.00033,39.110446,-96.612935,443,-0.29,2011-01-24
NEON.D06.KONZ.DP1.00033,39.10077,-96.56309,415,-0.311,2011-01-24
NEON.D06.MCDI.DP1.20002,38.94428,-96.44197,376,-0.529,2011-01-24
NEON.D06.UKFS.DP1.00033,39.040431,-95.19215,330,-0.685,2011-01-24
NEON.D07.GRSM.DP1.00033,35.68896,-83.50195,589,0.078,2011-01-24
NEON.D07.LECO.DP1.20002,35.69043,-83.50379,578,0.078,2011-01-24
NEON.D07.MLBS.DP1.00033,37.378314,-80.524847,1177,-0.87,2011-01-24
NEON.D07.ORNL.DP1.00033,35.964128,-84.282588,351,0.291,2011-01-24
NEON.D07.WALK.DP1.20002,35.95947,-84.28041,274,0.251,2011-01-24
NEON.D08.BLWA.DP1.20002,32.541529,-87.798151,23,-0.568,2011-01-24
NEON.D08.DELA.DP1.00033,32.541727,-87.803877,36,-0.568,2011-01-24
NEON.D08.LENO.DP1.00033,31.85388,-88.16122,10,-0.966,2011-01-24
NEON.D08.MAYF.DP1.20002,32.959657,-87.408128,93,-0.692,2011-01-24
NEON.D08.TALL.DP1.00033,32.95047,-87.393259,167,-0.692,2011-01-24
NEON.D08.TOMB.DP1.20002,31.853431,-88.158872,10,-0.966,2011-01-24
NEON.D09.DCFS.DP1.00033,47.161647,-99.106556,574,1.142,2011-01-24
NEON.D09.NOGP.DP1.00033,46.76972,-100.91535,589,1.192,2011-01-24
NEON.D09.PRLA.DP1.20002,47.15909,-99.11388,563,1.06,2011-01-24
NEON.D09.PRPO.DP1.20002,47.12999,-99.250551,587,1.092,2011-01-24
NEON.D09.WOOD.DP1.00033,47.1282,-99.241334,585,1.092,2011-01-24
NEON.D10.ARIK.DP1.20002,39.758246,-102.447103,1188,-0.151,2011-01-24
NEON.D10.CPER.DP1.00033,40.81553,-104.7456,1600,0.327,2011-01-24
NEON.D10.HQTW.DP1.00033,40.016704,-105.245612,1601,-0.716,2011-01-24
NEON.D10.RMNP.DP1.00033,40.275903,-105.545955,2751,0.469,2011-01-24
NEON.D10.STER.DP1.00033,40.461894,-103.02929,1366,0.675,2011-01-24
NEON.D11.BLUE.DP1.20002,34.444218,-96.624201,288,-0.53,2011-01-24
NEON.D11.CLBJ.DP1.00033,33.40123,-97.57,279,-0.691,2011-01-24
NEON.D11.OAES.DP1.00033,35.41059,-99.05879,520,-0.412,2011-01-24
NEON.D11.PRIN.DP1.20002,33.37859,-97.78226,255,-0.749,2011-01-24
NEON.D12.BLDE.DP1.20002,44.95011,-110.58715,2035,1.243,2011-01-24
NEON.D12.YELL.DP1.00033,44.95348,-110.53914,2130,1.287,2011-01-24
NEON.D13.COMO.DP1.20002,40.03496,-105.54487,3036,-0.069,2011-01-24
NEON.D13.MOAB.DP1.00033,38.24833,-109.38827,1803,0.083,2011-01-24
NEON.D13.NIWO.DP1.00033,40.05425,-105.58237,3493,0.306,2011-01-24
NEON.D13.WLOU.DP1.20002,39.891366,-105.915395,2920,-0.165,2011-01-24
NEON.D14.JORN.DP1.00033,32.59068,-106.84254,1321,-2.03,2011-01-24
NEON.D14.SRER.DP1.00033,31.91068,-110.83549,999,-1.092,2011-01-24
NEON.D14.SYCA.DP1.20002,33.749057,-111.506903,644,-0.13,2011-01-24
NEON.D15.ONAQ.DP1.00033,40.177599,-112.452452,1655,1.176,2011-01-24
NEON.D15.REDB.DP1.20002,40.783934,-111.797887,1696,1.533,2011-01-24
NEON.D16.ABBY.DP1.00033,45.76243,-122.33033,390,0.736,2011-01-24
NEON.D16.MART.DP1.20002,45.791248,-121.931959,354,0.706,2011-01-24
NEON.D16.MCRA.DP1.20002,44.259598,-122.165554,880,0.407,2011-01-24
NEON.D16.WREF.DP1.00033,45.82049,-121.95191,368,0.501,2011-01-24
NEON.D17.BIGC.DP1.20002,37.059719,-119.257549,1133,1.335,2011-01-24
NEON.D17.SJER.DP1.00033,37.10878,-119.73228,398,1.519,2011-01-24
NEON.D17.SOAP.DP1.00033,37.03337,-119.26219,1210,1.426,2011-01-24
NEON.D17.TEAK.DP1.00033,37.00583,-119.00602,2149,1.495,2011-01-24
NEON.D17.TECR.DP1.20002,36.955931,-119.027363,2053,1.383,2011-01-24
NEON.D18.BARR.DP1.00033,71.28241,-156.61936,7,-9999.0,2011-01-24
NEON.D18.OKSR.DP1.20002,68.669753,-149.143018,773,-9999.0,2011-01-24
NEON.D18.TOOK.DP1.20002,68.629562,-149.610509,715,-9999.0,2011-01-24
NEON.D18.TOOL.DP1.00033,68.66109,-149.37047,827,-9999.0,2011-01-24
NEON.D19.BONA.DP1.00033,65.15401,-147.50258,233,-9999.0,2011-01-24
NEON.D19.CARI.DP1.20002,65.15306,-147.50246,229,-9999.0,2011-01-24
NEON.D19.DEJU.DP1.00033,63.88112,-145.75136,504,-9999.0,2011-01-24
NEON.D19.HEAL.DP1.00033,63.87569,-149.21334,409,-9999.0,2011-01-24
NEON.D20.PUUM.DP1.00033,19.55309,-155.31731,1683,-9999.0,2011-01-24
nevcansnk3a,39.0099,-114.3095,3063,2.152,2011-01-24
nevcanspg1a,38.9253,-114.4082,1792,2.101,2011-01-24
nevcanspg2a,38.8921,-114.3521,2203,2.115,2011-01-24
nevcanspg3a,38.8898,-114.3314,2820,2.078,2011-01-24
nevcanspg4a,38.9061,-114.3089,3360,2.078,2011-01-24
ninemileprairie,40.86801886,-96.82208066,381,-0.109,2011-01-24
nist,39.139,-77.2125,100,-1.608,2011-01-24
niwot3,40.03286358,-105.5469702,3050,-0.069,2011-01-24
niwot5,40.03286358,-105.5469702,2993,-0.069,2011-01-24
northattleboroma,41.98369,-71.31056,60,0.192,2011-01-24
northinletsaltmarsh,33.3455,-79.1957,1,-1.36,2011-01-24
oakville,47.899334,-97.316139,268,-0.021,2011-01-24
oregonMP,44.4523,-121.5574,1253,0.242,2011-01-24
oregonYP,44.32384,-121.605993,977,0.203,2011-01-24
oregonYPbud,44.3238,-121.606,977,0.203,2011-01-24
othshardwood,44.934805,-68.6655,41,1.079,2011-01-24
othssoftwood,44.934527,-68.664888,41,1.079,2011-01-24
pace,37.9229,-78.2739,100,-1.517,2011-01-24
parkschoolbuffalo,42.9637,-78.7834,205,-0.294,2011-01-24
piedmontalpasture2,33.8875,-85.6935,238,-0.928,2011-01-24
portal,31.9385,-109.0823,1330,-1.179,2011-01-24
proctor,44.525,-72.866,403,0.092,2011-01-24
readingma,42.5304,-71.1272,100,-0.164,2011-01-24
robinson,37.4671,-83.1576,483,0.31,2011-01-24
robinson2,37.4671,-83.1576,483,0.31,2011-01-24
rosemountcons,44.6946,-93.0578,283,1.109,2011-01-24
rosemountconv,44.691,-93.0576,283,1.109,2011-01-24
rosemountnprs,44.6781,-93.0723,274,1.056,2011-01-24
russellsage,32.456961,-91.974322,20,-1.008,2011-01-24
sagehen,39.4315,-120.2398,1934,0.546,2011-01-24
sagehen2,39.4307,-120.2407,1937,0.546,2011-01-24
sagehen3,39.4311,-120.2405,1935,0.546,2011-01-24
sanford,42.726777,-84.464482,268,-1.172,2011-01-24
santacruz1,36.9741,-122.0308,11,0.354,2011-01-24
santacruz2,36.9741,-122.0308,11,0.354,2011-01-24
santaluciapreserve1,36.5265,-121.8682,500,0.253,2011-01-24
santaluciapreserve2,36.5265,-121.8682,500,0.253,2011-01-24
segaarboretum10,35.16209,-111.73151,2170,0.124,2011-01-24
segaarboretum2,35.16209,-111.73151,2170,0.124,2011-01-24
segaarboretum3,35.16209,-111.73151,2170,0.124,2011-01-24
segaarboretum4,35.16214,-111.73153,2170,0.124,2011-01-24
segaarboretum6,35.16209,-111.73151,2170,0.124,2011-01-24
segaarboretum9,35.16222,-111.73158,2170,0.124,2011-01-24
segaarboretumforest,35.1613,-111.7359,2173,0.124,2011-01-24
segaarboretummeadow,35.1621,-111.7316,2157,0.124,2011-01-24
segablackpoint,35.6814,-111.4754,1566,-0.489,2011-01-24
segabluechute,35.5876,-111.9716,1930,-0.027,2011-01-24
segabluechute1,35.58759,-111.97115,1931,-0.027,2011-01-24
segabluechute2,35.58759,-111.97115,1931,-0.027,2011-01-24
segabluechute4,35.58759,-111.9716,1931,-0.027,2011-01-24
segabluechute6,35.58759,-111.97115,1931,-0.027,2011-01-24
segabluechute7,35.58759,-111.97115,1931,-0.027,2011-01-24
segabluechute8,35.58759,-111.97115,1931,-0.027,2011-01-24
segabradshaw,34.9109,-111.9285,1402,0.11,2011-01-24
segahartprairie,35.3536,-111.7324,2585,0.107,2011-01-24
segalcr,35.7231,-111.321,1275,-0.566,2011-01-24
segalcr2,35.7069,-111.36,1495,-0.526,2011-01-24
segalittlemountain,36.5865,-112.3634,2276,0.505,2011-01-24
segasoapcreek,36.751,-111.716,1233,-0.868,2011-01-24
segawhitepockets,36.6081,-112.4082,2057,0.598,2011-01-24
sevilletagrass,34.360444,-106.700186,1600,-1.158,2011-01-24
sevilletanewgrass,34.358,-106.6799,1603,-1.367,2011-01-24
sevilletashrub,34.334956,-106.744469,1603,-1.063,2011-01-24
sevMRME10L,34.3438,-106.7269,1604,-1.045,2011-01-24
sevMRME11C,34.3438,-106.7268,1604,-1.045,2011-01-24
sevMRME1S,34.3442,-106.7272,1604,-1.045,2011-01-24
sevpjrm12,34.38615,-106.52621,1905,-1.421,2011-01-24
sevpjrm13,34.38631,-106.52791,1914,-1.421,2011-01-24
shalehillsczo,40.6658,-77.9041,310,-0.091,2011-01-24
shenandoah,38.6167,-78.35,1037,-1.268,2011-01-24
silverton,44.9986,-122.6948,347,0.771,2011-01-24
siwetland,38.0369,-121.7546,-5,0.32,2011-01-24
slatefloodplain,38.9094,-107.0282,2725,1.118,2011-01-24
snodgrass1,38.92619636,-106.9714376,3023,1.071,2011-01-24
snodgrass2,38.92619636,-106.9714376,3023,1.071,2011-01-24
snodgrass3,38.92839978,-106.9781196,3141,1.071,2011-01-24
snodgrass4,38.92839978,-106.9781196,3141,1.071,2011-01-24
snodgrass5,38.92744789,-106.9785209,3152,1.071,2011-01-24
snodgrass6,38.92744789,-106.9785209,3152,1.071,2011-01-24
snodgrass7,38.93142134,-106.9852388,3363,1.149,2011-01-24
snodgrass8,38.93142134,-106.9852388,3363,1.149,2011-01-24
southerngreatplains,36.6058,-97.4888,314,-1.17,2011-01-24
springfieldma,42.135162,-72.585972,56,0.313,2011-01-24
spruceA0EMI,47.5049,-93.4541,413,0.659,2011-01-24
spruceA0EMT,47.5049,-93.4541,418,0.659,2011-01-24
spruceA0P07,47.50493,-93.45314,413,0.659,2011-01-24
spruceA0P07SH,47.50493,-93.45314,413,0.659,2011-01-24
spruceA0P21,47.50625,-93.45275,413,0.659,2011-01-24
spruceA0P21SH,47.50625,-93.45275,413,0.659,2011-01-24
srg,31.7894,-110.8276,1281,-1.011,2011-01-24
srm,31.8214,-110.8661,1116,-1.073,2011-01-24
statenrice1,38.1235,-121.549,-5,0.565,2011-01-24
stjones,39.088222,-75.43725,2,-1.297,2011-01-24
sweetbriar,37.57341,-79.08482,242,-1.434,2011-01-24
sweetbriarclearcut,37.5753,-79.0872,242,-1.434,2011-01-24
sweetbriargrass,37.5605,-79.0884,240,-1.434,2011-01-24
sylvania,46.242,-89.348,540,-0.548,2011-01-24
templefieldstation1,40.1667,-75.1894,105,-0.852,2011-01-24
tfforest,43.1086,-70.9505,23,-0.094,2011-01-24
tidmarshplymouth,41.9157,-70.5754,9,-0.225,2011-01-24
tonzi,38.43091667,-120.9658861,177,0.632,2011-01-24
townsenddemeadow,39.3917,-75.6281,11,-1.169,2011-01-24
tsubiology,36.1671,-86.8295,164,-0.561,2011-01-24
tsubiology2,36.1171,-86.8295,100,-0.61,2011-01-24
tuckerprairie,38.9491,-91.9952,274,-0.223,2011-01-24
twodafo,29.1658,-95.829,16,-0.865,2011-01-24
tworfaa,31.4777,-96.8882,167,-0.21,2011-01-24
tworfpr,31.4802,-96.8826,162,-0.18,2011-01-24
tworfta,31.4693,-96.8864,173,-0.21,2011-01-24
twosfpr,30.6176,-97.2938,157,-0.544,2011-01-24
ucnrsanzaborrego,33.2401,-116.3886,214,0.591,2011-01-24
ufona,27.3836,-81.950856,25,0.373,2011-01-24
uiefmaize2,40.0628,-88.1961,224,-0.137,2011-01-24
uiefmiscanthus2,40.0628,-88.1984,221,-0.137,2011-01-24
uiefprairie2,40.0637,-88.1973,224,-0.137,2011-01-24
uiefsorghum,40.0065,-88.2032,224,-0.175,2011-01-24
uiefswitchgrass2,40.0637,-88.1973,224,-0.137,2011-01-24
umichbiological,45.55984,-84.71382,230,-1.168,2011-01-24
umichbiological2,45.5625,-84.6976,240,-1.197,2011-01-24
unca,35.5951,-82.5515,650,-0.678,2011-01-24
usgseros,43.7343,-96.6234,448,0.426,2011-01-24
usmpj,34.43845,-106.2543606,2126,-1.264,2011-01-24
usof5,35.7297,-90.0406,70,-1.25,2011-01-24
usof6,35.7333,-90.0403,70,-1.25,2011-01-24
uwmfieldsta,43.38709,-88.0229,265,-0.795,2011-01-24
vaira,38.41328056,-120.9506361,129,0.632,2011-01-24
vallesburnedconifer,35.8884,-106.5321,3043,-0.786,2011-01-24
vallesmixedconifer,35.9192,-106.6142,2752,-0.637,2011-01-24
vallesponderosapine,35.864,-106.5964,2501,-0.646,2011-01-24
waahila,21.3017,-157.8152,55,-9999.0,2011-01-24
warrenwilson,35.6069,-82.4421,2198,-0.722,2011-01-24
willamettepoplar,44.1368,-123.1823,112,-0.405,2011-01-24
willowcreek,45.805986,-90.07912,521,-0.364,2011-01-24
windriver,45.8212833,-121.9520833,371,0.501,2011-01-24
windriverunderstory,45.8212833,-121.9520833,371,0.501,2011-01-24
wolfesneckfarm,43.8305,-70.0715,16,0.32,2011-01-24
worcester,42.2697,-71.8428,185,-0.19,2011-01-24
alligatorriver,35.7879,-75.9038,1,-1.126,2011-01-31
arbutuslake,43.98207,-74.23322,535,-1.378,2011-01-31
arbutuslakeinlet,43.99336,-74.24527,527,-1.378,2011-01-31
archboldavir,27.176064,-81.21958,8,-0.346,2011-01-31
archboldavirx,27.166627,-81.219828,8,-0.346,2011-01-31
archboldbahia,27.1656,-81.216112,8,-0.346,2011-01-31
archboldpnot,27.187948,-81.200345,9,-0.346,2011-01-31
archboldpnotx,27.180677,-81.20068,9,-0.346,2011-01-31
arkansascornsoy,34.416,-91.6723,61,-1.27,2011-01-31
arsbrooks10,41.9749,-93.6905,312,0.334,2011-01-31
arsbrooks11,41.9744,-93.6937,313,0.334,2011-01-31
arscolesnorth,42.4884,-93.5225,356,0.598,2011-01-31
arscolessouth,42.4816,-93.5235,352,0.598,2011-01-31
arsgacp1,31.5109,-83.6179,96,-0.471,2011-01-31
arsgacp3,31.7563,-83.7516,139,-0.64,2011-01-31
arsgacp4,31.7093,-83.7287,127,-0.547,2011-01-31
arsgreatbasinltar098,43.1675,-116.7132,1426,0.585,2011-01-31
arsgreatbasinltar117,43.1432,-116.7357,1625,0.375,2011-01-31
arsgreatbasinltar177,43.0645,-116.7484,2114,0.181,2011-01-31
arsltarmdcr,39.0587,-75.8513,17,-1.474,2011-01-31
arsltarmdcrnatw,39.0575,-75.7531,16,-1.538,2011-01-31
arsltarmdcrprcw,39.0667,-75.7609,17,-1.538,2011-01-31
arsltarmdcrresw,39.0549,-75.7532,16,-1.538,2011-01-31
arsltarucbec1,40.7537,-78.0057,400,0.051,2011-01-31
arsltarucbec2,40.7558,-77.9999,396,0.051,2011-01-31
arsmnswanlake1,45.684508,-95.799703,370,1.001,2011-01-31
arsmorris1,45.6167,-96.1269,341,1.441,2011-01-31
arsmorris2,45.627,-96.127,338,1.441,2011-01-31
arsmorris3,45.6091,-96.1265,342,1.441,2011-01-31
arsope3ltar,39.0309,-76.8442,41,-1.788,2011-01-31
ashburnham,42.6029,-71.926,292,-0.432,2011-01-31
asuhighlands,36.2076,-81.7032,1016,-0.897,2011-01-31
austincary,29.738,-82.2188,44,-0.512,2011-01-31
barrow,71.28007453,-156.6091492,5,-9999.0,2011-01-31
bartlettir,44.0646,-71.2881,268,0.564,2011-01-31
bigtraillake,64.9194,-147.822,190,-9999.0,2011-01-31
bitterbrush001,48.154,-119.9456,667,-0.093,2011-01-31
blackrockforest,41.3974,-74.0239,427,-0.211,2011-01-31
bnzblackspruce,64.6963,-148.3235,102,-9999.0,2011-01-31
bnzrichfen,64.70134,-148.31195,97,-9999.0,2011-01-31
bnzthermokarstbog,64.6955,-148.3208,104,-9999.0,2011-01-31
boglakepeatland,47.5051,-93.4893,416,0.929,2011-01-31
bostoncommon,42.355912,-71.064145,10,-0.219,2011-01-31
bostonu,42.35041,-71.10438,10,-0.136,2011-01-31
bouldinalfalfa,38.0985,-121.4993,-5,0.438,2011-01-31
bouldincorn,38.109,-121.535,-5,0.433,2011-01-31
bozeman,45.783056,-110.777778,2332,1.137,2011-01-31
brackishimpoundment,33.2015,-79.2973,1,-1.195,2011-01-31
bullshoals,36.562833,-93.06663,260,-2.041,2011-01-31
burnssagebrush,43.4712,-119.6909,1398,0.907,2011-01-31
butte,45.95304,-112.47964,1682,1.121,2011-01-31
butterice,39.5793,-121.858,33,0.203,2011-01-31
cafboydnorthltar01,46.755104,-117.126052,795,0.541,2011-01-31
cafboydsouthltar01,46.751809,-117.128502,795,0.541,2011-01-31
cafcookeastltar01,46.78152,-117.0821,794,0.582,2011-01-31
cafcookwestltar01,46.784037,-117.09083,807,0.582,2011-01-31
caryinstitute,41.7839,-73.7341,127,-0.771,2011-01-31
centralredwoods1,38.632272,-123.301511,200,-0.2,2011-01-31
centralredwoods2,38.632272,-123.301511,200,-0.2,2011-01-31
cperagm,40.8402,-104.7672,1644,0.218,2011-01-31
cperheavy,40.8153,-104.7386,1652,0.543,2011-01-31
cpertgm,40.833,-104.76,1644,0.55,2011-01-31
cperuvb,40.8055764,-104.7558542,1641,0.55,2011-01-31
cuny,40.8162,-73.9507,42,-0.371,2011-01-31
doverdesaltmarsh,39.0888,-75.4368,0,-1.538,2011-01-31
downerwoods,43.07938,-87.88076,213,-0.821,2011-01-31
dukehw,35.973583,-79.100371,400,-2.232,2011-01-31
ecb1,41.5348,-84.8068,275,-0.407,2011-01-31
ecb2,41.5321,-84.808,275,-0.407,2011-01-31
ecb4,41.1796,-83.0604,240,-0.493,2011-01-31
elverde,18.320654,-65.8199,312,-9999.0,2011-01-31
flagstaff,35.17961521,-111.6049032,6983,0.242,2011-01-31
flagstaff2,35.179225,-111.604506,6983,0.242,2011-01-31
flagstaffchimneysprings,35.257296,-111.678542,2250,0.079,2011-01-31
forbes,39.232,-121.2972,360,0.461,2011-01-31
fortpaynealpasture1,34.3824,-85.6428,405,-0.394,2011-01-31
fortpaynealpasture2,34.3824,-85.6447,403,-0.394,2011-01-31
gcesapelo,31.4440444,-81.283528,0,-0.691,2011-01-31
gilberttract,38.0015,-121.6691,6,0.374,2011-01-31
glees,41.3644,-106.2394,3150,2.208,2011-01-31
glennorganicrice,39.6805,-122.0026,2,-0.321,2011-01-31
glennrice,39.5944,-122.0253,36,-0.137,2011-01-31
goodnow,43.96018,-74.20994,820,-1.273,2011-01-31
goodwater,39.22848,-92.11936,264,-0.467,2011-01-31
goodwaterbau,39.23115,-92.15216,274,-0.436,2011-01-31
grandteton,43.915017,-110.578036,2054,0.665,2011-01-31
grca1pj,36.0241,-112.2211,1978,-0.361,2011-01-31
greenridge1,39.6905,-78.4067,285,-0.699,2011-01-31
harvard,42.5378,-72.1715,340,-0.626,2011-01-31
harvardbarn,42.53532,-72.1899,350,-0.645,2011-01-31
harvardbarn2,42.53532,-72.1899,350,-0.645,2011-01-31
harvardems2,42.5378,-72.1715,340,-0.626,2011-01-31
harvardfarmnorth,42.520465,-72.182242,355,-0.645,2011-01-31
harvardfarmsouth,42.522466,-72.182339,355,-0.645,2011-01-31
harvardgarden,42.5291,-72.1863,335,-0.645,2011-01-31
harvardhemlock,42.539,-72.18,355,-0.645,2011-01-31
harvardhemlock2,42.539407,-72.177976,355,-0.626,2011-01-31
harvardlph,42.542,-72.185,380,-0.645,2011-01-31
hawbeckereddy,40.6608,-77.848849,310,-0.409,2011-01-31
hobcawclearcutlongleaf,33.3486,-79.232,4,-1.16,2011-01-31
hobcawmaturelongleaf,33.3242,-79.2439,8,-1.16,2011-01-31
homesteadsprings,37.2009,-92.9937,452,-0.292,2011-01-31
howland1,45.2041,-68.7403,80,1.193,2011-01-31
howland2,45.2128,-68.7418,79,1.193,2011-01-31
hubbardbrook,43.9438,-71.701,253,-0.191,2011-01-31
humnokericea,34.585192,-91.751684,61,-0.798,2011-01-31
humnokericec,34.588853,-91.7516729,70,-0.798,2011-01-31
huyckpreserveny,42.5266,-74.1587,478,0.205,2011-01-31
hwmo1,20.0212,-155.7331,585,-9999.0,2011-01-31
hwmo2,19.9766,-155.8298,12,-9999.0,2011-01-31
hwmo5,20.1117,-155.8151,635,-9999.0,2011-01-31
ibp,32.589,-106.847,1325,-2.232,2011-01-31
imcrkfen,68.60583,-149.31101,900,-9999.0,2011-01-31
imcrkridge0,68.60681,-149.2958,951,-9999.0,2011-01-31
imcrkridge1,68.60681,-149.2958,951,-9999.0,2011-01-31
imcrktussock,68.60633,-149.30408,918,-9999.0,2011-01-31
jasperridge,37.402028,-122.22104,197,0.196,2011-01-31
jerbajada,32.57992,-106.633793,1402,-2.233,2011-01-31
jergrassland,32.5833,-106.8333,1331,-2.232,2011-01-31
jernort,32.619,-106.788,1328,-2.151,2011-01-31
jernovel,32.6335,-106.8334,1324,-2.25,2011-01-31
jernwern,32.6271,-106.7387,1325,-2.233,2011-01-31
jersand,32.515,-106.798,1363,-2.792,2011-01-31
jershrubland,32.6502,-106.8334,1328,-2.297,2011-01-31
junipersavannah,34.4254,-105.8615,1931,-0.851,2011-01-31
kamuela,20.015008,-155.661326,850,-9999.0,2011-01-31
kamuela2,20.014959,-155.661139,830,-9999.0,2011-01-31
kansas,39.0561,-95.1907,333,-0.412,2011-01-31
kelloggcorn,42.437536,-85.3225472,288,-1.406,2011-01-31
kempnrs,45.83992,-89.67755,539,-0.657,2011-01-31
kendall,31.73652,-109.94185,1529,-1.35,2011-01-31
konza,39.0824,-96.5603,443,-0.011,2011-01-31
laupahoehoe,19.9322,-155.2912,1145,-9999.0,2011-01-31
ldeocam,41.0039,-73.9053,121,-0.651,2011-01-31
lostcreek,46.0827,-89.9792,480,-0.207,2011-01-31
luckyhills,31.743896,-110.052023,1366,-1.35,2011-01-31
macleish,42.4484,-72.6804,251,0.233,2011-01-31
macordway,44.8106,-93.0272,264,1.293,2011-01-31
mandanh5,46.775423,-100.95109,593,1.541,2011-01-31
mandani2,46.7614,-100.9257,590,1.526,2011-01-31
manilacotton,35.8872,-90.1371,73,-1.05,2011-01-31
marena,36.06434,-97.21271,327,-1.051,2011-01-31
mead1,41.1651,-96.4766,361,0.535,2011-01-31
mead2,41.1649,-96.4701,362,0.535,2011-01-31
mead3,41.1797,-96.4397,363,0.557,2011-01-31
meadpasture,41.1447,-96.4616,356,0.534,2011-01-31
meadpasturese,41.1447,-96.4616,356,0.534,2011-01-31
meadpasturesw,41.1447,-96.4616,356,0.534,2011-01-31
missouriozarks,38.7441,-92.2,219,-0.375,2011-01-31
morganmonroe,39.3231,-86.4131,275,-0.077,2011-01-31
morganmonroe2,39.3231,-86.4131,275,-0.077,2011-01-31
nahuku,19.415187,-155.238383,1202,-9999.0,2011-01-31
nationalelkrefuge,43.488931,-110.737824,1899,0.547,2011-01-31
ncssm,36.018446,-78.92075,175,-2.146,2011-01-31
NEON.D01.BART.DP1.00033,44.063869,-71.287375,285,0.564,2011-01-31
NEON.D01.HARV.DP1.00033,42.536911,-72.17265,359,-0.626,2011-01-31
NEON.D01.HOPB.DP1.20002,42.471786,-72.329627,203,-0.523,2011-01-31
NEON.D02.BLAN.DP1.00033,39.033698,-78.041788,162,-0.887,2011-01-31
NEON.D02.LEWI.DP1.20002,39.09564,-77.98322,152,-1.072,2011-01-31
NEON.D02.POSE.DP1.20002,38.89332,-78.14678,293,-1.015,2011-01-31
NEON.D02.SCBI.DP1.00033,38.892925,-78.139494,364,-0.956,2011-01-31
NEON.D02.SERC.DP1.00033,38.89008,-76.56001,30,-1.822,2011-01-31
NEON.D03.BARC.DP1.20002,29.676473,-82.009089,35,-0.641,2011-01-31
NEON.D03.DSNY.DP1.00033,28.12505,-81.43619,22,-0.2,2011-01-31
NEON.D03.FLNT.DP1.20002,31.185424,-84.437403,27,-0.616,2011-01-31
NEON.D03.JERC.DP1.00033,31.194839,-84.468623,58,-0.613,2011-01-31
NEON.D03.OSBS.DP1.00033,29.689282,-81.993431,56,-0.687,2011-01-31
NEON.D03.SUGG.DP1.20002,29.687054,-82.016171,28,-0.687,2011-01-31
NEON.D04.CUPE.DP1.20002,18.11352,-66.98676,164,-9999.0,2011-01-31
NEON.D04.GUAN.DP1.00033,17.96955,-66.8687,136,-9999.0,2011-01-31
NEON.D04.GUIL.DP1.20002,18.1741,-66.79851,564,-9999.0,2011-01-31
NEON.D04.LAJA.DP1.00033,18.021261,-67.076889,22,-9999.0,2011-01-31
NEON.D05.CRAM.DP1.20002,46.21111,-89.47825,518,-0.424,2011-01-31
NEON.D05.LIRO.DP1.20002,45.998269,-89.704767,495,-0.777,2011-01-31
NEON.D05.STEI.DP1.00033,45.50894,-89.58637,476,-0.169,2011-01-31
NEON.D05.TREE.DP1.00033,45.49373,-89.58572,474,-0.169,2011-01-31
NEON.D05.UNDE.DP1.00033,46.23391,-89.537254,529,-0.453,2011-01-31
NEON.D06.KING.DP1.20002,39.10506,-96.60336,339,0.01,2011-01-31
NEON.D06.KONA.DP1.00033,39.110446,-96.612935,443,0.01,2011-01-31
NEON.D06.KONZ.DP1.00033,39.10077,-96.56309,415,-0.011,2011-01-31
NEON.D06.MCDI.DP1.20002,38.94428,-96.44197,376,-0.292,2011-01-31
NEON.D06.UKFS.DP1.00033,39.040431,-95.19215,330,-0.412,2011-01-31
NEON.D07.GRSM.DP1.00033,35.68896,-83.50195,589,-0.215,2011-01-31
NEON.D07.LECO.DP1.20002,35.69043,-83.50379,578,-0.215,2011-01-31
NEON.D07.MLBS.DP1.00033,37.378314,-80.524847,1177,-1.429,2011-01-31
NEON.D07.ORNL.DP1.00033,35.964128,-84.282588,351,0.106,2011-01-31
NEON.D07.WALK.DP1.20002,35.95947,-84.28041,274,0.059,2011-01-31
NEON.D08.BLWA.DP1.20002,32.541529,-87.798151,23,-0.528,2011-01-31
NEON.D08.DELA.DP1.00033,32.541727,-87.803877,36,-0.528,2011-01-31
NEON.D08.LENO.DP1.00033,31.85388,-88.16122,10,-1.109,2011-01-31
NEON.D08.MAYF.DP1.20002,32.959657,-87.408128,93,-0.887,2011-01-31
NEON.D08.TALL.DP1.00033,32.95047,-87.393259,167,-0.887,2011-01-31
NEON.D08.TOMB.DP1.20002,31.853431,-88.158872,10,-1.109,2011-01-31
NEON.D09.DCFS.DP1.00033,47.161647,-99.106556,574,1.492,2011-01-31
NEON.D09.NOGP.DP1.00033,46.76972,-100.91535,589,1.526,2011-01-31
NEON.D09.PRLA.DP1.20002,47.15909,-99.11388,563,1.397,2011-01-31
NEON.D09.PRPO.DP1.20002,47.12999,-99.250551,587,1.406,2011-01-31
NEON.D09.WOOD.DP1.00033,47.1282,-99.241334,585,1.406,2011-01-31
NEON.D10.ARIK.DP1.20002,39.758246,-102.447103,1188,0.075,2011-01-31
NEON.D10.CPER.DP1.00033,40.81553,-104.7456,1600,0.55,2011-01-31
NEON.D10.HQTW.DP1.00033,40.016704,-105.245612,1601,-0.539,2011-01-31
NEON.D10.RMNP.DP1.00033,40.275903,-105.545955,2751,0.956,2011-01-31
NEON.D10.STER.DP1.00033,40.461894,-103.02929,1366,0.859,2011-01-31
NEON.D11.BLUE.DP1.20002,34.444218,-96.624201,288,-0.46,2011-01-31
NEON.D11.CLBJ.DP1.00033,33.40123,-97.57,279,-0.679,2011-01-31
NEON.D11.OAES.DP1.00033,35.41059,-99.05879,520,-0.41,2011-01-31
NEON.D11.PRIN.DP1.20002,33.37859,-97.78226,255,-0.771,2011-01-31
NEON.D12.BLDE.DP1.20002,44.95011,-110.58715,2035,1.424,2011-01-31
NEON.D12.YELL.DP1.00033,44.95348,-110.53914,2130,1.393,2011-01-31
NEON.D13.COMO.DP1.20002,40.03496,-105.54487,3036,0.475,2011-01-31
NEON.D13.MOAB.DP1.00033,38.24833,-109.38827,1803,0.142,2011-01-31
NEON.D13.NIWO.DP1.00033,40.05425,-105.58237,3493,0.839,2011-01-31
NEON.D13.WLOU.DP1.20002,39.891366,-105.915395,2920,0.037,2011-01-31
NEON.D14.JORN.DP1.00033,32.59068,-106.84254,1321,-2.232,2011-01-31
NEON.D14.SRER.DP1.00033,31.91068,-110.83549,999,-1.103,2011-01-31
NEON.D14.SYCA.DP1.20002,33.749057,-111.506903,644,-0.13,2011-01-31
NEON.D15.ONAQ.DP1.00033,40.177599,-112.452452,1655,1.329,2011-01-31
NEON.D15.REDB.DP1.20002,40.783934,-111.797887,1696,1.515,2011-01-31
NEON.D16.ABBY.DP1.00033,45.76243,-122.33033,390,0.559,2011-01-31
NEON.D16.MART.DP1.20002,45.791248,-121.931959,354,0.545,2011-01-31
NEON.D16.MCRA.DP1.20002,44.259598,-122.165554,880,0.351,2011-01-31
NEON.D16.WREF.DP1.00033,45.82049,-121.95191,368,0.334,2011-01-31
NEON.D17.BIGC.DP1.20002,37.059719,-119.257549,1133,1.18,2011-01-31
NEON.D17.SJER.DP1.00033,37.10878,-119.73228,398,1.353,2011-01-31
NEON.D17.SOAP.DP1.00033,37.03337,-119.26219,1210,1.276,2011-01-31
NEON.D17.TEAK.DP1.00033,37.00583,-119.00602,2149,1.364,2011-01-31
NEON.D17.TECR.DP1.20002,36.955931,-119.027363,2053,1.242,2011-01-31
NEON.D18.BARR.DP1.00033,71.28241,-156.61936,7,-9999.0,2011-01-31
NEON.D18.OKSR.DP1.20002,68.669753,-149.143018,773,-9999.0,2011-01-31
NEON.D18.TOOK.DP1.20002,68.629562,-149.610509,715,-9999.0,2011-01-31
NEON.D18.TOOL.DP1.00033,68.66109,-149.37047,827,-9999.0,2011-01-31
NEON.D19.BONA.DP1.00033,65.15401,-147.50258,233,-9999.0,2011-01-31
NEON.D19.CARI.DP1.20002,65.15306,-147.50246,229,-9999.0,2011-01-31
NEON.D19.DEJU.DP1.00033,63.88112,-145.75136,504,-9999.0,2011-01-31
NEON.D19.HEAL.DP1.00033,63.87569,-149.21334,409,-9999.0,2011-01-31
NEON.D20.PUUM.DP1.00033,19.55309,-155.31731,1683,-9999.0,2011-01-31
nevcansnk3a,39.0099,-114.3095,3063,2.302,2011-01-31
nevcanspg1a,38.9253,-114.4082,1792,2.358,2011-01-31
nevcanspg2a,38.8921,-114.3521,2203,2.354,2011-01-31
nevcanspg3a,38.8898,-114.3314,2820,2.24,2011-01-31
nevcanspg4a,38.9061,-114.3089,3360,2.24,2011-01-31
ninemileprairie,40.86801886,-96.82208066,381,0.277,2011-01-31
nist,39.139,-77.2125,100,-1.618,2011-01-31
niwot3,40.03286358,-105.5469702,3050,0.475,2011-01-31
niwot5,40.03286358,-105.5469702,2993,0.475,2011-01-31
northattleboroma,41.98369,-71.31056,60,0.289,2011-01-31
northinletsaltmarsh,33.3455,-79.1957,1,-1.161,2011-01-31
oakville,47.899334,-97.316139,268,0.24,2011-01-31
oregonMP,44.4523,-121.5574,1253,0.239,2011-01-31
oregonYP,44.32384,-121.605993,977,0.198,2011-01-31
oregonYPbud,44.3238,-121.606,977,0.198,2011-01-31
othshardwood,44.934805,-68.6655,41,1.001,2011-01-31
othssoftwood,44.934527,-68.664888,41,1.001,2011-01-31
pace,37.9229,-78.2739,100,-1.723,2011-01-31
parkschoolbuffalo,42.9637,-78.7834,205,-0.334,2011-01-31
piedmontalpasture2,33.8875,-85.6935,238,-0.948,2011-01-31
portal,31.9385,-109.0823,1330,-1.285,2011-01-31
proctor,44.525,-72.866,403,-0.18,2011-01-31
readingma,42.5304,-71.1272,100,-0.119,2011-01-31
robinson,37.4671,-83.1576,483,0.319,2011-01-31
robinson2,37.4671,-83.1576,483,0.319,2011-01-31
rosemountcons,44.6946,-93.0578,283,1.306,2011-01-31
rosemountconv,44.691,-93.0576,283,1.306,2011-01-31
rosemountnprs,44.6781,-93.0723,274,1.24,2011-01-31
russellsage,32.456961,-91.974322,20,-1.157,2011-01-31
sagehen,39.4315,-120.2398,1934,0.463,2011-01-31
sagehen2,39.4307,-120.2407,1937,0.463,2011-01-31
sagehen3,39.4311,-120.2405,1935,0.463,2011-01-31
sanford,42.726777,-84.464482,268,-1.078,2011-01-31
santacruz1,36.9741,-122.0308,11,0.159,2011-01-31
santacruz2,36.9741,-122.0308,11,0.159,2011-01-31
santaluciapreserve1,36.5265,-121.8682,500,0.035,2011-01-31
santaluciapreserve2,36.5265,-121.8682,500,0.035,2011-01-31
segaarboretum10,35.16209,-111.73151,2170,0.114,2011-01-31
segaarboretum2,35.16209,-111.73151,2170,0.114,2011-01-31
segaarboretum3,35.16209,-111.73151,2170,0.114,2011-01-31
