site,lat,lon,elev,values,date
alligatorriver,35.7879,-75.9038,1,-0.603,2012-01-02
arbutuslake,43.98207,-74.23322,535,2.613,2012-01-02
arbutuslakeinlet,43.99336,-74.24527,527,2.613,2012-01-02
archboldavir,27.176064,-81.21958,8,-0.672,2012-01-02
archboldavirx,27.166627,-81.219828,8,-0.672,2012-01-02
archboldbahia,27.1656,-81.216112,8,-0.672,2012-01-02
archboldpnot,27.187948,-81.200345,9,-0.672,2012-01-02
archboldpnotx,27.180677,-81.20068,9,-0.672,2012-01-02
arkansascornsoy,34.416,-91.6723,61,1.047,2012-01-02
arsbrooks10,41.9749,-93.6905,312,-0.64,2012-01-02
arsbrooks11,41.9744,-93.6937,313,-0.64,2012-01-02
arscolesnorth,42.4884,-93.5225,356,-1.048,2012-01-02
arscolessouth,42.4816,-93.5235,352,-1.048,2012-01-02
arsgacp1,31.5109,-83.6179,96,-1.647,2012-01-02
arsgacp3,31.7563,-83.7516,139,-1.69,2012-01-02
arsgacp4,31.7093,-83.7287,127,-1.727,2012-01-02
arsgreatbasinltar098,43.1675,-116.7132,1426,0.113,2012-01-02
arsgreatbasinltar117,43.1432,-116.7357,1625,0.025,2012-01-02
arsgreatbasinltar177,43.0645,-116.7484,2114,-0.063,2012-01-02
arsltarmdcr,39.0587,-75.8513,17,1.714,2012-01-02
arsltarmdcrnatw,39.0575,-75.7531,16,1.64,2012-01-02
arsltarmdcrprcw,39.0667,-75.7609,17,1.64,2012-01-02
arsltarmdcrresw,39.0549,-75.7532,16,1.64,2012-01-02
arsltarucbec1,40.7537,-78.0057,400,2.358,2012-01-02
arsltarucbec2,40.7558,-77.9999,396,2.358,2012-01-02
arsmnswanlake1,45.684508,-95.799703,370,0.124,2012-01-02
arsmorris1,45.6167,-96.1269,341,0.248,2012-01-02
arsmorris2,45.627,-96.127,338,0.248,2012-01-02
arsmorris3,45.6091,-96.1265,342,0.248,2012-01-02
arsope3ltar,39.0309,-76.8442,41,1.643,2012-01-02
ashburnham,42.6029,-71.926,292,1.916,2012-01-02
asuhighlands,36.2076,-81.7032,1016,0.974,2012-01-02
austincary,29.738,-82.2188,44,-1.773,2012-01-02
barrow,71.28007453,-156.6091492,5,-9999.0,2012-01-02
bartlettir,44.0646,-71.2881,268,1.405,2012-01-02
bigtraillake,64.9194,-147.822,190,-9999.0,2012-01-02
bitterbrush001,48.154,-119.9456,667,0.375,2012-01-02
blackrockforest,41.3974,-74.0239,427,2.833,2012-01-02
bnzblackspruce,64.6963,-148.3235,102,-9999.0,2012-01-02
bnzrichfen,64.70134,-148.31195,97,-9999.0,2012-01-02
bnzthermokarstbog,64.6955,-148.3208,104,-9999.0,2012-01-02
boglakepeatland,47.5051,-93.4893,416,-0.839,2012-01-02
bostoncommon,42.355912,-71.064145,10,1.141,2012-01-02
bostonu,42.35041,-71.10438,10,1.202,2012-01-02
bouldinalfalfa,38.0985,-121.4993,-5,-0.033,2012-01-02
bouldincorn,38.109,-121.535,-5,-0.012,2012-01-02
bozeman,45.783056,-110.777778,2332,0.485,2012-01-02
brackishimpoundment,33.2015,-79.2973,1,-1.838,2012-01-02
bullshoals,36.562833,-93.06663,260,1.706,2012-01-02
burnssagebrush,43.4712,-119.6909,1398,0.038,2012-01-02
butte,45.95304,-112.47964,1682,0.8,2012-01-02
butterice,39.5793,-121.858,33,0.583,2012-01-02
cafboydnorthltar01,46.755104,-117.126052,795,0.171,2012-01-02
cafboydsouthltar01,46.751809,-117.128502,795,0.171,2012-01-02
cafcookeastltar01,46.78152,-117.0821,794,0.177,2012-01-02
cafcookwestltar01,46.784037,-117.09083,807,0.177,2012-01-02
caryinstitute,41.7839,-73.7341,127,2.896,2012-01-02
centralredwoods1,38.632272,-123.301511,200,-0.375,2012-01-02
centralredwoods2,38.632272,-123.301511,200,-0.375,2012-01-02
cperagm,40.8402,-104.7672,1644,0.654,2012-01-02
cperheavy,40.8153,-104.7386,1652,0.717,2012-01-02
cpertgm,40.833,-104.76,1644,0.7,2012-01-02
cperuvb,40.8055764,-104.7558542,1641,0.7,2012-01-02
cuny,40.8162,-73.9507,42,2.399,2012-01-02
doverdesaltmarsh,39.0888,-75.4368,0,1.002,2012-01-02
downerwoods,43.07938,-87.88076,213,0.453,2012-01-02
dukehw,35.973583,-79.100371,400,-0.52,2012-01-02
ecb1,41.5348,-84.8068,275,2.736,2012-01-02
ecb2,41.5321,-84.808,275,2.736,2012-01-02
ecb4,41.1796,-83.0604,240,3.0,2012-01-02
elverde,18.320654,-65.8199,312,-9999.0,2012-01-02
flagstaff,35.17961521,-111.6049032,6983,-0.222,2012-01-02
flagstaff2,35.179225,-111.604506,6983,-0.222,2012-01-02
flagstaffchimneysprings,35.257296,-111.678542,2250,-0.245,2012-01-02
forbes,39.232,-121.2972,360,0.09,2012-01-02
fortpaynealpasture1,34.3824,-85.6428,405,0.947,2012-01-02
fortpaynealpasture2,34.3824,-85.6447,403,0.947,2012-01-02
gcesapelo,31.4440444,-81.283528,0,-1.27,2012-01-02
gilberttract,38.0015,-121.6691,6,0.304,2012-01-02
glees,41.3644,-106.2394,3150,1.305,2012-01-02
glennorganicrice,39.6805,-122.0026,2,0.434,2012-01-02
glennrice,39.5944,-122.0253,36,0.162,2012-01-02
goodnow,43.96018,-74.20994,820,2.496,2012-01-02
goodwater,39.22848,-92.11936,264,-0.877,2012-01-02
goodwaterbau,39.23115,-92.15216,274,-0.823,2012-01-02
grandteton,43.915017,-110.578036,2054,1.12,2012-01-02
grca1pj,36.0241,-112.2211,1978,-0.26,2012-01-02
greenridge1,39.6905,-78.4067,285,1.609,2012-01-02
harvard,42.5378,-72.1715,340,2.154,2012-01-02
harvardbarn,42.53532,-72.1899,350,2.162,2012-01-02
harvardbarn2,42.53532,-72.1899,350,2.162,2012-01-02
harvardems2,42.5378,-72.1715,340,2.154,2012-01-02
harvardfarmnorth,42.520465,-72.182242,355,2.162,2012-01-02
harvardfarmsouth,42.522466,-72.182339,355,2.162,2012-01-02
harvardgarden,42.5291,-72.1863,335,2.162,2012-01-02
harvardhemlock,42.539,-72.18,355,2.162,2012-01-02
harvardhemlock2,42.539407,-72.177976,355,2.154,2012-01-02
harvardlph,42.542,-72.185,380,2.162,2012-01-02
hawbeckereddy,40.6608,-77.848849,310,2.278,2012-01-02
hobcawclearcutlongleaf,33.3486,-79.232,4,-1.595,2012-01-02
hobcawmaturelongleaf,33.3242,-79.2439,8,-1.595,2012-01-02
homesteadsprings,37.2009,-92.9937,452,1.273,2012-01-02
howland1,45.2041,-68.7403,80,0.607,2012-01-02
howland2,45.2128,-68.7418,79,0.607,2012-01-02
hubbardbrook,43.9438,-71.701,253,1.694,2012-01-02
humnokericea,34.585192,-91.751684,61,1.248,2012-01-02
humnokericec,34.588853,-91.7516729,70,1.248,2012-01-02
huyckpreserveny,42.5266,-74.1587,478,2.782,2012-01-02
hwmo1,20.0212,-155.7331,585,-9999.0,2012-01-02
hwmo2,19.9766,-155.8298,12,-9999.0,2012-01-02
hwmo5,20.1117,-155.8151,635,-9999.0,2012-01-02
ibp,32.589,-106.847,1325,-0.914,2012-01-02
imcrkfen,68.60583,-149.31101,900,-9999.0,2012-01-02
imcrkridge0,68.60681,-149.2958,951,-9999.0,2012-01-02
imcrkridge1,68.60681,-149.2958,951,-9999.0,2012-01-02
imcrktussock,68.60633,-149.30408,918,-9999.0,2012-01-02
jasperridge,37.402028,-122.22104,197,-0.115,2012-01-02
jerbajada,32.57992,-106.633793,1402,-0.695,2012-01-02
jergrassland,32.5833,-106.8333,1331,-0.914,2012-01-02
jernort,32.619,-106.788,1328,-1.022,2012-01-02
jernovel,32.6335,-106.8334,1324,-0.959,2012-01-02
jernwern,32.6271,-106.7387,1325,-0.844,2012-01-02
jersand,32.515,-106.798,1363,-1.315,2012-01-02
jershrubland,32.6502,-106.8334,1328,-0.883,2012-01-02
junipersavannah,34.4254,-105.8615,1931,-1.01,2012-01-02
kamuela,20.015008,-155.661326,850,-9999.0,2012-01-02
kamuela2,20.014959,-155.661139,830,-9999.0,2012-01-02
kansas,39.0561,-95.1907,333,-0.484,2012-01-02
kelloggcorn,42.437536,-85.3225472,288,1.759,2012-01-02
kempnrs,45.83992,-89.67755,539,-1.013,2012-01-02
kendall,31.73652,-109.94185,1529,-0.142,2012-01-02
konza,39.0824,-96.5603,443,-0.276,2012-01-02
laupahoehoe,19.9322,-155.2912,1145,-9999.0,2012-01-02
ldeocam,41.0039,-73.9053,121,2.523,2012-01-02
lostcreek,46.0827,-89.9792,480,-0.665,2012-01-02
luckyhills,31.743896,-110.052023,1366,0.063,2012-01-02
macleish,42.4484,-72.6804,251,2.616,2012-01-02
macordway,44.8106,-93.0272,264,-0.571,2012-01-02
mandanh5,46.775423,-100.95109,593,1.375,2012-01-02
mandani2,46.7614,-100.9257,590,1.251,2012-01-02
manilacotton,35.8872,-90.1371,73,1.92,2012-01-02
marena,36.06434,-97.21271,327,-2.015,2012-01-02
mead1,41.1651,-96.4766,361,0.145,2012-01-02
mead2,41.1649,-96.4701,362,0.145,2012-01-02
mead3,41.1797,-96.4397,363,0.052,2012-01-02
meadpasture,41.1447,-96.4616,356,0.24,2012-01-02
meadpasturese,41.1447,-96.4616,356,0.24,2012-01-02
meadpasturesw,41.1447,-96.4616,356,0.24,2012-01-02
missouriozarks,38.7441,-92.2,219,-0.016,2012-01-02
morganmonroe,39.3231,-86.4131,275,1.657,2012-01-02
morganmonroe2,39.3231,-86.4131,275,1.657,2012-01-02
nahuku,19.415187,-155.238383,1202,-9999.0,2012-01-02
nationalelkrefuge,43.488931,-110.737824,1899,0.744,2012-01-02
ncssm,36.018446,-78.92075,175,0.149,2012-01-02
NEON.D01.BART.DP1.00033,44.063869,-71.287375,285,1.405,2012-01-02
NEON.D01.HARV.DP1.00033,42.536911,-72.17265,359,2.154,2012-01-02
NEON.D01.HOPB.DP1.20002,42.471786,-72.329627,203,1.955,2012-01-02
NEON.D02.BLAN.DP1.00033,39.033698,-78.041788,162,0.901,2012-01-02
NEON.D02.LEWI.DP1.20002,39.09564,-77.98322,152,1.083,2012-01-02
NEON.D02.POSE.DP1.20002,38.89332,-78.14678,293,0.936,2012-01-02
NEON.D02.SCBI.DP1.00033,38.892925,-78.139494,364,0.885,2012-01-02
NEON.D02.SERC.DP1.00033,38.89008,-76.56001,30,1.781,2012-01-02
NEON.D03.BARC.DP1.20002,29.676473,-82.009089,35,-1.391,2012-01-02
NEON.D03.DSNY.DP1.00033,28.12505,-81.43619,22,0.605,2012-01-02
NEON.D03.FLNT.DP1.20002,31.185424,-84.437403,27,-1.812,2012-01-02
NEON.D03.JERC.DP1.00033,31.194839,-84.468623,58,-1.89,2012-01-02
NEON.D03.OSBS.DP1.00033,29.689282,-81.993431,56,-1.506,2012-01-02
NEON.D03.SUGG.DP1.20002,29.687054,-82.016171,28,-1.506,2012-01-02
NEON.D04.CUPE.DP1.20002,18.11352,-66.98676,164,-9999.0,2012-01-02
NEON.D04.GUAN.DP1.00033,17.96955,-66.8687,136,-9999.0,2012-01-02
NEON.D04.GUIL.DP1.20002,18.1741,-66.79851,564,-9999.0,2012-01-02
NEON.D04.LAJA.DP1.00033,18.021261,-67.076889,22,-9999.0,2012-01-02
NEON.D05.CRAM.DP1.20002,46.21111,-89.47825,518,-1.146,2012-01-02
NEON.D05.LIRO.DP1.20002,45.998269,-89.704767,495,-0.922,2012-01-02
NEON.D05.STEI.DP1.00033,45.50894,-89.58637,476,-0.419,2012-01-02
NEON.D05.TREE.DP1.00033,45.49373,-89.58572,474,-0.419,2012-01-02
NEON.D05.UNDE.DP1.00033,46.23391,-89.537254,529,-1.155,2012-01-02
NEON.D06.KING.DP1.20002,39.10506,-96.60336,339,-0.233,2012-01-02
NEON.D06.KONA.DP1.00033,39.110446,-96.612935,443,-0.233,2012-01-02
NEON.D06.KONZ.DP1.00033,39.10077,-96.56309,415,-0.276,2012-01-02
NEON.D06.MCDI.DP1.20002,38.94428,-96.44197,376,-0.556,2012-01-02
NEON.D06.UKFS.DP1.00033,39.040431,-95.19215,330,-0.484,2012-01-02
NEON.D07.GRSM.DP1.00033,35.68896,-83.50195,589,1.089,2012-01-02
NEON.D07.LECO.DP1.20002,35.69043,-83.50379,578,1.089,2012-01-02
NEON.D07.MLBS.DP1.00033,37.378314,-80.524847,1177,0.762,2012-01-02
NEON.D07.ORNL.DP1.00033,35.964128,-84.282588,351,1.676,2012-01-02
NEON.D07.WALK.DP1.20002,35.95947,-84.28041,274,1.606,2012-01-02
NEON.D08.BLWA.DP1.20002,32.541529,-87.798151,23,0.113,2012-01-02
NEON.D08.DELA.DP1.00033,32.541727,-87.803877,36,0.113,2012-01-02
NEON.D08.LENO.DP1.00033,31.85388,-88.16122,10,-0.344,2012-01-02
NEON.D08.MAYF.DP1.20002,32.959657,-87.408128,93,-0.175,2012-01-02
NEON.D08.TALL.DP1.00033,32.95047,-87.393259,167,-0.175,2012-01-02
NEON.D08.TOMB.DP1.20002,31.853431,-88.158872,10,-0.344,2012-01-02
NEON.D09.DCFS.DP1.00033,47.161647,-99.106556,574,1.875,2012-01-02
NEON.D09.NOGP.DP1.00033,46.76972,-100.91535,589,1.251,2012-01-02
NEON.D09.PRLA.DP1.20002,47.15909,-99.11388,563,1.703,2012-01-02
NEON.D09.PRPO.DP1.20002,47.12999,-99.250551,587,1.712,2012-01-02
NEON.D09.WOOD.DP1.00033,47.1282,-99.241334,585,1.712,2012-01-02
NEON.D10.ARIK.DP1.20002,39.758246,-102.447103,1188,0.844,2012-01-02
NEON.D10.CPER.DP1.00033,40.81553,-104.7456,1600,0.7,2012-01-02
NEON.D10.HQTW.DP1.00033,40.016704,-105.245612,1601,0.383,2012-01-02
NEON.D10.RMNP.DP1.00033,40.275903,-105.545955,2751,0.796,2012-01-02
NEON.D10.STER.DP1.00033,40.461894,-103.02929,1366,1.787,2012-01-02
NEON.D11.BLUE.DP1.20002,34.444218,-96.624201,288,-1.997,2012-01-02
NEON.D11.CLBJ.DP1.00033,33.40123,-97.57,279,-0.955,2012-01-02
NEON.D11.OAES.DP1.00033,35.41059,-99.05879,520,-2.057,2012-01-02
NEON.D11.PRIN.DP1.20002,33.37859,-97.78226,255,-1.102,2012-01-02
NEON.D12.BLDE.DP1.20002,44.95011,-110.58715,2035,0.489,2012-01-02
NEON.D12.YELL.DP1.00033,44.95348,-110.53914,2130,0.701,2012-01-02
NEON.D13.COMO.DP1.20002,40.03496,-105.54487,3036,0.574,2012-01-02
NEON.D13.MOAB.DP1.00033,38.24833,-109.38827,1803,-0.649,2012-01-02
NEON.D13.NIWO.DP1.00033,40.05425,-105.58237,3493,0.625,2012-01-02
NEON.D13.WLOU.DP1.20002,39.891366,-105.915395,2920,0.044,2012-01-02
NEON.D14.JORN.DP1.00033,32.59068,-106.84254,1321,-0.914,2012-01-02
NEON.D14.SRER.DP1.00033,31.91068,-110.83549,999,-0.449,2012-01-02
NEON.D14.SYCA.DP1.20002,33.749057,-111.506903,644,-0.731,2012-01-02
NEON.D15.ONAQ.DP1.00033,40.177599,-112.452452,1655,1.059,2012-01-02
NEON.D15.REDB.DP1.20002,40.783934,-111.797887,1696,0.867,2012-01-02
NEON.D16.ABBY.DP1.00033,45.76243,-122.33033,390,-0.111,2012-01-02
NEON.D16.MART.DP1.20002,45.791248,-121.931959,354,0.067,2012-01-02
NEON.D16.MCRA.DP1.20002,44.259598,-122.165554,880,-0.196,2012-01-02
NEON.D16.WREF.DP1.00033,45.82049,-121.95191,368,0.108,2012-01-02
NEON.D17.BIGC.DP1.20002,37.059719,-119.257549,1133,0.092,2012-01-02
NEON.D17.SJER.DP1.00033,37.10878,-119.73228,398,0.229,2012-01-02
NEON.D17.SOAP.DP1.00033,37.03337,-119.26219,1210,0.095,2012-01-02
NEON.D17.TEAK.DP1.00033,37.00583,-119.00602,2149,0.076,2012-01-02
NEON.D17.TECR.DP1.20002,36.955931,-119.027363,2053,0.083,2012-01-02
NEON.D18.BARR.DP1.00033,71.28241,-156.61936,7,-9999.0,2012-01-02
NEON.D18.OKSR.DP1.20002,68.669753,-149.143018,773,-9999.0,2012-01-02
NEON.D18.TOOK.DP1.20002,68.629562,-149.610509,715,-9999.0,2012-01-02
NEON.D18.TOOL.DP1.00033,68.66109,-149.37047,827,-9999.0,2012-01-02
NEON.D19.BONA.DP1.00033,65.15401,-147.50258,233,-9999.0,2012-01-02
NEON.D19.CARI.DP1.20002,65.15306,-147.50246,229,-9999.0,2012-01-02
NEON.D19.DEJU.DP1.00033,63.88112,-145.75136,504,-9999.0,2012-01-02
NEON.D19.HEAL.DP1.00033,63.87569,-149.21334,409,-9999.0,2012-01-02
NEON.D20.PUUM.DP1.00033,19.55309,-155.31731,1683,-9999.0,2012-01-02
nevcansnk3a,39.0099,-114.3095,3063,0.486,2012-01-02
nevcanspg1a,38.9253,-114.4082,1792,0.369,2012-01-02
nevcanspg2a,38.8921,-114.3521,2203,0.452,2012-01-02
nevcanspg3a,38.8898,-114.3314,2820,0.584,2012-01-02
nevcanspg4a,38.9061,-114.3089,3360,0.584,2012-01-02
ninemileprairie,40.86801886,-96.82208066,381,0.284,2012-01-02
nist,39.139,-77.2125,100,1.518,2012-01-02
niwot3,40.03286358,-105.5469702,3050,0.574,2012-01-02
niwot5,40.03286358,-105.5469702,2993,0.574,2012-01-02
northattleboroma,41.98369,-71.31056,60,1.207,2012-01-02
northinletsaltmarsh,33.3455,-79.1957,1,-1.835,2012-01-02
oakville,47.899334,-97.316139,268,-0.162,2012-01-02
oregonMP,44.4523,-121.5574,1253,-0.315,2012-01-02
oregonYP,44.32384,-121.605993,977,-0.353,2012-01-02
oregonYPbud,44.3238,-121.606,977,-0.353,2012-01-02
othshardwood,44.934805,-68.6655,41,0.878,2012-01-02
othssoftwood,44.934527,-68.664888,41,0.878,2012-01-02
pace,37.9229,-78.2739,100,1.134,2012-01-02
parkschoolbuffalo,42.9637,-78.7834,205,2.207,2012-01-02
piedmontalpasture2,33.8875,-85.6935,238,0.334,2012-01-02
portal,31.9385,-109.0823,1330,-0.698,2012-01-02
proctor,44.525,-72.866,403,1.854,2012-01-02
readingma,42.5304,-71.1272,100,1.167,2012-01-02
robinson,37.4671,-83.1576,483,1.939,2012-01-02
robinson2,37.4671,-83.1576,483,1.939,2012-01-02
rosemountcons,44.6946,-93.0578,283,-0.692,2012-01-02
rosemountconv,44.691,-93.0576,283,-0.692,2012-01-02
rosemountnprs,44.6781,-93.0723,274,-0.618,2012-01-02
russellsage,32.456961,-91.974322,20,-0.825,2012-01-02
sagehen,39.4315,-120.2398,1934,0.303,2012-01-02
sagehen2,39.4307,-120.2407,1937,0.303,2012-01-02
sagehen3,39.4311,-120.2405,1935,0.303,2012-01-02
sanford,42.726777,-84.464482,268,2.031,2012-01-02
santacruz1,36.9741,-122.0308,11,0.144,2012-01-02
santacruz2,36.9741,-122.0308,11,0.144,2012-01-02
santaluciapreserve1,36.5265,-121.8682,500,0.385,2012-01-02
santaluciapreserve2,36.5265,-121.8682,500,0.385,2012-01-02
segaarboretum10,35.16209,-111.73151,2170,-0.3,2012-01-02
segaarboretum2,35.16209,-111.73151,2170,-0.3,2012-01-02
segaarboretum3,35.16209,-111.73151,2170,-0.3,2012-01-02
segaarboretum4,35.16214,-111.73153,2170,-0.3,2012-01-02
segaarboretum6,35.16209,-111.73151,2170,-0.3,2012-01-02
segaarboretum9,35.16222,-111.73158,2170,-0.3,2012-01-02
segaarboretumforest,35.1613,-111.7359,2173,-0.3,2012-01-02
segaarboretummeadow,35.1621,-111.7316,2157,-0.3,2012-01-02
segablackpoint,35.6814,-111.4754,1566,0.434,2012-01-02
segabluechute,35.5876,-111.9716,1930,-0.523,2012-01-02
segabluechute1,35.58759,-111.97115,1931,-0.523,2012-01-02
segabluechute2,35.58759,-111.97115,1931,-0.523,2012-01-02
segabluechute4,35.58759,-111.9716,1931,-0.523,2012-01-02
segabluechute6,35.58759,-111.97115,1931,-0.523,2012-01-02
segabluechute7,35.58759,-111.97115,1931,-0.523,2012-01-02
segabluechute8,35.58759,-111.97115,1931,-0.523,2012-01-02
segabradshaw,34.9109,-111.9285,1402,-0.668,2012-01-02
segahartprairie,35.3536,-111.7324,2585,-0.2,2012-01-02
segalcr,35.7231,-111.321,1275,0.45,2012-01-02
segalcr2,35.7069,-111.36,1495,0.351,2012-01-02
segalittlemountain,36.5865,-112.3634,2276,-0.367,2012-01-02
segasoapcreek,36.751,-111.716,1233,0.044,2012-01-02
segawhitepockets,36.6081,-112.4082,2057,-0.383,2012-01-02
sevilletagrass,34.360444,-106.700186,1600,-1.294,2012-01-02
sevilletanewgrass,34.358,-106.6799,1603,-1.333,2012-01-02
sevilletashrub,34.334956,-106.744469,1603,-1.195,2012-01-02
sevMRME10L,34.3438,-106.7269,1604,-1.261,2012-01-02
sevMRME11C,34.3438,-106.7268,1604,-1.261,2012-01-02
sevMRME1S,34.3442,-106.7272,1604,-1.261,2012-01-02
sevpjrm12,34.38615,-106.52621,1905,-1.808,2012-01-02
sevpjrm13,34.38631,-106.52791,1914,-1.808,2012-01-02
shalehillsczo,40.6658,-77.9041,310,2.268,2012-01-02
shenandoah,38.6167,-78.35,1037,0.609,2012-01-02
silverton,44.9986,-122.6948,347,-0.054,2012-01-02
siwetland,38.0369,-121.7546,-5,0.465,2012-01-02
slatefloodplain,38.9094,-107.0282,2725,-0.922,2012-01-02
snodgrass1,38.92619636,-106.9714376,3023,-0.608,2012-01-02
snodgrass2,38.92619636,-106.9714376,3023,-0.608,2012-01-02
snodgrass3,38.92839978,-106.9781196,3141,-0.608,2012-01-02
snodgrass4,38.92839978,-106.9781196,3141,-0.608,2012-01-02
snodgrass5,38.92744789,-106.9785209,3152,-0.608,2012-01-02
snodgrass6,38.92744789,-106.9785209,3152,-0.608,2012-01-02
snodgrass7,38.93142134,-106.9852388,3363,-0.543,2012-01-02
snodgrass8,38.93142134,-106.9852388,3363,-0.543,2012-01-02
southerngreatplains,36.6058,-97.4888,314,-0.709,2012-01-02
springfieldma,42.135162,-72.585972,56,2.24,2012-01-02
spruceA0EMI,47.5049,-93.4541,413,-0.986,2012-01-02
spruceA0EMT,47.5049,-93.4541,418,-0.986,2012-01-02
spruceA0P07,47.50493,-93.45314,413,-0.986,2012-01-02
spruceA0P07SH,47.50493,-93.45314,413,-0.986,2012-01-02
spruceA0P21,47.50625,-93.45275,413,-0.986,2012-01-02
spruceA0P21SH,47.50625,-93.45275,413,-0.986,2012-01-02
srg,31.7894,-110.8276,1281,-1.095,2012-01-02
srm,31.8214,-110.8661,1116,-0.555,2012-01-02
statenrice1,38.1235,-121.549,-5,-0.01,2012-01-02
stjones,39.088222,-75.43725,2,1.002,2012-01-02
sweetbriar,37.57341,-79.08482,242,1.001,2012-01-02
sweetbriarclearcut,37.5753,-79.0872,242,1.001,2012-01-02
sweetbriargrass,37.5605,-79.0884,240,1.001,2012-01-02
sylvania,46.242,-89.348,540,-1.123,2012-01-02
templefieldstation1,40.1667,-75.1894,105,2.516,2012-01-02
tfforest,43.1086,-70.9505,23,0.81,2012-01-02
tidmarshplymouth,41.9157,-70.5754,9,0.848,2012-01-02
tonzi,38.43091667,-120.9658861,177,0.276,2012-01-02
townsenddemeadow,39.3917,-75.6281,11,1.942,2012-01-02
tsubiology,36.1671,-86.8295,164,0.97,2012-01-02
tsubiology2,36.1171,-86.8295,100,0.624,2012-01-02
tuckerprairie,38.9491,-91.9952,274,-0.222,2012-01-02
twodafo,29.1658,-95.829,16,-2.922,2012-01-02
tworfaa,31.4777,-96.8882,167,-2.111,2012-01-02
tworfpr,31.4802,-96.8826,162,-2.059,2012-01-02
tworfta,31.4693,-96.8864,173,-2.111,2012-01-02
twosfpr,30.6176,-97.2938,157,-2.443,2012-01-02
ucnrsanzaborrego,33.2401,-116.3886,214,-0.165,2012-01-02
ufona,27.3836,-81.950856,25,-0.544,2012-01-02
uiefmaize2,40.0628,-88.1961,224,-0.275,2012-01-02
uiefmiscanthus2,40.0628,-88.1984,221,-0.275,2012-01-02
uiefprairie2,40.0637,-88.1973,224,-0.275,2012-01-02
uiefsorghum,40.0065,-88.2032,224,-0.355,2012-01-02
uiefswitchgrass2,40.0637,-88.1973,224,-0.275,2012-01-02
umichbiological,45.55984,-84.71382,230,1.018,2012-01-02
umichbiological2,45.5625,-84.6976,240,1.161,2012-01-02
unca,35.5951,-82.5515,650,0.714,2012-01-02
usgseros,43.7343,-96.6234,448,-0.075,2012-01-02
usmpj,34.43845,-106.2543606,2126,-1.445,2012-01-02
usof5,35.7297,-90.0406,70,1.913,2012-01-02
usof6,35.7333,-90.0403,70,1.913,2012-01-02
uwmfieldsta,43.38709,-88.0229,265,0.882,2012-01-02
vaira,38.41328056,-120.9506361,129,0.276,2012-01-02
vallesburnedconifer,35.8884,-106.5321,3043,-0.812,2012-01-02
vallesmixedconifer,35.9192,-106.6142,2752,-0.706,2012-01-02
vallesponderosapine,35.864,-106.5964,2501,-0.737,2012-01-02
waahila,21.3017,-157.8152,55,-9999.0,2012-01-02
warrenwilson,35.6069,-82.4421,2198,0.502,2012-01-02
willamettepoplar,44.1368,-123.1823,112,-0.249,2012-01-02
willowcreek,45.805986,-90.07912,521,-0.593,2012-01-02
windriver,45.8212833,-121.9520833,371,0.108,2012-01-02
windriverunderstory,45.8212833,-121.9520833,371,0.108,2012-01-02
wolfesneckfarm,43.8305,-70.0715,16,0.378,2012-01-02
worcester,42.2697,-71.8428,185,2.109,2012-01-02
alligatorriver,35.7879,-75.9038,1,-0.717,2012-01-09
arbutuslake,43.98207,-74.23322,535,2.636,2012-01-09
arbutuslakeinlet,43.99336,-74.24527,527,2.636,2012-01-09
archboldavir,27.176064,-81.21958,8,-0.655,2012-01-09
archboldavirx,27.166627,-81.219828,8,-0.655,2012-01-09
archboldbahia,27.1656,-81.216112,8,-0.655,2012-01-09
archboldpnot,27.187948,-81.200345,9,-0.655,2012-01-09
archboldpnotx,27.180677,-81.20068,9,-0.655,2012-01-09
arkansascornsoy,34.416,-91.6723,61,0.959,2012-01-09
arsbrooks10,41.9749,-93.6905,312,-0.684,2012-01-09
arsbrooks11,41.9744,-93.6937,313,-0.684,2012-01-09
arscolesnorth,42.4884,-93.5225,356,-1.112,2012-01-09
arscolessouth,42.4816,-93.5235,352,-1.112,2012-01-09
arsgacp1,31.5109,-83.6179,96,-1.924,2012-01-09
arsgacp3,31.7563,-83.7516,139,-2.077,2012-01-09
arsgacp4,31.7093,-83.7287,127,-2.095,2012-01-09
arsgreatbasinltar098,43.1675,-116.7132,1426,0.096,2012-01-09
arsgreatbasinltar117,43.1432,-116.7357,1625,0.012,2012-01-09
arsgreatbasinltar177,43.0645,-116.7484,2114,-0.062,2012-01-09
arsltarmdcr,39.0587,-75.8513,17,1.65,2012-01-09
arsltarmdcrnatw,39.0575,-75.7531,16,1.568,2012-01-09
arsltarmdcrprcw,39.0667,-75.7609,17,1.568,2012-01-09
arsltarmdcrresw,39.0549,-75.7532,16,1.568,2012-01-09
arsltarucbec1,40.7537,-78.0057,400,2.248,2012-01-09
arsltarucbec2,40.7558,-77.9999,396,2.248,2012-01-09
arsmnswanlake1,45.684508,-95.799703,370,0.06,2012-01-09
arsmorris1,45.6167,-96.1269,341,0.161,2012-01-09
arsmorris2,45.627,-96.127,338,0.161,2012-01-09
arsmorris3,45.6091,-96.1265,342,0.161,2012-01-09
arsope3ltar,39.0309,-76.8442,41,1.563,2012-01-09
ashburnham,42.6029,-71.926,292,1.859,2012-01-09
asuhighlands,36.2076,-81.7032,1016,0.957,2012-01-09
austincary,29.738,-82.2188,44,-1.937,2012-01-09
barrow,71.28007453,-156.6091492,5,-9999.0,2012-01-09
bartlettir,44.0646,-71.2881,268,1.394,2012-01-09
bigtraillake,64.9194,-147.822,190,-9999.0,2012-01-09
bitterbrush001,48.154,-119.9456,667,0.373,2012-01-09
blackrockforest,41.3974,-74.0239,427,2.77,2012-01-09
bnzblackspruce,64.6963,-148.3235,102,-9999.0,2012-01-09
bnzrichfen,64.70134,-148.31195,97,-9999.0,2012-01-09
bnzthermokarstbog,64.6955,-148.3208,104,-9999.0,2012-01-09
boglakepeatland,47.5051,-93.4893,416,-0.926,2012-01-09
bostoncommon,42.355912,-71.064145,10,0.94,2012-01-09
bostonu,42.35041,-71.10438,10,1.013,2012-01-09
bouldinalfalfa,38.0985,-121.4993,-5,-0.185,2012-01-09
bouldincorn,38.109,-121.535,-5,-0.169,2012-01-09
bozeman,45.783056,-110.777778,2332,0.538,2012-01-09
brackishimpoundment,33.2015,-79.2973,1,-1.962,2012-01-09
bullshoals,36.562833,-93.06663,260,1.54,2012-01-09
burnssagebrush,43.4712,-119.6909,1398,0.03,2012-01-09
butte,45.95304,-112.47964,1682,0.836,2012-01-09
butterice,39.5793,-121.858,33,0.463,2012-01-09
cafboydnorthltar01,46.755104,-117.126052,795,-0.001,2012-01-09
cafboydsouthltar01,46.751809,-117.128502,795,-0.001,2012-01-09
cafcookeastltar01,46.78152,-117.0821,794,-0.015,2012-01-09
cafcookwestltar01,46.784037,-117.09083,807,-0.015,2012-01-09
caryinstitute,41.7839,-73.7341,127,2.754,2012-01-09
centralredwoods1,38.632272,-123.301511,200,-0.433,2012-01-09
centralredwoods2,38.632272,-123.301511,200,-0.433,2012-01-09
cperagm,40.8402,-104.7672,1644,0.665,2012-01-09
cperheavy,40.8153,-104.7386,1652,0.726,2012-01-09
cpertgm,40.833,-104.76,1644,0.709,2012-01-09
cperuvb,40.8055764,-104.7558542,1641,0.709,2012-01-09
cuny,40.8162,-73.9507,42,2.311,2012-01-09
doverdesaltmarsh,39.0888,-75.4368,0,0.889,2012-01-09
downerwoods,43.07938,-87.88076,213,0.322,2012-01-09
dukehw,35.973583,-79.100371,400,-0.604,2012-01-09
ecb1,41.5348,-84.8068,275,2.558,2012-01-09
ecb2,41.5321,-84.808,275,2.558,2012-01-09
ecb4,41.1796,-83.0604,240,2.95,2012-01-09
elverde,18.320654,-65.8199,312,-9999.0,2012-01-09
flagstaff,35.17961521,-111.6049032,6983,-0.217,2012-01-09
flagstaff2,35.179225,-111.604506,6983,-0.217,2012-01-09
flagstaffchimneysprings,35.257296,-111.678542,2250,-0.242,2012-01-09
forbes,39.232,-121.2972,360,-0.026,2012-01-09
fortpaynealpasture1,34.3824,-85.6428,405,0.884,2012-01-09
fortpaynealpasture2,34.3824,-85.6447,403,0.884,2012-01-09
gcesapelo,31.4440444,-81.283528,0,-1.255,2012-01-09
gilberttract,38.0015,-121.6691,6,0.112,2012-01-09
glees,41.3644,-106.2394,3150,1.277,2012-01-09
glennorganicrice,39.6805,-122.0026,2,0.344,2012-01-09
glennrice,39.5944,-122.0253,36,0.072,2012-01-09
goodnow,43.96018,-74.20994,820,2.506,2012-01-09
goodwater,39.22848,-92.11936,264,-0.973,2012-01-09
goodwaterbau,39.23115,-92.15216,274,-0.912,2012-01-09
grandteton,43.915017,-110.578036,2054,1.158,2012-01-09
grca1pj,36.0241,-112.2211,1978,-0.258,2012-01-09
greenridge1,39.6905,-78.4067,285,1.537,2012-01-09
harvard,42.5378,-72.1715,340,2.067,2012-01-09
harvardbarn,42.53532,-72.1899,350,2.08,2012-01-09
harvardbarn2,42.53532,-72.1899,350,2.08,2012-01-09
harvardems2,42.5378,-72.1715,340,2.067,2012-01-09
harvardfarmnorth,42.520465,-72.182242,355,2.08,2012-01-09
harvardfarmsouth,42.522466,-72.182339,355,2.08,2012-01-09
harvardgarden,42.5291,-72.1863,335,2.08,2012-01-09
harvardhemlock,42.539,-72.18,355,2.08,2012-01-09
harvardhemlock2,42.539407,-72.177976,355,2.067,2012-01-09
harvardlph,42.542,-72.185,380,2.08,2012-01-09
hawbeckereddy,40.6608,-77.848849,310,2.181,2012-01-09
hobcawclearcutlongleaf,33.3486,-79.232,4,-1.738,2012-01-09
hobcawmaturelongleaf,33.3242,-79.2439,8,-1.738,2012-01-09
homesteadsprings,37.2009,-92.9937,452,1.072,2012-01-09
howland1,45.2041,-68.7403,80,0.62,2012-01-09
howland2,45.2128,-68.7418,79,0.62,2012-01-09
hubbardbrook,43.9438,-71.701,253,1.692,2012-01-09
humnokericea,34.585192,-91.751684,61,1.144,2012-01-09
humnokericec,34.588853,-91.7516729,70,1.144,2012-01-09
huyckpreserveny,42.5266,-74.1587,478,2.647,2012-01-09
hwmo1,20.0212,-155.7331,585,-9999.0,2012-01-09
hwmo2,19.9766,-155.8298,12,-9999.0,2012-01-09
hwmo5,20.1117,-155.8151,635,-9999.0,2012-01-09
ibp,32.589,-106.847,1325,-0.922,2012-01-09
imcrkfen,68.60583,-149.31101,900,-9999.0,2012-01-09
imcrkridge0,68.60681,-149.2958,951,-9999.0,2012-01-09
imcrkridge1,68.60681,-149.2958,951,-9999.0,2012-01-09
imcrktussock,68.60633,-149.30408,918,-9999.0,2012-01-09
jasperridge,37.402028,-122.22104,197,-0.253,2012-01-09
jerbajada,32.57992,-106.633793,1402,-0.719,2012-01-09
jergrassland,32.5833,-106.8333,1331,-0.922,2012-01-09
jernort,32.619,-106.788,1328,-1.032,2012-01-09
jernovel,32.6335,-106.8334,1324,-0.967,2012-01-09
jernwern,32.6271,-106.7387,1325,-0.872,2012-01-09
jersand,32.515,-106.798,1363,-1.321,2012-01-09
jershrubland,32.6502,-106.8334,1328,-0.887,2012-01-09
junipersavannah,34.4254,-105.8615,1931,-1.085,2012-01-09
kamuela,20.015008,-155.661326,850,-9999.0,2012-01-09
kamuela2,20.014959,-155.661139,830,-9999.0,2012-01-09
kansas,39.0561,-95.1907,333,-0.517,2012-01-09
kelloggcorn,42.437536,-85.3225472,288,1.719,2012-01-09
kempnrs,45.83992,-89.67755,539,-0.989,2012-01-09
kendall,31.73652,-109.94185,1529,-0.147,2012-01-09
konza,39.0824,-96.5603,443,-0.289,2012-01-09
laupahoehoe,19.9322,-155.2912,1145,-9999.0,2012-01-09
ldeocam,41.0039,-73.9053,121,2.451,2012-01-09
lostcreek,46.0827,-89.9792,480,-0.622,2012-01-09
luckyhills,31.743896,-110.052023,1366,0.065,2012-01-09
macleish,42.4484,-72.6804,251,2.563,2012-01-09
macordway,44.8106,-93.0272,264,-0.559,2012-01-09
mandanh5,46.775423,-100.95109,593,1.339,2012-01-09
mandani2,46.7614,-100.9257,590,1.215,2012-01-09
manilacotton,35.8872,-90.1371,73,1.822,2012-01-09
marena,36.06434,-97.21271,327,-1.997,2012-01-09
mead1,41.1651,-96.4766,361,0.14,2012-01-09
mead2,41.1649,-96.4701,362,0.14,2012-01-09
mead3,41.1797,-96.4397,363,0.046,2012-01-09
meadpasture,41.1447,-96.4616,356,0.237,2012-01-09
meadpasturese,41.1447,-96.4616,356,0.237,2012-01-09
meadpasturesw,41.1447,-96.4616,356,0.237,2012-01-09
missouriozarks,38.7441,-92.2,219,-0.152,2012-01-09
morganmonroe,39.3231,-86.4131,275,1.523,2012-01-09
morganmonroe2,39.3231,-86.4131,275,1.523,2012-01-09
nahuku,19.415187,-155.238383,1202,-9999.0,2012-01-09
nationalelkrefuge,43.488931,-110.737824,1899,0.743,2012-01-09
ncssm,36.018446,-78.92075,175,0.1,2012-01-09
NEON.D01.BART.DP1.00033,44.063869,-71.287375,285,1.394,2012-01-09
NEON.D01.HARV.DP1.00033,42.536911,-72.17265,359,2.067,2012-01-09
NEON.D01.HOPB.DP1.20002,42.471786,-72.329627,203,1.923,2012-01-09
NEON.D02.BLAN.DP1.00033,39.033698,-78.041788,162,0.881,2012-01-09
NEON.D02.LEWI.DP1.20002,39.09564,-77.98322,152,1.057,2012-01-09
NEON.D02.POSE.DP1.20002,38.89332,-78.14678,293,0.904,2012-01-09
NEON.D02.SCBI.DP1.00033,38.892925,-78.139494,364,0.857,2012-01-09
NEON.D02.SERC.DP1.00033,38.89008,-76.56001,30,1.722,2012-01-09
NEON.D03.BARC.DP1.20002,29.676473,-82.009089,35,-1.417,2012-01-09
NEON.D03.DSNY.DP1.00033,28.12505,-81.43619,22,0.58,2012-01-09
NEON.D03.FLNT.DP1.20002,31.185424,-84.437403,27,-2.048,2012-01-09
NEON.D03.JERC.DP1.00033,31.194839,-84.468623,58,-2.124,2012-01-09
NEON.D03.OSBS.DP1.00033,29.689282,-81.993431,56,-1.55,2012-01-09
NEON.D03.SUGG.DP1.20002,29.687054,-82.016171,28,-1.55,2012-01-09
NEON.D04.CUPE.DP1.20002,18.11352,-66.98676,164,-9999.0,2012-01-09
NEON.D04.GUAN.DP1.00033,17.96955,-66.8687,136,-9999.0,2012-01-09
NEON.D04.GUIL.DP1.20002,18.1741,-66.79851,564,-9999.0,2012-01-09
NEON.D04.LAJA.DP1.00033,18.021261,-67.076889,22,-9999.0,2012-01-09
NEON.D05.CRAM.DP1.20002,46.21111,-89.47825,518,-1.101,2012-01-09
NEON.D05.LIRO.DP1.20002,45.998269,-89.704767,495,-0.896,2012-01-09
NEON.D05.STEI.DP1.00033,45.50894,-89.58637,476,-0.409,2012-01-09
NEON.D05.TREE.DP1.00033,45.49373,-89.58572,474,-0.409,2012-01-09
NEON.D05.UNDE.DP1.00033,46.23391,-89.537254,529,-1.11,2012-01-09
NEON.D06.KING.DP1.20002,39.10506,-96.60336,339,-0.246,2012-01-09
NEON.D06.KONA.DP1.00033,39.110446,-96.612935,443,-0.246,2012-01-09
NEON.D06.KONZ.DP1.00033,39.10077,-96.56309,415,-0.289,2012-01-09
NEON.D06.MCDI.DP1.20002,38.94428,-96.44197,376,-0.572,2012-01-09
NEON.D06.UKFS.DP1.00033,39.040431,-95.19215,330,-0.517,2012-01-09
NEON.D07.GRSM.DP1.00033,35.68896,-83.50195,589,1.063,2012-01-09
NEON.D07.LECO.DP1.20002,35.69043,-83.50379,578,1.063,2012-01-09
NEON.D07.MLBS.DP1.00033,37.378314,-80.524847,1177,0.719,2012-01-09
NEON.D07.ORNL.DP1.00033,35.964128,-84.282588,351,1.647,2012-01-09
NEON.D07.WALK.DP1.20002,35.95947,-84.28041,274,1.58,2012-01-09
NEON.D08.BLWA.DP1.20002,32.541529,-87.798151,23,-0.02,2012-01-09
NEON.D08.DELA.DP1.00033,32.541727,-87.803877,36,-0.02,2012-01-09
NEON.D08.LENO.DP1.00033,31.85388,-88.16122,10,-0.479,2012-01-09
NEON.D08.MAYF.DP1.20002,32.959657,-87.408128,93,-0.3,2012-01-09
NEON.D08.TALL.DP1.00033,32.95047,-87.393259,167,-0.3,2012-01-09
NEON.D08.TOMB.DP1.20002,31.853431,-88.158872,10,-0.479,2012-01-09
NEON.D09.DCFS.DP1.00033,47.161647,-99.106556,574,1.872,2012-01-09
NEON.D09.NOGP.DP1.00033,46.76972,-100.91535,589,1.215,2012-01-09
NEON.D09.PRLA.DP1.20002,47.15909,-99.11388,563,1.704,2012-01-09
NEON.D09.PRPO.DP1.20002,47.12999,-99.250551,587,1.711,2012-01-09
NEON.D09.WOOD.DP1.00033,47.1282,-99.241334,585,1.711,2012-01-09
NEON.D10.ARIK.DP1.20002,39.758246,-102.447103,1188,0.824,2012-01-09
NEON.D10.CPER.DP1.00033,40.81553,-104.7456,1600,0.709,2012-01-09
NEON.D10.HQTW.DP1.00033,40.016704,-105.245612,1601,0.325,2012-01-09
NEON.D10.RMNP.DP1.00033,40.275903,-105.545955,2751,0.506,2012-01-09
NEON.D10.STER.DP1.00033,40.461894,-103.02929,1366,1.805,2012-01-09
NEON.D11.BLUE.DP1.20002,34.444218,-96.624201,288,-2.047,2012-01-09
NEON.D11.CLBJ.DP1.00033,33.40123,-97.57,279,-1.071,2012-01-09
NEON.D11.OAES.DP1.00033,35.41059,-99.05879,520,-2.035,2012-01-09
NEON.D11.PRIN.DP1.20002,33.37859,-97.78226,255,-1.224,2012-01-09
NEON.D12.BLDE.DP1.20002,44.95011,-110.58715,2035,0.558,2012-01-09
NEON.D12.YELL.DP1.00033,44.95348,-110.53914,2130,0.778,2012-01-09
NEON.D13.COMO.DP1.20002,40.03496,-105.54487,3036,0.295,2012-01-09
NEON.D13.MOAB.DP1.00033,38.24833,-109.38827,1803,-0.683,2012-01-09
NEON.D13.NIWO.DP1.00033,40.05425,-105.58237,3493,0.318,2012-01-09
NEON.D13.WLOU.DP1.20002,39.891366,-105.915395,2920,-0.067,2012-01-09
NEON.D14.JORN.DP1.00033,32.59068,-106.84254,1321,-0.922,2012-01-09
NEON.D14.SRER.DP1.00033,31.91068,-110.83549,999,-0.467,2012-01-09
NEON.D14.SYCA.DP1.20002,33.749057,-111.506903,644,-0.684,2012-01-09
NEON.D15.ONAQ.DP1.00033,40.177599,-112.452452,1655,1.007,2012-01-09
NEON.D15.REDB.DP1.20002,40.783934,-111.797887,1696,0.851,2012-01-09
NEON.D16.ABBY.DP1.00033,45.76243,-122.33033,390,-0.099,2012-01-09
NEON.D16.MART.DP1.20002,45.791248,-121.931959,354,0.085,2012-01-09
NEON.D16.MCRA.DP1.20002,44.259598,-122.165554,880,-0.131,2012-01-09
NEON.D16.WREF.DP1.00033,45.82049,-121.95191,368,0.125,2012-01-09
NEON.D17.BIGC.DP1.20002,37.059719,-119.257549,1133,-0.032,2012-01-09
NEON.D17.SJER.DP1.00033,37.10878,-119.73228,398,0.053,2012-01-09
NEON.D17.SOAP.DP1.00033,37.03337,-119.26219,1210,-0.039,2012-01-09
NEON.D17.TEAK.DP1.00033,37.00583,-119.00602,2149,-0.039,2012-01-09
NEON.D17.TECR.DP1.20002,36.955931,-119.027363,2053,-0.031,2012-01-09
NEON.D18.BARR.DP1.00033,71.28241,-156.61936,7,-9999.0,2012-01-09
NEON.D18.OKSR.DP1.20002,68.669753,-149.143018,773,-9999.0,2012-01-09
NEON.D18.TOOK.DP1.20002,68.629562,-149.610509,715,-9999.0,2012-01-09
NEON.D18.TOOL.DP1.00033,68.66109,-149.37047,827,-9999.0,2012-01-09
NEON.D19.BONA.DP1.00033,65.15401,-147.50258,233,-9999.0,2012-01-09
NEON.D19.CARI.DP1.20002,65.15306,-147.50246,229,-9999.0,2012-01-09
NEON.D19.DEJU.DP1.00033,63.88112,-145.75136,504,-9999.0,2012-01-09
NEON.D19.HEAL.DP1.00033,63.87569,-149.21334,409,-9999.0,2012-01-09
NEON.D20.PUUM.DP1.00033,19.55309,-155.31731,1683,-9999.0,2012-01-09
nevcansnk3a,39.0099,-114.3095,3063,0.424,2012-01-09
nevcanspg1a,38.9253,-114.4082,1792,0.309,2012-01-09
nevcanspg2a,38.8921,-114.3521,2203,0.396,2012-01-09
nevcanspg3a,38.8898,-114.3314,2820,0.537,2012-01-09
nevcanspg4a,38.9061,-114.3089,3360,0.537,2012-01-09
ninemileprairie,40.86801886,-96.82208066,381,0.262,2012-01-09
nist,39.139,-77.2125,100,1.463,2012-01-09
niwot3,40.03286358,-105.5469702,3050,0.295,2012-01-09
niwot5,40.03286358,-105.5469702,2993,0.295,2012-01-09
northattleboroma,41.98369,-71.31056,60,1.032,2012-01-09
northinletsaltmarsh,33.3455,-79.1957,1,-1.956,2012-01-09
oakville,47.899334,-97.316139,268,-0.155,2012-01-09
oregonMP,44.4523,-121.5574,1253,-0.251,2012-01-09
oregonYP,44.32384,-121.605993,977,-0.306,2012-01-09
oregonYPbud,44.3238,-121.606,977,-0.306,2012-01-09
othshardwood,44.934805,-68.6655,41,0.841,2012-01-09
othssoftwood,44.934527,-68.664888,41,0.841,2012-01-09
pace,37.9229,-78.2739,100,1.066,2012-01-09
parkschoolbuffalo,42.9637,-78.7834,205,2.063,2012-01-09
piedmontalpasture2,33.8875,-85.6935,238,0.218,2012-01-09
portal,31.9385,-109.0823,1330,-0.717,2012-01-09
proctor,44.525,-72.866,403,1.755,2012-01-09
readingma,42.5304,-71.1272,100,0.99,2012-01-09
robinson,37.4671,-83.1576,483,1.869,2012-01-09
robinson2,37.4671,-83.1576,483,1.869,2012-01-09
rosemountcons,44.6946,-93.0578,283,-0.692,2012-01-09
rosemountconv,44.691,-93.0576,283,-0.692,2012-01-09
rosemountnprs,44.6781,-93.0723,274,-0.616,2012-01-09
russellsage,32.456961,-91.974322,20,-1.036,2012-01-09
sagehen,39.4315,-120.2398,1934,0.2,2012-01-09
sagehen2,39.4307,-120.2407,1937,0.2,2012-01-09
sagehen3,39.4311,-120.2405,1935,0.2,2012-01-09
sanford,42.726777,-84.464482,268,1.904,2012-01-09
santacruz1,36.9741,-122.0308,11,0.027,2012-01-09
santacruz2,36.9741,-122.0308,11,0.027,2012-01-09
santaluciapreserve1,36.5265,-121.8682,500,0.288,2012-01-09
santaluciapreserve2,36.5265,-121.8682,500,0.288,2012-01-09
segaarboretum10,35.16209,-111.73151,2170,-0.291,2012-01-09
segaarboretum2,35.16209,-111.73151,2170,-0.291,2012-01-09
segaarboretum3,35.16209,-111.73151,2170,-0.291,2012-01-09
segaarboretum4,35.16214,-111.73153,2170,-0.291,2012-01-09
segaarboretum6,35.16209,-111.73151,2170,-0.291,2012-01-09
segaarboretum9,35.16222,-111.73158,2170,-0.291,2012-01-09
segaarboretumforest,35.1613,-111.7359,2173,-0.291,2012-01-09
segaarboretummeadow,35.1621,-111.7316,2157,-0.291,2012-01-09
segablackpoint,35.6814,-111.4754,1566,0.433,2012-01-09
segabluechute,35.5876,-111.9716,1930,-0.517,2012-01-09
segabluechute1,35.58759,-111.97115,1931,-0.517,2012-01-09
segabluechute2,35.58759,-111.97115,1931,-0.517,2012-01-09
segabluechute4,35.58759,-111.9716,1931,-0.517,2012-01-09
segabluechute6,35.58759,-111.97115,1931,-0.517,2012-01-09
segabluechute7,35.58759,-111.97115,1931,-0.517,2012-01-09
segabluechute8,35.58759,-111.97115,1931,-0.517,2012-01-09
segabradshaw,34.9109,-111.9285,1402,-0.65,2012-01-09
segahartprairie,35.3536,-111.7324,2585,-0.211,2012-01-09
segalcr,35.7231,-111.321,1275,0.435,2012-01-09
segalcr2,35.7069,-111.36,1495,0.343,2012-01-09
segalittlemountain,36.5865,-112.3634,2276,-0.361,2012-01-09
segasoapcreek,36.751,-111.716,1233,0.046,2012-01-09
segawhitepockets,36.6081,-112.4082,2057,-0.377,2012-01-09
sevilletagrass,34.360444,-106.700186,1600,-1.292,2012-01-09
sevilletanewgrass,34.358,-106.6799,1603,-1.344,2012-01-09
sevilletashrub,34.334956,-106.744469,1603,-1.193,2012-01-09
sevMRME10L,34.3438,-106.7269,1604,-1.27,2012-01-09
sevMRME11C,34.3438,-106.7268,1604,-1.27,2012-01-09
sevMRME1S,34.3442,-106.7272,1604,-1.27,2012-01-09
sevpjrm12,34.38615,-106.52621,1905,-1.895,2012-01-09
sevpjrm13,34.38631,-106.52791,1914,-1.895,2012-01-09
shalehillsczo,40.6658,-77.9041,310,2.159,2012-01-09
shenandoah,38.6167,-78.35,1037,0.544,2012-01-09
silverton,44.9986,-122.6948,347,-0.012,2012-01-09
siwetland,38.0369,-121.7546,-5,0.271,2012-01-09
slatefloodplain,38.9094,-107.0282,2725,-0.965,2012-01-09
snodgrass1,38.92619636,-106.9714376,3023,-0.655,2012-01-09
snodgrass2,38.92619636,-106.9714376,3023,-0.655,2012-01-09
snodgrass3,38.92839978,-106.9781196,3141,-0.655,2012-01-09
snodgrass4,38.92839978,-106.9781196,3141,-0.655,2012-01-09
snodgrass5,38.92744789,-106.9785209,3152,-0.655,2012-01-09
snodgrass6,38.92744789,-106.9785209,3152,-0.655,2012-01-09
snodgrass7,38.93142134,-106.9852388,3363,-0.588,2012-01-09
snodgrass8,38.93142134,-106.9852388,3363,-0.588,2012-01-09
southerngreatplains,36.6058,-97.4888,314,-0.722,2012-01-09
springfieldma,42.135162,-72.585972,56,2.189,2012-01-09
spruceA0EMI,47.5049,-93.4541,413,-1.085,2012-01-09
spruceA0EMT,47.5049,-93.4541,418,-1.085,2012-01-09
spruceA0P07,47.50493,-93.45314,413,-1.085,2012-01-09
spruceA0P07SH,47.50493,-93.45314,413,-1.085,2012-01-09
spruceA0P21,47.50625,-93.45275,413,-1.085,2012-01-09
spruceA0P21SH,47.50625,-93.45275,413,-1.085,2012-01-09
srg,31.7894,-110.8276,1281,-1.13,2012-01-09
srm,31.8214,-110.8661,1116,-0.574,2012-01-09
statenrice1,38.1235,-121.549,-5,-0.172,2012-01-09
stjones,39.088222,-75.43725,2,0.889,2012-01-09
sweetbriar,37.57341,-79.08482,242,0.953,2012-01-09
sweetbriarclearcut,37.5753,-79.0872,242,0.953,2012-01-09
sweetbriargrass,37.5605,-79.0884,240,0.953,2012-01-09
sylvania,46.242,-89.348,540,-1.069,2012-01-09
templefieldstation1,40.1667,-75.1894,105,2.481,2012-01-09
tfforest,43.1086,-70.9505,23,0.765,2012-01-09
tidmarshplymouth,41.9157,-70.5754,9,0.699,2012-01-09
tonzi,38.43091667,-120.9658861,177,0.094,2012-01-09
townsenddemeadow,39.3917,-75.6281,11,1.888,2012-01-09
tsubiology,36.1671,-86.8295,164,0.877,2012-01-09
tsubiology2,36.1171,-86.8295,100,0.53,2012-01-09
tuckerprairie,38.9491,-91.9952,274,-0.344,2012-01-09
twodafo,29.1658,-95.829,16,-2.995,2012-01-09
tworfaa,31.4777,-96.8882,167,-2.261,2012-01-09
tworfpr,31.4802,-96.8826,162,-2.203,2012-01-09
tworfta,31.4693,-96.8864,173,-2.261,2012-01-09
twosfpr,30.6176,-97.2938,157,-2.531,2012-01-09
ucnrsanzaborrego,33.2401,-116.3886,214,-0.178,2012-01-09
ufona,27.3836,-81.950856,25,-0.547,2012-01-09
uiefmaize2,40.0628,-88.1961,224,-0.416,2012-01-09
uiefmiscanthus2,40.0628,-88.1984,221,-0.416,2012-01-09
uiefprairie2,40.0637,-88.1973,224,-0.416,2012-01-09
uiefsorghum,40.0065,-88.2032,224,-0.487,2012-01-09
uiefswitchgrass2,40.0637,-88.1973,224,-0.416,2012-01-09
umichbiological,45.55984,-84.71382,230,1.093,2012-01-09
umichbiological2,45.5625,-84.6976,240,1.233,2012-01-09
unca,35.5951,-82.5515,650,0.626,2012-01-09
usgseros,43.7343,-96.6234,448,-0.153,2012-01-09
usmpj,34.43845,-106.2543606,2126,-1.516,2012-01-09
usof5,35.7297,-90.0406,70,1.806,2012-01-09
usof6,35.7333,-90.0403,70,1.806,2012-01-09
uwmfieldsta,43.38709,-88.0229,265,0.724,2012-01-09
vaira,38.41328056,-120.9506361,129,0.094,2012-01-09
vallesburnedconifer,35.8884,-106.5321,3043,-0.827,2012-01-09
vallesmixedconifer,35.9192,-106.6142,2752,-0.729,2012-01-09
vallesponderosapine,35.864,-106.5964,2501,-0.755,2012-01-09
waahila,21.3017,-157.8152,55,-9999.0,2012-01-09
warrenwilson,35.6069,-82.4421,2198,0.408,2012-01-09
willamettepoplar,44.1368,-123.1823,112,-0.226,2012-01-09
willowcreek,45.805986,-90.07912,521,-0.555,2012-01-09
windriver,45.8212833,-121.9520833,371,0.125,2012-01-09
windriverunderstory,45.8212833,-121.9520833,371,0.125,2012-01-09
wolfesneckfarm,43.8305,-70.0715,16,0.337,2012-01-09
worcester,42.2697,-71.8428,185,2.002,2012-01-09
alligatorriver,35.7879,-75.9038,1,-0.856,2012-01-16
arbutuslake,43.98207,-74.23322,535,2.659,2012-01-16
arbutuslakeinlet,43.99336,-74.24527,527,2.659,2012-01-16
archboldavir,27.176064,-81.21958,8,-0.697,2012-01-16
archboldavirx,27.166627,-81.219828,8,-0.697,2012-01-16
archboldbahia,27.1656,-81.216112,8,-0.697,2012-01-16
archboldpnot,27.187948,-81.200345,9,-0.697,2012-01-16
archboldpnotx,27.180677,-81.20068,9,-0.697,2012-01-16
arkansascornsoy,34.416,-91.6723,61,0.921,2012-01-16
arsbrooks10,41.9749,-93.6905,312,-0.663,2012-01-16
arsbrooks11,41.9744,-93.6937,313,-0.663,2012-01-16
arscolesnorth,42.4884,-93.5225,356,-1.089,2012-01-16
arscolessouth,42.4816,-93.5235,352,-1.089,2012-01-16
arsgacp1,31.5109,-83.6179,96,-2.184,2012-01-16
arsgacp3,31.7563,-83.7516,139,-2.269,2012-01-16
arsgacp4,31.7093,-83.7287,127,-2.311,2012-01-16
arsgreatbasinltar098,43.1675,-116.7132,1426,0.072,2012-01-16
arsgreatbasinltar117,43.1432,-116.7357,1625,-0.014,2012-01-16
arsgreatbasinltar177,43.0645,-116.7484,2114,-0.094,2012-01-16
arsltarmdcr,39.0587,-75.8513,17,1.726,2012-01-16
arsltarmdcrnatw,39.0575,-75.7531,16,1.65,2012-01-16
arsltarmdcrprcw,39.0667,-75.7609,17,1.65,2012-01-16
arsltarmdcrresw,39.0549,-75.7532,16,1.65,2012-01-16
arsltarucbec1,40.7537,-78.0057,400,2.304,2012-01-16
arsltarucbec2,40.7558,-77.9999,396,2.304,2012-01-16
arsmnswanlake1,45.684508,-95.799703,370,0.038,2012-01-16
arsmorris1,45.6167,-96.1269,341,0.139,2012-01-16
arsmorris2,45.627,-96.127,338,0.139,2012-01-16
arsmorris3,45.6091,-96.1265,342,0.139,2012-01-16
arsope3ltar,39.0309,-76.8442,41,1.651,2012-01-16
ashburnham,42.6029,-71.926,292,1.921,2012-01-16
asuhighlands,36.2076,-81.7032,1016,1.116,2012-01-16
austincary,29.738,-82.2188,44,-2.311,2012-01-16
barrow,71.28007453,-156.6091492,5,-9999.0,2012-01-16
bartlettir,44.0646,-71.2881,268,1.415,2012-01-16
bigtraillake,64.9194,-147.822,190,-9999.0,2012-01-16
bitterbrush001,48.154,-119.9456,667,0.24,2012-01-16
blackrockforest,41.3974,-74.0239,427,2.807,2012-01-16
bnzblackspruce,64.6963,-148.3235,102,-9999.0,2012-01-16
bnzrichfen,64.70134,-148.31195,97,-9999.0,2012-01-16
bnzthermokarstbog,64.6955,-148.3208,104,-9999.0,2012-01-16
boglakepeatland,47.5051,-93.4893,416,-0.925,2012-01-16
bostoncommon,42.355912,-71.064145,10,1.041,2012-01-16
bostonu,42.35041,-71.10438,10,1.116,2012-01-16
bouldinalfalfa,38.0985,-121.4993,-5,-0.125,2012-01-16
bouldincorn,38.109,-121.535,-5,-0.109,2012-01-16
bozeman,45.783056,-110.777778,2332,0.349,2012-01-16
brackishimpoundment,33.2015,-79.2973,1,-2.122,2012-01-16
bullshoals,36.562833,-93.06663,260,1.506,2012-01-16
burnssagebrush,43.4712,-119.6909,1398,-0.035,2012-01-16
butte,45.95304,-112.47964,1682,0.737,2012-01-16
butterice,39.5793,-121.858,33,0.468,2012-01-16
cafboydnorthltar01,46.755104,-117.126052,795,-0.108,2012-01-16
cafboydsouthltar01,46.751809,-117.128502,795,-0.108,2012-01-16
cafcookeastltar01,46.78152,-117.0821,794,-0.128,2012-01-16
cafcookwestltar01,46.784037,-117.09083,807,-0.128,2012-01-16
caryinstitute,41.7839,-73.7341,127,2.766,2012-01-16
centralredwoods1,38.632272,-123.301511,200,-0.429,2012-01-16
centralredwoods2,38.632272,-123.301511,200,-0.429,2012-01-16
cperagm,40.8402,-104.7672,1644,0.605,2012-01-16
cperheavy,40.8153,-104.7386,1652,0.674,2012-01-16
cpertgm,40.833,-104.76,1644,0.65,2012-01-16
cperuvb,40.8055764,-104.7558542,1641,0.65,2012-01-16
cuny,40.8162,-73.9507,42,2.366,2012-01-16
doverdesaltmarsh,39.0888,-75.4368,0,0.999,2012-01-16
downerwoods,43.07938,-87.88076,213,0.367,2012-01-16
dukehw,35.973583,-79.100371,400,-0.688,2012-01-16
ecb1,41.5348,-84.8068,275,2.495,2012-01-16
ecb2,41.5321,-84.808,275,2.495,2012-01-16
ecb4,41.1796,-83.0604,240,2.878,2012-01-16
elverde,18.320654,-65.8199,312,-9999.0,2012-01-16
flagstaff,35.17961521,-111.6049032,6983,-0.188,2012-01-16
flagstaff2,35.179225,-111.604506,6983,-0.188,2012-01-16
flagstaffchimneysprings,35.257296,-111.678542,2250,-0.223,2012-01-16
forbes,39.232,-121.2972,360,0.011,2012-01-16
fortpaynealpasture1,34.3824,-85.6428,405,1.073,2012-01-16
fortpaynealpasture2,34.3824,-85.6447,403,1.073,2012-01-16
gcesapelo,31.4440444,-81.283528,0,-1.439,2012-01-16
gilberttract,38.0015,-121.6691,6,0.162,2012-01-16
glees,41.3644,-106.2394,3150,0.98,2012-01-16
glennorganicrice,39.6805,-122.0026,2,0.348,2012-01-16
glennrice,39.5944,-122.0253,36,0.073,2012-01-16
goodnow,43.96018,-74.20994,820,2.524,2012-01-16
goodwater,39.22848,-92.11936,264,-0.98,2012-01-16
goodwaterbau,39.23115,-92.15216,274,-0.917,2012-01-16
grandteton,43.915017,-110.578036,2054,1.04,2012-01-16
grca1pj,36.0241,-112.2211,1978,-0.273,2012-01-16
greenridge1,39.6905,-78.4067,285,1.65,2012-01-16
harvard,42.5378,-72.1715,340,2.137,2012-01-16
harvardbarn,42.53532,-72.1899,350,2.154,2012-01-16
harvardbarn2,42.53532,-72.1899,350,2.154,2012-01-16
harvardems2,42.5378,-72.1715,340,2.137,2012-01-16
harvardfarmnorth,42.520465,-72.182242,355,2.154,2012-01-16
harvardfarmsouth,42.522466,-72.182339,355,2.154,2012-01-16
harvardgarden,42.5291,-72.1863,335,2.154,2012-01-16
harvardhemlock,42.539,-72.18,355,2.154,2012-01-16
harvardhemlock2,42.539407,-72.177976,355,2.137,2012-01-16
harvardlph,42.542,-72.185,380,2.154,2012-01-16
hawbeckereddy,40.6608,-77.848849,310,2.234,2012-01-16
hobcawclearcutlongleaf,33.3486,-79.232,4,-1.875,2012-01-16
hobcawmaturelongleaf,33.3242,-79.2439,8,-1.875,2012-01-16
homesteadsprings,37.2009,-92.9937,452,1.059,2012-01-16
howland1,45.2041,-68.7403,80,0.52,2012-01-16
howland2,45.2128,-68.7418,79,0.52,2012-01-16
hubbardbrook,43.9438,-71.701,253,1.7,2012-01-16
humnokericea,34.585192,-91.751684,61,1.11,2012-01-16
humnokericec,34.588853,-91.7516729,70,1.11,2012-01-16
huyckpreserveny,42.5266,-74.1587,478,2.657,2012-01-16
hwmo1,20.0212,-155.7331,585,-9999.0,2012-01-16
hwmo2,19.9766,-155.8298,12,-9999.0,2012-01-16
hwmo5,20.1117,-155.8151,635,-9999.0,2012-01-16
ibp,32.589,-106.847,1325,-0.757,2012-01-16
imcrkfen,68.60583,-149.31101,900,-9999.0,2012-01-16
imcrkridge0,68.60681,-149.2958,951,-9999.0,2012-01-16
imcrkridge1,68.60681,-149.2958,951,-9999.0,2012-01-16
imcrktussock,68.60633,-149.30408,918,-9999.0,2012-01-16
jasperridge,37.402028,-122.22104,197,-0.208,2012-01-16
jerbajada,32.57992,-106.633793,1402,-0.503,2012-01-16
jergrassland,32.5833,-106.8333,1331,-0.757,2012-01-16
jernort,32.619,-106.788,1328,-0.88,2012-01-16
jernovel,32.6335,-106.8334,1324,-0.817,2012-01-16
jernwern,32.6271,-106.7387,1325,-0.722,2012-01-16
jersand,32.515,-106.798,1363,-1.084,2012-01-16
jershrubland,32.6502,-106.8334,1328,-0.751,2012-01-16
junipersavannah,34.4254,-105.8615,1931,-1.099,2012-01-16
kamuela,20.015008,-155.661326,850,-9999.0,2012-01-16
kamuela2,20.014959,-155.661139,830,-9999.0,2012-01-16
kansas,39.0561,-95.1907,333,-0.519,2012-01-16
kelloggcorn,42.437536,-85.3225472,288,1.816,2012-01-16
kempnrs,45.83992,-89.67755,539,-0.945,2012-01-16
kendall,31.73652,-109.94185,1529,-0.122,2012-01-16
konza,39.0824,-96.5603,443,-0.314,2012-01-16
laupahoehoe,19.9322,-155.2912,1145,-9999.0,2012-01-16
ldeocam,41.0039,-73.9053,121,2.506,2012-01-16
lostcreek,46.0827,-89.9792,480,-0.611,2012-01-16
luckyhills,31.743896,-110.052023,1366,0.071,2012-01-16
macleish,42.4484,-72.6804,251,2.672,2012-01-16
macordway,44.8106,-93.0272,264,-0.576,2012-01-16
mandanh5,46.775423,-100.95109,593,1.305,2012-01-16
mandani2,46.7614,-100.9257,590,1.177,2012-01-16
manilacotton,35.8872,-90.1371,73,1.769,2012-01-16
marena,36.06434,-97.21271,327,-2.033,2012-01-16
mead1,41.1651,-96.4766,361,0.144,2012-01-16
mead2,41.1649,-96.4701,362,0.144,2012-01-16
mead3,41.1797,-96.4397,363,0.049,2012-01-16
meadpasture,41.1447,-96.4616,356,0.242,2012-01-16
meadpasturese,41.1447,-96.4616,356,0.242,2012-01-16
meadpasturesw,41.1447,-96.4616,356,0.242,2012-01-16
missouriozarks,38.7441,-92.2,219,-0.15,2012-01-16
morganmonroe,39.3231,-86.4131,275,1.556,2012-01-16
morganmonroe2,39.3231,-86.4131,275,1.556,2012-01-16
nahuku,19.415187,-155.238383,1202,-9999.0,2012-01-16
nationalelkrefuge,43.488931,-110.737824,1899,0.63,2012-01-16
ncssm,36.018446,-78.92075,175,0.01,2012-01-16
NEON.D01.BART.DP1.00033,44.063869,-71.287375,285,1.415,2012-01-16
NEON.D01.HARV.DP1.00033,42.536911,-72.17265,359,2.137,2012-01-16
NEON.D01.HOPB.DP1.20002,42.471786,-72.329627,203,2.006,2012-01-16
NEON.D02.BLAN.DP1.00033,39.033698,-78.041788,162,1.003,2012-01-16
NEON.D02.LEWI.DP1.20002,39.09564,-77.98322,152,1.166,2012-01-16
NEON.D02.POSE.DP1.20002,38.89332,-78.14678,293,1.021,2012-01-16
NEON.D02.SCBI.DP1.00033,38.892925,-78.139494,364,0.977,2012-01-16
NEON.D02.SERC.DP1.00033,38.89008,-76.56001,30,1.814,2012-01-16
NEON.D03.BARC.DP1.20002,29.676473,-82.009089,35,-1.768,2012-01-16
NEON.D03.DSNY.DP1.00033,28.12505,-81.43619,22,0.516,2012-01-16
NEON.D03.FLNT.DP1.20002,31.185424,-84.437403,27,-2.24,2012-01-16
NEON.D03.JERC.DP1.00033,31.194839,-84.468623,58,-2.303,2012-01-16
NEON.D03.OSBS.DP1.00033,29.689282,-81.993431,56,-1.903,2012-01-16
NEON.D03.SUGG.DP1.20002,29.687054,-82.016171,28,-1.903,2012-01-16
NEON.D04.CUPE.DP1.20002,18.11352,-66.98676,164,-9999.0,2012-01-16
NEON.D04.GUAN.DP1.00033,17.96955,-66.8687,136,-9999.0,2012-01-16
NEON.D04.GUIL.DP1.20002,18.1741,-66.79851,564,-9999.0,2012-01-16
NEON.D04.LAJA.DP1.00033,18.021261,-67.076889,22,-9999.0,2012-01-16
NEON.D05.CRAM.DP1.20002,46.21111,-89.47825,518,-1.092,2012-01-16
NEON.D05.LIRO.DP1.20002,45.998269,-89.704767,495,-0.862,2012-01-16
NEON.D05.STEI.DP1.00033,45.50894,-89.58637,476,-0.352,2012-01-16
NEON.D05.TREE.DP1.00033,45.49373,-89.58572,474,-0.352,2012-01-16
NEON.D05.UNDE.DP1.00033,46.23391,-89.537254,529,-1.102,2012-01-16
NEON.D06.KING.DP1.20002,39.10506,-96.60336,339,-0.273,2012-01-16
NEON.D06.KONA.DP1.00033,39.110446,-96.612935,443,-0.273,2012-01-16
NEON.D06.KONZ.DP1.00033,39.10077,-96.56309,415,-0.314,2012-01-16
NEON.D06.MCDI.DP1.20002,38.94428,-96.44197,376,-0.628,2012-01-16
NEON.D06.UKFS.DP1.00033,39.040431,-95.19215,330,-0.519,2012-01-16
NEON.D07.GRSM.DP1.00033,35.68896,-83.50195,589,1.243,2012-01-16
NEON.D07.LECO.DP1.20002,35.69043,-83.50379,578,1.243,2012-01-16
NEON.D07.MLBS.DP1.00033,37.378314,-80.524847,1177,0.876,2012-01-16
NEON.D07.ORNL.DP1.00033,35.964128,-84.282588,351,1.834,2012-01-16
NEON.D07.WALK.DP1.20002,35.95947,-84.28041,274,1.776,2012-01-16
NEON.D08.BLWA.DP1.20002,32.541529,-87.798151,23,0.18,2012-01-16
NEON.D08.DELA.DP1.00033,32.541727,-87.803877,36,0.18,2012-01-16
NEON.D08.LENO.DP1.00033,31.85388,-88.16122,10,-0.442,2012-01-16
NEON.D08.MAYF.DP1.20002,32.959657,-87.408128,93,-0.175,2012-01-16
NEON.D08.TALL.DP1.00033,32.95047,-87.393259,167,-0.175,2012-01-16
NEON.D08.TOMB.DP1.20002,31.853431,-88.158872,10,-0.442,2012-01-16
NEON.D09.DCFS.DP1.00033,47.161647,-99.106556,574,1.88,2012-01-16
NEON.D09.NOGP.DP1.00033,46.76972,-100.91535,589,1.177,2012-01-16
NEON.D09.PRLA.DP1.20002,47.15909,-99.11388,563,1.712,2012-01-16
NEON.D09.PRPO.DP1.20002,47.12999,-99.250551,587,1.716,2012-01-16
NEON.D09.WOOD.DP1.00033,47.1282,-99.241334,585,1.716,2012-01-16
NEON.D10.ARIK.DP1.20002,39.758246,-102.447103,1188,0.716,2012-01-16
NEON.D10.CPER.DP1.00033,40.81553,-104.7456,1600,0.65,2012-01-16
NEON.D10.HQTW.DP1.00033,40.016704,-105.245612,1601,0.209,2012-01-16
NEON.D10.RMNP.DP1.00033,40.275903,-105.545955,2751,0.362,2012-01-16
NEON.D10.STER.DP1.00033,40.461894,-103.02929,1366,1.805,2012-01-16
NEON.D11.BLUE.DP1.20002,34.444218,-96.624201,288,-1.919,2012-01-16
NEON.D11.CLBJ.DP1.00033,33.40123,-97.57,279,-0.87,2012-01-16
NEON.D11.OAES.DP1.00033,35.41059,-99.05879,520,-2.023,2012-01-16
NEON.D11.PRIN.DP1.20002,33.37859,-97.78226,255,-1.048,2012-01-16
NEON.D12.BLDE.DP1.20002,44.95011,-110.58715,2035,0.311,2012-01-16
NEON.D12.YELL.DP1.00033,44.95348,-110.53914,2130,0.487,2012-01-16
NEON.D13.COMO.DP1.20002,40.03496,-105.54487,3036,0.119,2012-01-16
NEON.D13.MOAB.DP1.00033,38.24833,-109.38827,1803,-0.671,2012-01-16
NEON.D13.NIWO.DP1.00033,40.05425,-105.58237,3493,0.139,2012-01-16
NEON.D13.WLOU.DP1.20002,39.891366,-105.915395,2920,-0.142,2012-01-16
NEON.D14.JORN.DP1.00033,32.59068,-106.84254,1321,-0.757,2012-01-16
NEON.D14.SRER.DP1.00033,31.91068,-110.83549,999,-0.429,2012-01-16
NEON.D14.SYCA.DP1.20002,33.749057,-111.506903,644,-0.618,2012-01-16
NEON.D15.ONAQ.DP1.00033,40.177599,-112.452452,1655,1.015,2012-01-16
NEON.D15.REDB.DP1.20002,40.783934,-111.797887,1696,0.822,2012-01-16
NEON.D16.ABBY.DP1.00033,45.76243,-122.33033,390,-0.257,2012-01-16
NEON.D16.MART.DP1.20002,45.791248,-121.931959,354,-0.091,2012-01-16
NEON.D16.MCRA.DP1.20002,44.259598,-122.165554,880,-0.329,2012-01-16
NEON.D16.WREF.DP1.00033,45.82049,-121.95191,368,-0.045,2012-01-16
NEON.D17.BIGC.DP1.20002,37.059719,-119.257549,1133,-0.018,2012-01-16
NEON.D17.SJER.DP1.00033,37.10878,-119.73228,398,0.087,2012-01-16
NEON.D17.SOAP.DP1.00033,37.03337,-119.26219,1210,-0.021,2012-01-16
NEON.D17.TEAK.DP1.00033,37.00583,-119.00602,2149,-0.022,2012-01-16
NEON.D17.TECR.DP1.20002,36.955931,-119.027363,2053,-0.022,2012-01-16
NEON.D18.BARR.DP1.00033,71.28241,-156.61936,7,-9999.0,2012-01-16
NEON.D18.OKSR.DP1.20002,68.669753,-149.143018,773,-9999.0,2012-01-16
NEON.D18.TOOK.DP1.20002,68.629562,-149.610509,715,-9999.0,2012-01-16
NEON.D18.TOOL.DP1.00033,68.66109,-149.37047,827,-9999.0,2012-01-16
NEON.D19.BONA.DP1.00033,65.15401,-147.50258,233,-9999.0,2012-01-16
NEON.D19.CARI.DP1.20002,65.15306,-147.50246,229,-9999.0,2012-01-16
NEON.D19.DEJU.DP1.00033,63.88112,-145.75136,504,-9999.0,2012-01-16
NEON.D19.HEAL.DP1.00033,63.87569,-149.21334,409,-9999.0,2012-01-16
NEON.D20.PUUM.DP1.00033,19.55309,-155.31731,1683,-9999.0,2012-01-16
nevcansnk3a,39.0099,-114.3095,3063,0.435,2012-01-16
nevcanspg1a,38.9253,-114.4082,1792,0.336,2012-01-16
nevcanspg2a,38.8921,-114.3521,2203,0.417,2012-01-16
nevcanspg3a,38.8898,-114.3314,2820,0.536,2012-01-16
nevcanspg4a,38.9061,-114.3089,3360,0.536,2012-01-16
ninemileprairie,40.86801886,-96.82208066,381,0.262,2012-01-16
nist,39.139,-77.2125,100,1.594,2012-01-16
niwot3,40.03286358,-105.5469702,3050,0.119,2012-01-16
niwot5,40.03286358,-105.5469702,2993,0.119,2012-01-16
northattleboroma,41.98369,-71.31056,60,1.114,2012-01-16
northinletsaltmarsh,33.3455,-79.1957,1,-2.078,2012-01-16
oakville,47.899334,-97.316139,268,-0.174,2012-01-16
oregonMP,44.4523,-121.5574,1253,-0.396,2012-01-16
oregonYP,44.32384,-121.605993,977,-0.478,2012-01-16
oregonYPbud,44.3238,-121.606,977,-0.478,2012-01-16
othshardwood,44.934805,-68.6655,41,0.753,2012-01-16
othssoftwood,44.934527,-68.664888,41,0.753,2012-01-16
pace,37.9229,-78.2739,100,1.169,2012-01-16
parkschoolbuffalo,42.9637,-78.7834,205,2.17,2012-01-16
piedmontalpasture2,33.8875,-85.6935,238,0.278,2012-01-16
portal,31.9385,-109.0823,1330,-0.628,2012-01-16
proctor,44.525,-72.866,403,1.614,2012-01-16
readingma,42.5304,-71.1272,100,1.054,2012-01-16
robinson,37.4671,-83.1576,483,1.933,2012-01-16
robinson2,37.4671,-83.1576,483,1.933,2012-01-16
rosemountcons,44.6946,-93.0578,283,-0.705,2012-01-16
rosemountconv,44.691,-93.0576,283,-0.705,2012-01-16
rosemountnprs,44.6781,-93.0723,274,-0.63,2012-01-16
russellsage,32.456961,-91.974322,20,-0.969,2012-01-16
sagehen,39.4315,-120.2398,1934,0.218,2012-01-16
sagehen2,39.4307,-120.2407,1937,0.218,2012-01-16
sagehen3,39.4311,-120.2405,1935,0.218,2012-01-16
sanford,42.726777,-84.464482,268,1.979,2012-01-16
santacruz1,36.9741,-122.0308,11,0.068,2012-01-16
santacruz2,36.9741,-122.0308,11,0.068,2012-01-16
santaluciapreserve1,36.5265,-121.8682,500,0.312,2012-01-16
santaluciapreserve2,36.5265,-121.8682,500,0.312,2012-01-16
segaarboretum10,35.16209,-111.73151,2170,-0.255,2012-01-16
segaarboretum2,35.16209,-111.73151,2170,-0.255,2012-01-16
segaarboretum3,35.16209,-111.73151,2170,-0.255,2012-01-16
segaarboretum4,35.16214,-111.73153,2170,-0.255,2012-01-16
segaarboretum6,35.16209,-111.73151,2170,-0.255,2012-01-16
segaarboretum9,35.16222,-111.73158,2170,-0.255,2012-01-16
segaarboretumforest,35.1613,-111.7359,2173,-0.255,2012-01-16
segaarboretummeadow,35.1621,-111.7316,2157,-0.255,2012-01-16
segablackpoint,35.6814,-111.4754,1566,0.386,2012-01-16
segabluechute,35.5876,-111.9716,1930,-0.494,2012-01-16
segabluechute1,35.58759,-111.97115,1931,-0.494,2012-01-16
segabluechute2,35.58759,-111.97115,1931,-0.494,2012-01-16
segabluechute4,35.58759,-111.9716,1931,-0.494,2012-01-16
segabluechute6,35.58759,-111.97115,1931,-0.494,2012-01-16
segabluechute7,35.58759,-111.97115,1931,-0.494,2012-01-16
segabluechute8,35.58759,-111.97115,1931,-0.494,2012-01-16
segabradshaw,34.9109,-111.9285,1402,-0.586,2012-01-16
segahartprairie,35.3536,-111.7324,2585,-0.201,2012-01-16
segalcr,35.7231,-111.321,1275,0.387,2012-01-16
segalcr2,35.7069,-111.36,1495,0.3,2012-01-16
segalittlemountain,36.5865,-112.3634,2276,-0.351,2012-01-16
segasoapcreek,36.751,-111.716,1233,0.052,2012-01-16
segawhitepockets,36.6081,-112.4082,2057,-0.358,2012-01-16
sevilletagrass,34.360444,-106.700186,1600,-1.268,2012-01-16
sevilletanewgrass,34.358,-106.6799,1603,-1.322,2012-01-16
sevilletashrub,34.334956,-106.744469,1603,-1.172,2012-01-16
sevMRME10L,34.3438,-106.7269,1604,-1.248,2012-01-16
sevMRME11C,34.3438,-106.7268,1604,-1.248,2012-01-16
sevMRME1S,34.3442,-106.7272,1604,-1.248,2012-01-16
sevpjrm12,34.38615,-106.52621,1905,-1.857,2012-01-16
sevpjrm13,34.38631,-106.52791,1914,-1.857,2012-01-16
shalehillsczo,40.6658,-77.9041,310,2.22,2012-01-16
shenandoah,38.6167,-78.35,1037,0.671,2012-01-16
silverton,44.9986,-122.6948,347,-0.099,2012-01-16
siwetland,38.0369,-121.7546,-5,0.32,2012-01-16
slatefloodplain,38.9094,-107.0282,2725,-1.122,2012-01-16
snodgrass1,38.92619636,-106.9714376,3023,-0.823,2012-01-16
snodgrass2,38.92619636,-106.9714376,3023,-0.823,2012-01-16
snodgrass3,38.92839978,-106.9781196,3141,-0.823,2012-01-16
snodgrass4,38.92839978,-106.9781196,3141,-0.823,2012-01-16
snodgrass5,38.92744789,-106.9785209,3152,-0.823,2012-01-16
snodgrass6,38.92744789,-106.9785209,3152,-0.823,2012-01-16
snodgrass7,38.93142134,-106.9852388,3363,-0.755,2012-01-16
snodgrass8,38.93142134,-106.9852388,3363,-0.755,2012-01-16
southerngreatplains,36.6058,-97.4888,314,-0.832,2012-01-16
springfieldma,42.135162,-72.585972,56,2.267,2012-01-16
spruceA0EMI,47.5049,-93.4541,413,-1.08,2012-01-16
spruceA0EMT,47.5049,-93.4541,418,-1.08,2012-01-16
spruceA0P07,47.50493,-93.45314,413,-1.08,2012-01-16
spruceA0P07SH,47.50493,-93.45314,413,-1.08,2012-01-16
spruceA0P21,47.50625,-93.45275,413,-1.08,2012-01-16
spruceA0P21SH,47.50625,-93.45275,413,-1.08,2012-01-16
srg,31.7894,-110.8276,1281,-1.095,2012-01-16
srm,31.8214,-110.8661,1116,-0.534,2012-01-16
statenrice1,38.1235,-121.549,-5,-0.112,2012-01-16
stjones,39.088222,-75.43725,2,0.999,2012-01-16
sweetbriar,37.57341,-79.08482,242,1.084,2012-01-16
sweetbriarclearcut,37.5753,-79.0872,242,1.084,2012-01-16
sweetbriargrass,37.5605,-79.0884,240,1.084,2012-01-16
sylvania,46.242,-89.348,540,-1.06,2012-01-16
templefieldstation1,40.1667,-75.1894,105,2.551,2012-01-16
tfforest,43.1086,-70.9505,23,0.758,2012-01-16
tidmarshplymouth,41.9157,-70.5754,9,0.769,2012-01-16
tonzi,38.43091667,-120.9658861,177,0.132,2012-01-16
townsenddemeadow,39.3917,-75.6281,11,1.956,2012-01-16
tsubiology,36.1671,-86.8295,164,1.109,2012-01-16
tsubiology2,36.1171,-86.8295,100,0.78,2012-01-16
tuckerprairie,38.9491,-91.9952,274,-0.349,2012-01-16
twodafo,29.1658,-95.829,16,-2.802,2012-01-16
tworfaa,31.4777,-96.8882,167,-2.125,2012-01-16
tworfpr,31.4802,-96.8826,162,-2.051,2012-01-16
tworfta,31.4693,-96.8864,173,-2.125,2012-01-16
twosfpr,30.6176,-97.2938,157,-2.52,2012-01-16
ucnrsanzaborrego,33.2401,-116.3886,214,-0.14,2012-01-16
ufona,27.3836,-81.950856,25,-0.571,2012-01-16
uiefmaize2,40.0628,-88.1961,224,-0.409,2012-01-16
uiefmiscanthus2,40.0628,-88.1984,221,-0.409,2012-01-16
uiefprairie2,40.0637,-88.1973,224,-0.409,2012-01-16
uiefsorghum,40.0065,-88.2032,224,-0.485,2012-01-16
uiefswitchgrass2,40.0637,-88.1973,224,-0.409,2012-01-16
umichbiological,45.55984,-84.71382,230,1.176,2012-01-16
umichbiological2,45.5625,-84.6976,240,1.311,2012-01-16
unca,35.5951,-82.5515,650,0.806,2012-01-16
usgseros,43.7343,-96.6234,448,-0.175,2012-01-16
usmpj,34.43845,-106.2543606,2126,-1.496,2012-01-16
usof5,35.7297,-90.0406,70,1.744,2012-01-16
usof6,35.7333,-90.0403,70,1.744,2012-01-16
uwmfieldsta,43.38709,-88.0229,265,0.774,2012-01-16
vaira,38.41328056,-120.9506361,129,0.132,2012-01-16
vallesburnedconifer,35.8884,-106.5321,3043,-0.778,2012-01-16
vallesmixedconifer,35.9192,-106.6142,2752,-0.69,2012-01-16
vallesponderosapine,35.864,-106.5964,2501,-0.719,2012-01-16
waahila,21.3017,-157.8152,55,-9999.0,2012-01-16
warrenwilson,35.6069,-82.4421,2198,0.586,2012-01-16
willamettepoplar,44.1368,-123.1823,112,-0.341,2012-01-16
willowcreek,45.805986,-90.07912,521,-0.519,2012-01-16
windriver,45.8212833,-121.9520833,371,-0.045,2012-01-16
windriverunderstory,45.8212833,-121.9520833,371,-0.045,2012-01-16
wolfesneckfarm,43.8305,-70.0715,16,0.319,2012-01-16
worcester,42.2697,-71.8428,185,2.121,2012-01-16
alligatorriver,35.7879,-75.9038,1,-0.827,2012-01-23
arbutuslake,43.98207,-74.23322,535,2.692,2012-01-23
arbutuslakeinlet,43.99336,-74.24527,527,2.692,2012-01-23
archboldavir,27.176064,-81.21958,8,-0.68,2012-01-23
archboldavirx,27.166627,-81.219828,8,-0.68,2012-01-23
archboldbahia,27.1656,-81.216112,8,-0.68,2012-01-23
archboldpnot,27.187948,-81.200345,9,-0.68,2012-01-23
archboldpnotx,27.180677,-81.20068,9,-0.68,2012-01-23
arkansascornsoy,34.416,-91.6723,61,0.948,2012-01-23
arsbrooks10,41.9749,-93.6905,312,-0.631,2012-01-23
arsbrooks11,41.9744,-93.6937,313,-0.631,2012-01-23
arscolesnorth,42.4884,-93.5225,356,-1.042,2012-01-23
arscolessouth,42.4816,-93.5235,352,-1.042,2012-01-23
arsgacp1,31.5109,-83.6179,96,-1.919,2012-01-23
arsgacp3,31.7563,-83.7516,139,-2.058,2012-01-23
arsgacp4,31.7093,-83.7287,127,-2.087,2012-01-23
arsgreatbasinltar098,43.1675,-116.7132,1426,0.499,2012-01-23
arsgreatbasinltar117,43.1432,-116.7357,1625,0.388,2012-01-23
arsgreatbasinltar177,43.0645,-116.7484,2114,0.211,2012-01-23
arsltarmdcr,39.0587,-75.8513,17,1.778,2012-01-23
arsltarmdcrnatw,39.0575,-75.7531,16,1.701,2012-01-23
arsltarmdcrprcw,39.0667,-75.7609,17,1.701,2012-01-23
arsltarmdcrresw,39.0549,-75.7532,16,1.701,2012-01-23
arsltarucbec1,40.7537,-78.0057,400,2.357,2012-01-23
arsltarucbec2,40.7558,-77.9999,396,2.357,2012-01-23
arsmnswanlake1,45.684508,-95.799703,370,0.05,2012-01-23
arsmorris1,45.6167,-96.1269,341,0.149,2012-01-23
arsmorris2,45.627,-96.127,338,0.149,2012-01-23
arsmorris3,45.6091,-96.1265,342,0.149,2012-01-23
arsope3ltar,39.0309,-76.8442,41,1.656,2012-01-23
ashburnham,42.6029,-71.926,292,2.032,2012-01-23
asuhighlands,36.2076,-81.7032,1016,1.138,2012-01-23
austincary,29.738,-82.2188,44,-2.247,2012-01-23
barrow,71.28007453,-156.6091492,5,-9999.0,2012-01-23
bartlettir,44.0646,-71.2881,268,1.451,2012-01-23
bigtraillake,64.9194,-147.822,190,-9999.0,2012-01-23
bitterbrush001,48.154,-119.9456,667,0.381,2012-01-23
blackrockforest,41.3974,-74.0239,427,2.814,2012-01-23
bnzblackspruce,64.6963,-148.3235,102,-9999.0,2012-01-23
bnzrichfen,64.70134,-148.31195,97,-9999.0,2012-01-23
bnzthermokarstbog,64.6955,-148.3208,104,-9999.0,2012-01-23
boglakepeatland,47.5051,-93.4893,416,-0.9,2012-01-23
bostoncommon,42.355912,-71.064145,10,1.131,2012-01-23
bostonu,42.35041,-71.10438,10,1.198,2012-01-23
bouldinalfalfa,38.0985,-121.4993,-5,-0.425,2012-01-23
bouldincorn,38.109,-121.535,-5,-0.406,2012-01-23
bozeman,45.783056,-110.777778,2332,0.401,2012-01-23
brackishimpoundment,33.2015,-79.2973,1,-2.101,2012-01-23
bullshoals,36.562833,-93.06663,260,1.504,2012-01-23
burnssagebrush,43.4712,-119.6909,1398,-0.088,2012-01-23
butte,45.95304,-112.47964,1682,0.817,2012-01-23
butterice,39.5793,-121.858,33,0.261,2012-01-23
cafboydnorthltar01,46.755104,-117.126052,795,0.141,2012-01-23
cafboydsouthltar01,46.751809,-117.128502,795,0.141,2012-01-23
cafcookeastltar01,46.78152,-117.0821,794,0.196,2012-01-23
cafcookwestltar01,46.784037,-117.09083,807,0.196,2012-01-23
caryinstitute,41.7839,-73.7341,127,2.824,2012-01-23
centralredwoods1,38.632272,-123.301511,200,-0.611,2012-01-23
centralredwoods2,38.632272,-123.301511,200,-0.611,2012-01-23
cperagm,40.8402,-104.7672,1644,0.634,2012-01-23
cperheavy,40.8153,-104.7386,1652,0.7,2012-01-23
cpertgm,40.833,-104.76,1644,0.678,2012-01-23
cperuvb,40.8055764,-104.7558542,1641,0.678,2012-01-23
cuny,40.8162,-73.9507,42,2.391,2012-01-23
doverdesaltmarsh,39.0888,-75.4368,0,1.045,2012-01-23
downerwoods,43.07938,-87.88076,213,0.409,2012-01-23
dukehw,35.973583,-79.100371,400,-0.611,2012-01-23
ecb1,41.5348,-84.8068,275,2.727,2012-01-23
ecb2,41.5321,-84.808,275,2.727,2012-01-23
ecb4,41.1796,-83.0604,240,3.0,2012-01-23
elverde,18.320654,-65.8199,312,-9999.0,2012-01-23
flagstaff,35.17961521,-111.6049032,6983,-0.176,2012-01-23
flagstaff2,35.179225,-111.604506,6983,-0.176,2012-01-23
flagstaffchimneysprings,35.257296,-111.678542,2250,-0.192,2012-01-23
forbes,39.232,-121.2972,360,-0.193,2012-01-23
fortpaynealpasture1,34.3824,-85.6428,405,1.249,2012-01-23
fortpaynealpasture2,34.3824,-85.6447,403,1.249,2012-01-23
gcesapelo,31.4440444,-81.283528,0,-1.347,2012-01-23
gilberttract,38.0015,-121.6691,6,-0.143,2012-01-23
glees,41.3644,-106.2394,3150,1.093,2012-01-23
glennorganicrice,39.6805,-122.0026,2,0.183,2012-01-23
glennrice,39.5944,-122.0253,36,-0.062,2012-01-23
goodnow,43.96018,-74.20994,820,2.554,2012-01-23
goodwater,39.22848,-92.11936,264,-0.925,2012-01-23
goodwaterbau,39.23115,-92.15216,274,-0.862,2012-01-23
grandteton,43.915017,-110.578036,2054,1.362,2012-01-23
grca1pj,36.0241,-112.2211,1978,-0.269,2012-01-23
greenridge1,39.6905,-78.4067,285,1.694,2012-01-23
harvard,42.5378,-72.1715,340,2.277,2012-01-23
harvardbarn,42.53532,-72.1899,350,2.294,2012-01-23
harvardbarn2,42.53532,-72.1899,350,2.294,2012-01-23
harvardems2,42.5378,-72.1715,340,2.277,2012-01-23
harvardfarmnorth,42.520465,-72.182242,355,2.294,2012-01-23
harvardfarmsouth,42.522466,-72.182339,355,2.294,2012-01-23
harvardgarden,42.5291,-72.1863,335,2.294,2012-01-23
harvardhemlock,42.539,-72.18,355,2.294,2012-01-23
harvardhemlock2,42.539407,-72.177976,355,2.277,2012-01-23
harvardlph,42.542,-72.185,380,2.294,2012-01-23
hawbeckereddy,40.6608,-77.848849,310,2.284,2012-01-23
hobcawclearcutlongleaf,33.3486,-79.232,4,-1.843,2012-01-23
hobcawmaturelongleaf,33.3242,-79.2439,8,-1.843,2012-01-23
homesteadsprings,37.2009,-92.9937,452,1.084,2012-01-23
howland1,45.2041,-68.7403,80,0.552,2012-01-23
howland2,45.2128,-68.7418,79,0.552,2012-01-23
hubbardbrook,43.9438,-71.701,253,1.719,2012-01-23
humnokericea,34.585192,-91.751684,61,1.135,2012-01-23
humnokericec,34.588853,-91.7516729,70,1.135,2012-01-23
huyckpreserveny,42.5266,-74.1587,478,2.703,2012-01-23
hwmo1,20.0212,-155.7331,585,-9999.0,2012-01-23
hwmo2,19.9766,-155.8298,12,-9999.0,2012-01-23
hwmo5,20.1117,-155.8151,635,-9999.0,2012-01-23
ibp,32.589,-106.847,1325,-0.716,2012-01-23
imcrkfen,68.60583,-149.31101,900,-9999.0,2012-01-23
imcrkridge0,68.60681,-149.2958,951,-9999.0,2012-01-23
imcrkridge1,68.60681,-149.2958,951,-9999.0,2012-01-23
imcrktussock,68.60633,-149.30408,918,-9999.0,2012-01-23
jasperridge,37.402028,-122.22104,197,-0.558,2012-01-23
jerbajada,32.57992,-106.633793,1402,-0.486,2012-01-23
jergrassland,32.5833,-106.8333,1331,-0.716,2012-01-23
jernort,32.619,-106.788,1328,-0.834,2012-01-23
jernovel,32.6335,-106.8334,1324,-0.772,2012-01-23
jernwern,32.6271,-106.7387,1325,-0.687,2012-01-23
jersand,32.515,-106.798,1363,-1.035,2012-01-23
jershrubland,32.6502,-106.8334,1328,-0.709,2012-01-23
junipersavannah,34.4254,-105.8615,1931,-1.072,2012-01-23
kamuela,20.015008,-155.661326,850,-9999.0,2012-01-23
kamuela2,20.014959,-155.661139,830,-9999.0,2012-01-23
kansas,39.0561,-95.1907,333,-0.514,2012-01-23
kelloggcorn,42.437536,-85.3225472,288,1.961,2012-01-23
kempnrs,45.83992,-89.67755,539,-0.973,2012-01-23
kendall,31.73652,-109.94185,1529,-0.098,2012-01-23
konza,39.0824,-96.5603,443,-0.298,2012-01-23
laupahoehoe,19.9322,-155.2912,1145,-9999.0,2012-01-23
ldeocam,41.0039,-73.9053,121,2.538,2012-01-23
lostcreek,46.0827,-89.9792,480,-0.633,2012-01-23
luckyhills,31.743896,-110.052023,1366,0.086,2012-01-23
macleish,42.4484,-72.6804,251,2.783,2012-01-23
macordway,44.8106,-93.0272,264,-0.583,2012-01-23
mandanh5,46.775423,-100.95109,593,1.307,2012-01-23
mandani2,46.7614,-100.9257,590,1.179,2012-01-23
manilacotton,35.8872,-90.1371,73,1.799,2012-01-23
marena,36.06434,-97.21271,327,-2.062,2012-01-23
mead1,41.1651,-96.4766,361,0.158,2012-01-23
mead2,41.1649,-96.4701,362,0.158,2012-01-23
mead3,41.1797,-96.4397,363,0.065,2012-01-23
meadpasture,41.1447,-96.4616,356,0.256,2012-01-23
meadpasturese,41.1447,-96.4616,356,0.256,2012-01-23
meadpasturesw,41.1447,-96.4616,356,0.256,2012-01-23
missouriozarks,38.7441,-92.2,219,-0.092,2012-01-23
morganmonroe,39.3231,-86.4131,275,1.68,2012-01-23
morganmonroe2,39.3231,-86.4131,275,1.68,2012-01-23
nahuku,19.415187,-155.238383,1202,-9999.0,2012-01-23
nationalelkrefuge,43.488931,-110.737824,1899,0.96,2012-01-23
ncssm,36.018446,-78.92075,175,0.1,2012-01-23
NEON.D01.BART.DP1.00033,44.063869,-71.287375,285,1.451,2012-01-23
NEON.D01.HARV.DP1.00033,42.536911,-72.17265,359,2.277,2012-01-23
NEON.D01.HOPB.DP1.20002,42.471786,-72.329627,203,2.146,2012-01-23
NEON.D02.BLAN.DP1.00033,39.033698,-78.041788,162,1.02,2012-01-23
NEON.D02.LEWI.DP1.20002,39.09564,-77.98322,152,1.187,2012-01-23
NEON.D02.POSE.DP1.20002,38.89332,-78.14678,293,1.021,2012-01-23
NEON.D02.SCBI.DP1.00033,38.892925,-78.139494,364,0.981,2012-01-23
NEON.D02.SERC.DP1.00033,38.89008,-76.56001,30,1.841,2012-01-23
NEON.D03.BARC.DP1.20002,29.676473,-82.009089,35,-1.678,2012-01-23
NEON.D03.DSNY.DP1.00033,28.12505,-81.43619,22,0.531,2012-01-23
NEON.D03.FLNT.DP1.20002,31.185424,-84.437403,27,-2.028,2012-01-23
NEON.D03.JERC.DP1.00033,31.194839,-84.468623,58,-2.094,2012-01-23
NEON.D03.OSBS.DP1.00033,29.689282,-81.993431,56,-1.814,2012-01-23
NEON.D03.SUGG.DP1.20002,29.687054,-82.016171,28,-1.814,2012-01-23
NEON.D04.CUPE.DP1.20002,18.11352,-66.98676,164,-9999.0,2012-01-23
NEON.D04.GUAN.DP1.00033,17.96955,-66.8687,136,-9999.0,2012-01-23
NEON.D04.GUIL.DP1.20002,18.1741,-66.79851,564,-9999.0,2012-01-23
NEON.D04.LAJA.DP1.00033,18.021261,-67.076889,22,-9999.0,2012-01-23
NEON.D05.CRAM.DP1.20002,46.21111,-89.47825,518,-1.111,2012-01-23
NEON.D05.LIRO.DP1.20002,45.998269,-89.704767,495,-0.888,2012-01-23
NEON.D05.STEI.DP1.00033,45.50894,-89.58637,476,-0.366,2012-01-23
NEON.D05.TREE.DP1.00033,45.49373,-89.58572,474,-0.366,2012-01-23
NEON.D05.UNDE.DP1.00033,46.23391,-89.537254,529,-1.121,2012-01-23
NEON.D06.KING.DP1.20002,39.10506,-96.60336,339,-0.257,2012-01-23
NEON.D06.KONA.DP1.00033,39.110446,-96.612935,443,-0.257,2012-01-23
NEON.D06.KONZ.DP1.00033,39.10077,-96.56309,415,-0.298,2012-01-23
NEON.D06.MCDI.DP1.20002,38.94428,-96.44197,376,-0.612,2012-01-23
NEON.D06.UKFS.DP1.00033,39.040431,-95.19215,330,-0.514,2012-01-23
NEON.D07.GRSM.DP1.00033,35.68896,-83.50195,589,1.303,2012-01-23
NEON.D07.LECO.DP1.20002,35.69043,-83.50379,578,1.303,2012-01-23
NEON.D07.MLBS.DP1.00033,37.378314,-80.524847,1177,0.914,2012-01-23
NEON.D07.ORNL.DP1.00033,35.964128,-84.282588,351,1.898,2012-01-23
NEON.D07.WALK.DP1.20002,35.95947,-84.28041,274,1.837,2012-01-23
NEON.D08.BLWA.DP1.20002,32.541529,-87.798151,23,0.226,2012-01-23
NEON.D08.DELA.DP1.00033,32.541727,-87.803877,36,0.226,2012-01-23
NEON.D08.LENO.DP1.00033,31.85388,-88.16122,10,-0.348,2012-01-23
NEON.D08.MAYF.DP1.20002,32.959657,-87.408128,93,-0.101,2012-01-23
NEON.D08.TALL.DP1.00033,32.95047,-87.393259,167,-0.101,2012-01-23
NEON.D08.TOMB.DP1.20002,31.853431,-88.158872,10,-0.348,2012-01-23
NEON.D09.DCFS.DP1.00033,47.161647,-99.106556,574,1.869,2012-01-23
NEON.D09.NOGP.DP1.00033,46.76972,-100.91535,589,1.179,2012-01-23
NEON.D09.PRLA.DP1.20002,47.15909,-99.11388,563,1.699,2012-01-23
NEON.D09.PRPO.DP1.20002,47.12999,-99.250551,587,1.7,2012-01-23
NEON.D09.WOOD.DP1.00033,47.1282,-99.241334,585,1.7,2012-01-23
NEON.D10.ARIK.DP1.20002,39.758246,-102.447103,1188,0.714,2012-01-23
NEON.D10.CPER.DP1.00033,40.81553,-104.7456,1600,0.678,2012-01-23
NEON.D10.HQTW.DP1.00033,40.016704,-105.245612,1601,0.247,2012-01-23
NEON.D10.RMNP.DP1.00033,40.275903,-105.545955,2751,0.552,2012-01-23
NEON.D10.STER.DP1.00033,40.461894,-103.02929,1366,1.807,2012-01-23
NEON.D11.BLUE.DP1.20002,34.444218,-96.624201,288,-1.869,2012-01-23
NEON.D11.CLBJ.DP1.00033,33.40123,-97.57,279,-0.831,2012-01-23
NEON.D11.OAES.DP1.00033,35.41059,-99.05879,520,-2.033,2012-01-23
NEON.D11.PRIN.DP1.20002,33.37859,-97.78226,255,-0.995,2012-01-23
NEON.D12.BLDE.DP1.20002,44.95011,-110.58715,2035,0.373,2012-01-23
NEON.D12.YELL.DP1.00033,44.95348,-110.53914,2130,0.549,2012-01-23
NEON.D13.COMO.DP1.20002,40.03496,-105.54487,3036,0.306,2012-01-23
NEON.D13.MOAB.DP1.00033,38.24833,-109.38827,1803,-0.672,2012-01-23
NEON.D13.NIWO.DP1.00033,40.05425,-105.58237,3493,0.379,2012-01-23
NEON.D13.WLOU.DP1.20002,39.891366,-105.915395,2920,-0.049,2012-01-23
NEON.D14.JORN.DP1.00033,32.59068,-106.84254,1321,-0.716,2012-01-23
NEON.D14.SRER.DP1.00033,31.91068,-110.83549,999,-0.396,2012-01-23
NEON.D14.SYCA.DP1.20002,33.749057,-111.506903,644,-0.67,2012-01-23
NEON.D15.ONAQ.DP1.00033,40.177599,-112.452452,1655,0.99,2012-01-23
NEON.D15.REDB.DP1.20002,40.783934,-111.797887,1696,0.831,2012-01-23
NEON.D16.ABBY.DP1.00033,45.76243,-122.33033,390,0.122,2012-01-23
NEON.D16.MART.DP1.20002,45.791248,-121.931959,354,0.311,2012-01-23
NEON.D16.MCRA.DP1.20002,44.259598,-122.165554,880,0.065,2012-01-23
NEON.D16.WREF.DP1.00033,45.82049,-121.95191,368,0.335,2012-01-23
NEON.D17.BIGC.DP1.20002,37.059719,-119.257549,1133,-0.179,2012-01-23
NEON.D17.SJER.DP1.00033,37.10878,-119.73228,398,-0.062,2012-01-23
NEON.D17.SOAP.DP1.00033,37.03337,-119.26219,1210,-0.181,2012-01-23
NEON.D17.TEAK.DP1.00033,37.00583,-119.00602,2149,-0.171,2012-01-23
NEON.D17.TECR.DP1.20002,36.955931,-119.027363,2053,-0.17,2012-01-23
NEON.D18.BARR.DP1.00033,71.28241,-156.61936,7,-9999.0,2012-01-23
NEON.D18.OKSR.DP1.20002,68.669753,-149.143018,773,-9999.0,2012-01-23
NEON.D18.TOOK.DP1.20002,68.629562,-149.610509,715,-9999.0,2012-01-23
NEON.D18.TOOL.DP1.00033,68.66109,-149.37047,827,-9999.0,2012-01-23
NEON.D19.BONA.DP1.00033,65.15401,-147.50258,233,-9999.0,2012-01-23
NEON.D19.CARI.DP1.20002,65.15306,-147.50246,229,-9999.0,2012-01-23
NEON.D19.DEJU.DP1.00033,63.88112,-145.75136,504,-9999.0,2012-01-23
NEON.D19.HEAL.DP1.00033,63.87569,-149.21334,409,-9999.0,2012-01-23
NEON.D20.PUUM.DP1.00033,19.55309,-155.31731,1683,-9999.0,2012-01-23
nevcansnk3a,39.0099,-114.3095,3063,0.345,2012-01-23
nevcanspg1a,38.9253,-114.4082,1792,0.263,2012-01-23
nevcanspg2a,38.8921,-114.3521,2203,0.332,2012-01-23
nevcanspg3a,38.8898,-114.3314,2820,0.435,2012-01-23
nevcanspg4a,38.9061,-114.3089,3360,0.435,2012-01-23
ninemileprairie,40.86801886,-96.82208066,381,0.28,2012-01-23
nist,39.139,-77.2125,100,1.585,2012-01-23
niwot3,40.03286358,-105.5469702,3050,0.306,2012-01-23
niwot5,40.03286358,-105.5469702,2993,0.306,2012-01-23
northattleboroma,41.98369,-71.31056,60,1.193,2012-01-23
northinletsaltmarsh,33.3455,-79.1957,1,-2.049,2012-01-23
oakville,47.899334,-97.316139,268,-0.162,2012-01-23
oregonMP,44.4523,-121.5574,1253,-0.116,2012-01-23
oregonYP,44.32384,-121.605993,977,-0.179,2012-01-23
oregonYPbud,44.3238,-121.606,977,-0.179,2012-01-23
othshardwood,44.934805,-68.6655,41,0.773,2012-01-23
othssoftwood,44.934527,-68.664888,41,0.773,2012-01-23
pace,37.9229,-78.2739,100,1.177,2012-01-23
parkschoolbuffalo,42.9637,-78.7834,205,2.243,2012-01-23
piedmontalpasture2,33.8875,-85.6935,238,0.387,2012-01-23
portal,31.9385,-109.0823,1330,-0.538,2012-01-23
proctor,44.525,-72.866,403,1.644,2012-01-23
readingma,42.5304,-71.1272,100,1.142,2012-01-23
robinson,37.4671,-83.1576,483,2.07,2012-01-23
robinson2,37.4671,-83.1576,483,2.07,2012-01-23
rosemountcons,44.6946,-93.0578,283,-0.707,2012-01-23
rosemountconv,44.691,-93.0576,283,-0.707,2012-01-23
rosemountnprs,44.6781,-93.0723,274,-0.632,2012-01-23
russellsage,32.456961,-91.974322,20,-0.97,2012-01-23
sagehen,39.4315,-120.2398,1934,-0.058,2012-01-23
sagehen2,39.4307,-120.2407,1937,-0.058,2012-01-23
sagehen3,39.4311,-120.2405,1935,-0.058,2012-01-23
sanford,42.726777,-84.464482,268,2.111,2012-01-23
santacruz1,36.9741,-122.0308,11,-0.23,2012-01-23
santacruz2,36.9741,-122.0308,11,-0.23,2012-01-23
santaluciapreserve1,36.5265,-121.8682,500,-0.192,2012-01-23
santaluciapreserve2,36.5265,-121.8682,500,-0.192,2012-01-23
segaarboretum10,35.16209,-111.73151,2170,-0.226,2012-01-23
segaarboretum2,35.16209,-111.73151,2170,-0.226,2012-01-23
segaarboretum3,35.16209,-111.73151,2170,-0.226,2012-01-23
segaarboretum4,35.16214,-111.73153,2170,-0.226,2012-01-23
segaarboretum6,35.16209,-111.73151,2170,-0.226,2012-01-23
segaarboretum9,35.16222,-111.73158,2170,-0.226,2012-01-23
segaarboretumforest,35.1613,-111.7359,2173,-0.226,2012-01-23
segaarboretummeadow,35.1621,-111.7316,2157,-0.226,2012-01-23
segablackpoint,35.6814,-111.4754,1566,0.37,2012-01-23
segabluechute,35.5876,-111.9716,1930,-0.5,2012-01-23
segabluechute1,35.58759,-111.97115,1931,-0.5,2012-01-23
segabluechute2,35.58759,-111.97115,1931,-0.5,2012-01-23
segabluechute4,35.58759,-111.9716,1931,-0.5,2012-01-23
segabluechute6,35.58759,-111.97115,1931,-0.5,2012-01-23
segabluechute7,35.58759,-111.97115,1931,-0.5,2012-01-23
segabluechute8,35.58759,-111.97115,1931,-0.5,2012-01-23
segabradshaw,34.9109,-111.9285,1402,-0.595,2012-01-23
segahartprairie,35.3536,-111.7324,2585,-0.17,2012-01-23
segalcr,35.7231,-111.321,1275,0.355,2012-01-23
segalcr2,35.7069,-111.36,1495,0.27,2012-01-23
segalittlemountain,36.5865,-112.3634,2276,-0.378,2012-01-23
segasoapcreek,36.751,-111.716,1233,0.012,2012-01-23
segawhitepockets,36.6081,-112.4082,2057,-0.393,2012-01-23
sevilletagrass,34.360444,-106.700186,1600,-1.252,2012-01-23
sevilletanewgrass,34.358,-106.6799,1603,-1.304,2012-01-23
sevilletashrub,34.334956,-106.744469,1603,-1.154,2012-01-23
sevMRME10L,34.3438,-106.7269,1604,-1.231,2012-01-23
sevMRME11C,34.3438,-106.7268,1604,-1.231,2012-01-23
sevMRME1S,34.3442,-106.7272,1604,-1.231,2012-01-23
sevpjrm12,34.38615,-106.52621,1905,-1.803,2012-01-23
sevpjrm13,34.38631,-106.52791,1914,-1.803,2012-01-23
shalehillsczo,40.6658,-77.9041,310,2.273,2012-01-23
shenandoah,38.6167,-78.35,1037,0.697,2012-01-23
silverton,44.9986,-122.6948,347,0.371,2012-01-23
siwetland,38.0369,-121.7546,-5,0.023,2012-01-23
slatefloodplain,38.9094,-107.0282,2725,-1.003,2012-01-23
snodgrass1,38.92619636,-106.9714376,3023,-0.697,2012-01-23
snodgrass2,38.92619636,-106.9714376,3023,-0.697,2012-01-23
snodgrass3,38.92839978,-106.9781196,3141,-0.697,2012-01-23
snodgrass4,38.92839978,-106.9781196,3141,-0.697,2012-01-23
snodgrass5,38.92744789,-106.9785209,3152,-0.697,2012-01-23
snodgrass6,38.92744789,-106.9785209,3152,-0.697,2012-01-23
snodgrass7,38.93142134,-106.9852388,3363,-0.622,2012-01-23
snodgrass8,38.93142134,-106.9852388,3363,-0.622,2012-01-23
southerngreatplains,36.6058,-97.4888,314,-0.84,2012-01-23
springfieldma,42.135162,-72.585972,56,2.376,2012-01-23
spruceA0EMI,47.5049,-93.4541,413,-1.057,2012-01-23
spruceA0EMT,47.5049,-93.4541,418,-1.057,2012-01-23
spruceA0P07,47.50493,-93.45314,413,-1.057,2012-01-23
spruceA0P07SH,47.50493,-93.45314,413,-1.057,2012-01-23
spruceA0P21,47.50625,-93.45275,413,-1.057,2012-01-23
spruceA0P21SH,47.50625,-93.45275,413,-1.057,2012-01-23
srg,31.7894,-110.8276,1281,-1.038,2012-01-23
srm,31.8214,-110.8661,1116,-0.49,2012-01-23
statenrice1,38.1235,-121.549,-5,-0.408,2012-01-23
stjones,39.088222,-75.43725,2,1.045,2012-01-23
sweetbriar,37.57341,-79.08482,242,1.11,2012-01-23
sweetbriarclearcut,37.5753,-79.0872,242,1.11,2012-01-23
sweetbriargrass,37.5605,-79.0884,240,1.11,2012-01-23
sylvania,46.242,-89.348,540,-1.071,2012-01-23
templefieldstation1,40.1667,-75.1894,105,2.583,2012-01-23
tfforest,43.1086,-70.9505,23,0.836,2012-01-23
tidmarshplymouth,41.9157,-70.5754,9,0.876,2012-01-23
tonzi,38.43091667,-120.9658861,177,-0.108,2012-01-23
townsenddemeadow,39.3917,-75.6281,11,1.999,2012-01-23
tsubiology,36.1671,-86.8295,164,1.16,2012-01-23
tsubiology2,36.1171,-86.8295,100,0.844,2012-01-23
tuckerprairie,38.9491,-91.9952,274,-0.279,2012-01-23
twodafo,29.1658,-95.829,16,-2.933,2012-01-23
tworfaa,31.4777,-96.8882,167,-2.194,2012-01-23
tworfpr,31.4802,-96.8826,162,-2.111,2012-01-23
tworfta,31.4693,-96.8864,173,-2.194,2012-01-23
twosfpr,30.6176,-97.2938,157,-2.591,2012-01-23
ucnrsanzaborrego,33.2401,-116.3886,214,-0.245,2012-01-23
ufona,27.3836,-81.950856,25,-0.525,2012-01-23
uiefmaize2,40.0628,-88.1961,224,-0.262,2012-01-23
uiefmiscanthus2,40.0628,-88.1984,221,-0.262,2012-01-23
uiefprairie2,40.0637,-88.1973,224,-0.262,2012-01-23
uiefsorghum,40.0065,-88.2032,224,-0.358,2012-01-23
uiefswitchgrass2,40.0637,-88.1973,224,-0.262,2012-01-23
umichbiological,45.55984,-84.71382,230,1.285,2012-01-23
umichbiological2,45.5625,-84.6976,240,1.409,2012-01-23
unca,35.5951,-82.5515,650,0.837,2012-01-23
usgseros,43.7343,-96.6234,448,-0.111,2012-01-23
usmpj,34.43845,-106.2543606,2126,-1.442,2012-01-23
usof5,35.7297,-90.0406,70,1.768,2012-01-23
usof6,35.7333,-90.0403,70,1.768,2012-01-23
uwmfieldsta,43.38709,-88.0229,265,0.806,2012-01-23
vaira,38.41328056,-120.9506361,129,-0.108,2012-01-23
vallesburnedconifer,35.8884,-106.5321,3043,-0.67,2012-01-23
vallesmixedconifer,35.9192,-106.6142,2752,-0.598,2012-01-23
vallesponderosapine,35.864,-106.5964,2501,-0.63,2012-01-23
waahila,21.3017,-157.8152,55,-9999.0,2012-01-23
warrenwilson,35.6069,-82.4421,2198,0.628,2012-01-23
willamettepoplar,44.1368,-123.1823,112,0.107,2012-01-23
willowcreek,45.805986,-90.07912,521,-0.54,2012-01-23
windriver,45.8212833,-121.9520833,371,0.335,2012-01-23
windriverunderstory,45.8212833,-121.9520833,371,0.335,2012-01-23
wolfesneckfarm,43.8305,-70.0715,16,0.413,2012-01-23
worcester,42.2697,-71.8428,185,2.228,2012-01-23
alligatorriver,35.7879,-75.9038,1,-0.815,2012-01-30
arbutuslake,43.98207,-74.23322,535,2.888,2012-01-30
arbutuslakeinlet,43.99336,-74.24527,527,2.888,2012-01-30
archboldavir,27.176064,-81.21958,8,-0.661,2012-01-30
archboldavirx,27.166627,-81.219828,8,-0.661,2012-01-30
archboldbahia,27.1656,-81.216112,8,-0.661,2012-01-30
archboldpnot,27.187948,-81.200345,9,-0.661,2012-01-30
archboldpnotx,27.180677,-81.20068,9,-0.661,2012-01-30
arkansascornsoy,34.416,-91.6723,61,1.058,2012-01-30
arsbrooks10,41.9749,-93.6905,312,-0.685,2012-01-30
arsbrooks11,41.9744,-93.6937,313,-0.685,2012-01-30
arscolesnorth,42.4884,-93.5225,356,-1.13,2012-01-30
arscolessouth,42.4816,-93.5235,352,-1.13,2012-01-30
arsgacp1,31.5109,-83.6179,96,-1.901,2012-01-30
arsgacp3,31.7563,-83.7516,139,-2.006,2012-01-30
arsgacp4,31.7093,-83.7287,127,-2.05,2012-01-30
arsgreatbasinltar098,43.1675,-116.7132,1426,0.734,2012-01-30
arsgreatbasinltar117,43.1432,-116.7357,1625,0.64,2012-01-30
arsgreatbasinltar177,43.0645,-116.7484,2114,0.448,2012-01-30
arsltarmdcr,39.0587,-75.8513,17,1.733,2012-01-30
arsltarmdcrnatw,39.0575,-75.7531,16,1.657,2012-01-30
arsltarmdcrprcw,39.0667,-75.7609,17,1.657,2012-01-30
arsltarmdcrresw,39.0549,-75.7532,16,1.657,2012-01-30
arsltarucbec1,40.7537,-78.0057,400,2.303,2012-01-30
arsltarucbec2,40.7558,-77.9999,396,2.303,2012-01-30
arsmnswanlake1,45.684508,-95.799703,370,-0.113,2012-01-30
arsmorris1,45.6167,-96.1269,341,-0.043,2012-01-30
arsmorris2,45.627,-96.127,338,-0.043,2012-01-30
arsmorris3,45.6091,-96.1265,342,-0.043,2012-01-30
arsope3ltar,39.0309,-76.8442,41,1.674,2012-01-30
ashburnham,42.6029,-71.926,292,2.191,2012-01-30
asuhighlands,36.2076,-81.7032,1016,1.149,2012-01-30
austincary,29.738,-82.2188,44,-2.249,2012-01-30
barrow,71.28007453,-156.6091492,5,-9999.0,2012-01-30
bartlettir,44.0646,-71.2881,268,1.609,2012-01-30
bigtraillake,64.9194,-147.822,190,-9999.0,2012-01-30
bitterbrush001,48.154,-119.9456,667,0.64,2012-01-30
blackrockforest,41.3974,-74.0239,427,2.898,2012-01-30
bnzblackspruce,64.6963,-148.3235,102,-9999.0,2012-01-30
bnzrichfen,64.70134,-148.31195,97,-9999.0,2012-01-30
bnzthermokarstbog,64.6955,-148.3208,104,-9999.0,2012-01-30
boglakepeatland,47.5051,-93.4893,416,-0.797,2012-01-30
bostoncommon,42.355912,-71.064145,10,1.175,2012-01-30
bostonu,42.35041,-71.10438,10,1.249,2012-01-30
bouldinalfalfa,38.0985,-121.4993,-5,-0.335,2012-01-30
bouldincorn,38.109,-121.535,-5,-0.312,2012-01-30
bozeman,45.783056,-110.777778,2332,0.384,2012-01-30
brackishimpoundment,33.2015,-79.2973,1,-2.159,2012-01-30
bullshoals,36.562833,-93.06663,260,1.609,2012-01-30
burnssagebrush,43.4712,-119.6909,1398,0.003,2012-01-30
butte,45.95304,-112.47964,1682,0.749,2012-01-30
butterice,39.5793,-121.858,33,0.505,2012-01-30
cafboydnorthltar01,46.755104,-117.126052,795,0.184,2012-01-30
cafboydsouthltar01,46.751809,-117.128502,795,0.184,2012-01-30
cafcookeastltar01,46.78152,-117.0821,794,0.263,2012-01-30
cafcookwestltar01,46.784037,-117.09083,807,0.263,2012-01-30
caryinstitute,41.7839,-73.7341,127,2.946,2012-01-30
centralredwoods1,38.632272,-123.301511,200,-0.193,2012-01-30
centralredwoods2,38.632272,-123.301511,200,-0.193,2012-01-30
cperagm,40.8402,-104.7672,1644,0.547,2012-01-30
cperheavy,40.8153,-104.7386,1652,0.618,2012-01-30
cpertgm,40.833,-104.76,1644,0.594,2012-01-30
cperuvb,40.8055764,-104.7558542,1641,0.594,2012-01-30
cuny,40.8162,-73.9507,42,2.414,2012-01-30
doverdesaltmarsh,39.0888,-75.4368,0,0.995,2012-01-30
downerwoods,43.07938,-87.88076,213,0.249,2012-01-30
dukehw,35.973583,-79.100371,400,-0.556,2012-01-30
ecb1,41.5348,-84.8068,275,2.701,2012-01-30
ecb2,41.5321,-84.808,275,2.701,2012-01-30
ecb4,41.1796,-83.0604,240,3.0,2012-01-30
elverde,18.320654,-65.8199,312,-9999.0,2012-01-30
flagstaff,35.17961521,-111.6049032,6983,-0.586,2012-01-30
flagstaff2,35.179225,-111.604506,6983,-0.586,2012-01-30
flagstaffchimneysprings,35.257296,-111.678542,2250,-0.516,2012-01-30
forbes,39.232,-121.2972,360,-0.144,2012-01-30
fortpaynealpasture1,34.3824,-85.6428,405,1.486,2012-01-30
fortpaynealpasture2,34.3824,-85.6447,403,1.486,2012-01-30
gcesapelo,31.4440444,-81.283528,0,-1.36,2012-01-30
gilberttract,38.0015,-121.6691,6,-0.058,2012-01-30
glees,41.3644,-106.2394,3150,1.161,2012-01-30
glennorganicrice,39.6805,-122.0026,2,0.49,2012-01-30
glennrice,39.5944,-122.0253,36,0.245,2012-01-30
goodnow,43.96018,-74.20994,820,2.747,2012-01-30
goodwater,39.22848,-92.11936,264,-1.119,2012-01-30
goodwaterbau,39.23115,-92.15216,274,-1.049,2012-01-30
grandteton,43.915017,-110.578036,2054,1.507,2012-01-30
grca1pj,36.0241,-112.2211,1978,-0.453,2012-01-30
greenridge1,39.6905,-78.4067,285,1.683,2012-01-30
harvard,42.5378,-72.1715,340,2.385,2012-01-30
harvardbarn,42.53532,-72.1899,350,2.397,2012-01-30
harvardbarn2,42.53532,-72.1899,350,2.397,2012-01-30
harvardems2,42.5378,-72.1715,340,2.385,2012-01-30
harvardfarmnorth,42.520465,-72.182242,355,2.397,2012-01-30
harvardfarmsouth,42.522466,-72.182339,355,2.397,2012-01-30
harvardgarden,42.5291,-72.1863,335,2.397,2012-01-30
harvardhemlock,42.539,-72.18,355,2.397,2012-01-30
harvardhemlock2,42.539407,-72.177976,355,2.385,2012-01-30
harvardlph,42.542,-72.185,380,2.397,2012-01-30
hawbeckereddy,40.6608,-77.848849,310,2.224,2012-01-30
hobcawclearcutlongleaf,33.3486,-79.232,4,-1.902,2012-01-30
hobcawmaturelongleaf,33.3242,-79.2439,8,-1.902,2012-01-30
homesteadsprings,37.2009,-92.9937,452,1.077,2012-01-30
howland1,45.2041,-68.7403,80,0.628,2012-01-30
howland2,45.2128,-68.7418,79,0.628,2012-01-30
hubbardbrook,43.9438,-71.701,253,1.892,2012-01-30
humnokericea,34.585192,-91.751684,61,1.247,2012-01-30
humnokericec,34.588853,-91.7516729,70,1.247,2012-01-30
huyckpreserveny,42.5266,-74.1587,478,2.819,2012-01-30
hwmo1,20.0212,-155.7331,585,-9999.0,2012-01-30
hwmo2,19.9766,-155.8298,12,-9999.0,2012-01-30
hwmo5,20.1117,-155.8151,635,-9999.0,2012-01-30
ibp,32.589,-106.847,1325,-0.604,2012-01-30
imcrkfen,68.60583,-149.31101,900,-9999.0,2012-01-30
imcrkridge0,68.60681,-149.2958,951,-9999.0,2012-01-30
imcrkridge1,68.60681,-149.2958,951,-9999.0,2012-01-30
imcrktussock,68.60633,-149.30408,918,-9999.0,2012-01-30
jasperridge,37.402028,-122.22104,197,-0.431,2012-01-30
jerbajada,32.57992,-106.633793,1402,-0.381,2012-01-30
jergrassland,32.5833,-106.8333,1331,-0.604,2012-01-30
jernort,32.619,-106.788,1328,-0.711,2012-01-30
jernovel,32.6335,-106.8334,1324,-0.653,2012-01-30
jernwern,32.6271,-106.7387,1325,-0.574,2012-01-30
jersand,32.515,-106.798,1363,-0.906,2012-01-30
jershrubland,32.6502,-106.8334,1328,-0.599,2012-01-30
junipersavannah,34.4254,-105.8615,1931,-1.047,2012-01-30
kamuela,20.015008,-155.661326,850,-9999.0,2012-01-30
kamuela2,20.014959,-155.661139,830,-9999.0,2012-01-30
kansas,39.0561,-95.1907,333,-0.637,2012-01-30
kelloggcorn,42.437536,-85.3225472,288,1.968,2012-01-30
kempnrs,45.83992,-89.67755,539,-0.921,2012-01-30
kendall,31.73652,-109.94185,1529,-0.1,2012-01-30
konza,39.0824,-96.5603,443,-0.351,2012-01-30
laupahoehoe,19.9322,-155.2912,1145,-9999.0,2012-01-30
ldeocam,41.0039,-73.9053,121,2.576,2012-01-30
lostcreek,46.0827,-89.9792,480,-0.6,2012-01-30
luckyhills,31.743896,-110.052023,1366,0.085,2012-01-30
macleish,42.4484,-72.6804,251,2.923,2012-01-30
macordway,44.8106,-93.0272,264,-0.793,2012-01-30
mandanh5,46.775423,-100.95109,593,1.325,2012-01-30
mandani2,46.7614,-100.9257,590,1.196,2012-01-30
manilacotton,35.8872,-90.1371,73,1.765,2012-01-30
marena,36.06434,-97.21271,327,-2.075,2012-01-30
mead1,41.1651,-96.4766,361,0.137,2012-01-30
mead2,41.1649,-96.4701,362,0.137,2012-01-30
mead3,41.1797,-96.4397,363,0.041,2012-01-30
meadpasture,41.1447,-96.4616,356,0.235,2012-01-30
meadpasturese,41.1447,-96.4616,356,0.235,2012-01-30
meadpasturesw,41.1447,-96.4616,356,0.235,2012-01-30
missouriozarks,38.7441,-92.2,219,-0.333,2012-01-30
morganmonroe,39.3231,-86.4131,275,1.559,2012-01-30
morganmonroe2,39.3231,-86.4131,275,1.559,2012-01-30
nahuku,19.415187,-155.238383,1202,-9999.0,2012-01-30
nationalelkrefuge,43.488931,-110.737824,1899,1.056,2012-01-30
ncssm,36.018446,-78.92075,175,0.183,2012-01-30
NEON.D01.BART.DP1.00033,44.063869,-71.287375,285,1.609,2012-01-30
NEON.D01.HARV.DP1.00033,42.536911,-72.17265,359,2.385,2012-01-30
NEON.D01.HOPB.DP1.20002,42.471786,-72.329627,203,2.233,2012-01-30
NEON.D02.BLAN.DP1.00033,39.033698,-78.041788,162,1.006,2012-01-30
NEON.D02.LEWI.DP1.20002,39.09564,-77.98322,152,1.182,2012-01-30
NEON.D02.POSE.DP1.20002,38.89332,-78.14678,293,1.015,2012-01-30
NEON.D02.SCBI.DP1.00033,38.892925,-78.139494,364,0.967,2012-01-30
NEON.D02.SERC.DP1.00033,38.89008,-76.56001,30,1.85,2012-01-30
NEON.D03.BARC.DP1.20002,29.676473,-82.009089,35,-1.7,2012-01-30
NEON.D03.DSNY.DP1.00033,28.12505,-81.43619,22,0.553,2012-01-30
NEON.D03.FLNT.DP1.20002,31.185424,-84.437403,27,-1.946,2012-01-30
NEON.D03.JERC.DP1.00033,31.194839,-84.468623,58,-2.011,2012-01-30
NEON.D03.OSBS.DP1.00033,29.689282,-81.993431,56,-1.832,2012-01-30
NEON.D03.SUGG.DP1.20002,29.687054,-82.016171,28,-1.832,2012-01-30
NEON.D04.CUPE.DP1.20002,18.11352,-66.98676,164,-9999.0,2012-01-30
NEON.D04.GUAN.DP1.00033,17.96955,-66.8687,136,-9999.0,2012-01-30
NEON.D04.GUIL.DP1.20002,18.1741,-66.79851,564,-9999.0,2012-01-30
NEON.D04.LAJA.DP1.00033,18.021261,-67.076889,22,-9999.0,2012-01-30
NEON.D05.CRAM.DP1.20002,46.21111,-89.47825,518,-1.012,2012-01-30
NEON.D05.LIRO.DP1.20002,45.998269,-89.704767,495,-0.825,2012-01-30
NEON.D05.STEI.DP1.00033,45.50894,-89.58637,476,-0.358,2012-01-30
NEON.D05.TREE.DP1.00033,45.49373,-89.58572,474,-0.358,2012-01-30
NEON.D05.UNDE.DP1.00033,46.23391,-89.537254,529,-1.021,2012-01-30
NEON.D06.KING.DP1.20002,39.10506,-96.60336,339,-0.304,2012-01-30
NEON.D06.KONA.DP1.00033,39.110446,-96.612935,443,-0.304,2012-01-30
NEON.D06.KONZ.DP1.00033,39.10077,-96.56309,415,-0.351,2012-01-30
NEON.D06.MCDI.DP1.20002,38.94428,-96.44197,376,-0.675,2012-01-30
NEON.D06.UKFS.DP1.00033,39.040431,-95.19215,330,-0.637,2012-01-30
NEON.D07.GRSM.DP1.00033,35.68896,-83.50195,589,1.436,2012-01-30
NEON.D07.LECO.DP1.20002,35.69043,-83.50379,578,1.436,2012-01-30
NEON.D07.MLBS.DP1.00033,37.378314,-80.524847,1177,0.876,2012-01-30
NEON.D07.ORNL.DP1.00033,35.964128,-84.282588,351,2.165,2012-01-30
NEON.D07.WALK.DP1.20002,35.95947,-84.28041,274,2.111,2012-01-30
NEON.D08.BLWA.DP1.20002,32.541529,-87.798151,23,0.495,2012-01-30
NEON.D08.DELA.DP1.00033,32.541727,-87.803877,36,0.495,2012-01-30
NEON.D08.LENO.DP1.00033,31.85388,-88.16122,10,-0.252,2012-01-30
NEON.D08.MAYF.DP1.20002,32.959657,-87.408128,93,0.231,2012-01-30
NEON.D08.TALL.DP1.00033,32.95047,-87.393259,167,0.231,2012-01-30
NEON.D08.TOMB.DP1.20002,31.853431,-88.158872,10,-0.252,2012-01-30
NEON.D09.DCFS.DP1.00033,47.161647,-99.106556,574,1.894,2012-01-30
NEON.D09.NOGP.DP1.00033,46.76972,-100.91535,589,1.196,2012-01-30
NEON.D09.PRLA.DP1.20002,47.15909,-99.11388,563,1.728,2012-01-30
NEON.D09.PRPO.DP1.20002,47.12999,-99.250551,587,1.729,2012-01-30
NEON.D09.WOOD.DP1.00033,47.1282,-99.241334,585,1.729,2012-01-30
NEON.D10.ARIK.DP1.20002,39.758246,-102.447103,1188,0.705,2012-01-30
NEON.D10.CPER.DP1.00033,40.81553,-104.7456,1600,0.594,2012-01-30
NEON.D10.HQTW.DP1.00033,40.016704,-105.245612,1601,0.209,2012-01-30
NEON.D10.RMNP.DP1.00033,40.275903,-105.545955,2751,0.649,2012-01-30
NEON.D10.STER.DP1.00033,40.461894,-103.02929,1366,1.83,2012-01-30
NEON.D11.BLUE.DP1.20002,34.444218,-96.624201,288,-1.57,2012-01-30
NEON.D11.CLBJ.DP1.00033,33.40123,-97.57,279,-0.341,2012-01-30
NEON.D11.OAES.DP1.00033,35.41059,-99.05879,520,-1.942,2012-01-30
NEON.D11.PRIN.DP1.20002,33.37859,-97.78226,255,-0.483,2012-01-30
NEON.D12.BLDE.DP1.20002,44.95011,-110.58715,2035,0.346,2012-01-30
NEON.D12.YELL.DP1.00033,44.95348,-110.53914,2130,0.524,2012-01-30
NEON.D13.COMO.DP1.20002,40.03496,-105.54487,3036,0.4,2012-01-30
NEON.D13.MOAB.DP1.00033,38.24833,-109.38827,1803,-0.473,2012-01-30
NEON.D13.NIWO.DP1.00033,40.05425,-105.58237,3493,0.507,2012-01-30
NEON.D13.WLOU.DP1.20002,39.891366,-105.915395,2920,0.11,2012-01-30
NEON.D14.JORN.DP1.00033,32.59068,-106.84254,1321,-0.604,2012-01-30
NEON.D14.SRER.DP1.00033,31.91068,-110.83549,999,-0.398,2012-01-30
NEON.D14.SYCA.DP1.20002,33.749057,-111.506903,644,-0.776,2012-01-30
NEON.D15.ONAQ.DP1.00033,40.177599,-112.452452,1655,1.272,2012-01-30
NEON.D15.REDB.DP1.20002,40.783934,-111.797887,1696,1.043,2012-01-30
NEON.D16.ABBY.DP1.00033,45.76243,-122.33033,390,0.415,2012-01-30
NEON.D16.MART.DP1.20002,45.791248,-121.931959,354,0.642,2012-01-30
NEON.D16.MCRA.DP1.20002,44.259598,-122.165554,880,0.442,2012-01-30
NEON.D16.WREF.DP1.00033,45.82049,-121.95191,368,0.658,2012-01-30
NEON.D17.BIGC.DP1.20002,37.059719,-119.257549,1133,0.146,2012-01-30
NEON.D17.SJER.DP1.00033,37.10878,-119.73228,398,0.153,2012-01-30
NEON.D17.SOAP.DP1.00033,37.03337,-119.26219,1210,0.151,2012-01-30
NEON.D17.TEAK.DP1.00033,37.00583,-119.00602,2149,0.111,2012-01-30
NEON.D17.TECR.DP1.20002,36.955931,-119.027363,2053,0.139,2012-01-30
NEON.D18.BARR.DP1.00033,71.28241,-156.61936,7,-9999.0,2012-01-30
NEON.D18.OKSR.DP1.20002,68.669753,-149.143018,773,-9999.0,2012-01-30
NEON.D18.TOOK.DP1.20002,68.629562,-149.610509,715,-9999.0,2012-01-30
NEON.D18.TOOL.DP1.00033,68.66109,-149.37047,827,-9999.0,2012-01-30
NEON.D19.BONA.DP1.00033,65.15401,-147.50258,233,-9999.0,2012-01-30
NEON.D19.CARI.DP1.20002,65.15306,-147.50246,229,-9999.0,2012-01-30
NEON.D19.DEJU.DP1.00033,63.88112,-145.75136,504,-9999.0,2012-01-30
NEON.D19.HEAL.DP1.00033,63.87569,-149.21334,409,-9999.0,2012-01-30
NEON.D20.PUUM.DP1.00033,19.55309,-155.31731,1683,-9999.0,2012-01-30
nevcansnk3a,39.0099,-114.3095,3063,0.528,2012-01-30
nevcanspg1a,38.9253,-114.4082,1792,0.395,2012-01-30
nevcanspg2a,38.8921,-114.3521,2203,0.494,2012-01-30
nevcanspg3a,38.8898,-114.3314,2820,0.627,2012-01-30
nevcanspg4a,38.9061,-114.3089,3360,0.627,2012-01-30
ninemileprairie,40.86801886,-96.82208066,381,0.237,2012-01-30
nist,39.139,-77.2125,100,1.578,2012-01-30
niwot3,40.03286358,-105.5469702,3050,0.4,2012-01-30
niwot5,40.03286358,-105.5469702,2993,0.4,2012-01-30
northattleboroma,41.98369,-71.31056,60,1.21,2012-01-30
northinletsaltmarsh,33.3455,-79.1957,1,-2.105,2012-01-30
oakville,47.899334,-97.316139,268,-0.09,2012-01-30
oregonMP,44.4523,-121.5574,1253,0.221,2012-01-30
oregonYP,44.32384,-121.605993,977,0.164,2012-01-30
oregonYPbud,44.3238,-121.606,977,0.164,2012-01-30
othshardwood,44.934805,-68.6655,41,0.831,2012-01-30
othssoftwood,44.934527,-68.664888,41,0.831,2012-01-30
pace,37.9229,-78.2739,100,1.254,2012-01-30
parkschoolbuffalo,42.9637,-78.7834,205,2.305,2012-01-30
piedmontalpasture2,33.8875,-85.6935,238,0.601,2012-01-30
portal,31.9385,-109.0823,1330,-0.551,2012-01-30
proctor,44.525,-72.866,403,1.778,2012-01-30
readingma,42.5304,-71.1272,100,1.251,2012-01-30
robinson,37.4671,-83.1576,483,2.147,2012-01-30
robinson2,37.4671,-83.1576,483,2.147,2012-01-30
rosemountcons,44.6946,-93.0578,283,-0.944,2012-01-30
rosemountconv,44.691,-93.0576,283,-0.944,2012-01-30
rosemountnprs,44.6781,-93.0723,274,-0.84,2012-01-30
russellsage,32.456961,-91.974322,20,-0.938,2012-01-30
sagehen,39.4315,-120.2398,1934,0.22,2012-01-30
sagehen2,39.4307,-120.2407,1937,0.22,2012-01-30
sagehen3,39.4311,-120.2405,1935,0.22,2012-01-30
sanford,42.726777,-84.464482,268,2.022,2012-01-30
santacruz1,36.9741,-122.0308,11,-0.084,2012-01-30
santacruz2,36.9741,-122.0308,11,-0.084,2012-01-30
santaluciapreserve1,36.5265,-121.8682,500,-0.068,2012-01-30
santaluciapreserve2,36.5265,-121.8682,500,-0.068,2012-01-30
segaarboretum10,35.16209,-111.73151,2170,-0.595,2012-01-30
segaarboretum2,35.16209,-111.73151,2170,-0.595,2012-01-30
segaarboretum3,35.16209,-111.73151,2170,-0.595,2012-01-30
segaarboretum4,35.16214,-111.73153,2170,-0.595,2012-01-30
segaarboretum6,35.16209,-111.73151,2170,-0.595,2012-01-30
segaarboretum9,35.16222,-111.73158,2170,-0.595,2012-01-30
