site,lat,lon,elev,values,date
alligatorriver,35.7879,-75.9038,1,1.318,2021-01-04
arbutuslake,43.98207,-74.23322,535,-1.622,2021-01-04
arbutuslakeinlet,43.99336,-74.24527,527,-1.622,2021-01-04
archboldavir,27.176064,-81.21958,8,2.135,2021-01-04
archboldavirx,27.166627,-81.219828,8,2.135,2021-01-04
archboldbahia,27.1656,-81.216112,8,2.135,2021-01-04
archboldpnot,27.187948,-81.200345,9,2.135,2021-01-04
archboldpnotx,27.180677,-81.20068,9,2.135,2021-01-04
arkansascornsoy,34.416,-91.6723,61,1.559,2021-01-04
arsbrooks10,41.9749,-93.6905,312,-1.348,2021-01-04
arsbrooks11,41.9744,-93.6937,313,-1.348,2021-01-04
arscolesnorth,42.4884,-93.5225,356,-1.142,2021-01-04
arscolessouth,42.4816,-93.5235,352,-1.142,2021-01-04
arsgacp1,31.5109,-83.6179,96,0.501,2021-01-04
arsgacp3,31.7563,-83.7516,139,0.64,2021-01-04
arsgacp4,31.7093,-83.7287,127,0.506,2021-01-04
arsgreatbasinltar098,43.1675,-116.7132,1426,0.029,2021-01-04
arsgreatbasinltar117,43.1432,-116.7357,1625,-0.824,2021-01-04
arsgreatbasinltar177,43.0645,-116.7484,2114,-1.314,2021-01-04
arsltarmdcr,39.0587,-75.8513,17,2.238,2021-01-04
arsltarmdcrnatw,39.0575,-75.7531,16,2.025,2021-01-04
arsltarmdcrprcw,39.0667,-75.7609,17,2.025,2021-01-04
arsltarmdcrresw,39.0549,-75.7532,16,2.025,2021-01-04
arsltarucbec1,40.7537,-78.0057,400,-0.153,2021-01-04
arsltarucbec2,40.7558,-77.9999,396,-0.153,2021-01-04
arsmnswanlake1,45.684508,-95.799703,370,-1.84,2021-01-04
arsmorris1,45.6167,-96.1269,341,-2.541,2021-01-04
arsmorris2,45.627,-96.127,338,-2.541,2021-01-04
arsmorris3,45.6091,-96.1265,342,-2.541,2021-01-04
arsope3ltar,39.0309,-76.8442,41,1.923,2021-01-04
ashburnham,42.6029,-71.926,292,-0.244,2021-01-04
asuhighlands,36.2076,-81.7032,1016,1.847,2021-01-04
austincary,29.738,-82.2188,44,-0.067,2021-01-04
barrow,71.28007453,-156.6091492,5,-9999.0,2021-01-04
bartlettir,44.0646,-71.2881,268,-0.234,2021-01-04
bigtraillake,64.9194,-147.822,190,-9999.0,2021-01-04
bitterbrush001,48.154,-119.9456,667,-0.883,2021-01-04
blackrockforest,41.3974,-74.0239,427,-0.861,2021-01-04
bnzblackspruce,64.6963,-148.3235,102,-9999.0,2021-01-04
bnzrichfen,64.70134,-148.31195,97,-9999.0,2021-01-04
bnzthermokarstbog,64.6955,-148.3208,104,-9999.0,2021-01-04
boglakepeatland,47.5051,-93.4893,416,-0.58,2021-01-04
bostoncommon,42.355912,-71.064145,10,-0.601,2021-01-04
bostonu,42.35041,-71.10438,10,-0.617,2021-01-04
bouldinalfalfa,38.0985,-121.4993,-5,-1.941,2021-01-04
bouldincorn,38.109,-121.535,-5,-1.965,2021-01-04
bozeman,45.783056,-110.777778,2332,-1.172,2021-01-04
brackishimpoundment,33.2015,-79.2973,1,0.848,2021-01-04
bullshoals,36.562833,-93.06663,260,1.599,2021-01-04
burnssagebrush,43.4712,-119.6909,1398,-0.563,2021-01-04
butte,45.95304,-112.47964,1682,-0.073,2021-01-04
butterice,39.5793,-121.858,33,-2.336,2021-01-04
cafboydnorthltar01,46.755104,-117.126052,795,-0.393,2021-01-04
cafboydsouthltar01,46.751809,-117.128502,795,-0.393,2021-01-04
cafcookeastltar01,46.78152,-117.0821,794,-0.321,2021-01-04
cafcookwestltar01,46.784037,-117.09083,807,-0.321,2021-01-04
caryinstitute,41.7839,-73.7341,127,-0.495,2021-01-04
centralredwoods1,38.632272,-123.301511,200,-2.538,2021-01-04
centralredwoods2,38.632272,-123.301511,200,-2.538,2021-01-04
cperagm,40.8402,-104.7672,1644,-1.101,2021-01-04
cperheavy,40.8153,-104.7386,1652,-1.107,2021-01-04
cpertgm,40.833,-104.76,1644,-1.085,2021-01-04
cperuvb,40.8055764,-104.7558542,1641,-1.085,2021-01-04
cuny,40.8162,-73.9507,42,0.082,2021-01-04
doverdesaltmarsh,39.0888,-75.4368,0,1.747,2021-01-04
downerwoods,43.07938,-87.88076,213,1.154,2021-01-04
dukehw,35.973583,-79.100371,400,1.8,2021-01-04
ecb1,41.5348,-84.8068,275,-1.451,2021-01-04
ecb2,41.5321,-84.808,275,-1.451,2021-01-04
ecb4,41.1796,-83.0604,240,-0.005,2021-01-04
elverde,18.320654,-65.8199,312,-9999.0,2021-01-04
flagstaff,35.17961521,-111.6049032,6983,-2.638,2021-01-04
flagstaff2,35.179225,-111.604506,6983,-2.638,2021-01-04
flagstaffchimneysprings,35.257296,-111.678542,2250,-2.65,2021-01-04
forbes,39.232,-121.2972,360,-1.838,2021-01-04
fortpaynealpasture1,34.3824,-85.6428,405,1.804,2021-01-04
fortpaynealpasture2,34.3824,-85.6447,403,1.804,2021-01-04
gcesapelo,31.4440444,-81.283528,0,0.242,2021-01-04
gilberttract,38.0015,-121.6691,6,-2.198,2021-01-04
glees,41.3644,-106.2394,3150,-1.026,2021-01-04
glennorganicrice,39.6805,-122.0026,2,-2.313,2021-01-04
glennrice,39.5944,-122.0253,36,-2.381,2021-01-04
goodnow,43.96018,-74.20994,820,-1.625,2021-01-04
goodwater,39.22848,-92.11936,264,0.17,2021-01-04
goodwaterbau,39.23115,-92.15216,274,0.101,2021-01-04
grandteton,43.915017,-110.578036,2054,-0.181,2021-01-04
grca1pj,36.0241,-112.2211,1978,-2.535,2021-01-04
greenridge1,39.6905,-78.4067,285,-0.151,2021-01-04
harvard,42.5378,-72.1715,340,-0.554,2021-01-04
harvardbarn,42.53532,-72.1899,350,-0.556,2021-01-04
harvardbarn2,42.53532,-72.1899,350,-0.556,2021-01-04
harvardems2,42.5378,-72.1715,340,-0.554,2021-01-04
harvardfarmnorth,42.520465,-72.182242,355,-0.556,2021-01-04
harvardfarmsouth,42.522466,-72.182339,355,-0.556,2021-01-04
harvardgarden,42.5291,-72.1863,335,-0.556,2021-01-04
harvardhemlock,42.539,-72.18,355,-0.556,2021-01-04
harvardhemlock2,42.539407,-72.177976,355,-0.554,2021-01-04
harvardlph,42.542,-72.185,380,-0.556,2021-01-04
hawbeckereddy,40.6608,-77.848849,310,0.048,2021-01-04
hobcawclearcutlongleaf,33.3486,-79.232,4,0.904,2021-01-04
hobcawmaturelongleaf,33.3242,-79.2439,8,0.904,2021-01-04
homesteadsprings,37.2009,-92.9937,452,1.03,2021-01-04
howland1,45.2041,-68.7403,80,0.059,2021-01-04
howland2,45.2128,-68.7418,79,0.059,2021-01-04
hubbardbrook,43.9438,-71.701,253,-0.245,2021-01-04
humnokericea,34.585192,-91.751684,61,1.328,2021-01-04
humnokericec,34.588853,-91.7516729,70,1.328,2021-01-04
huyckpreserveny,42.5266,-74.1587,478,0.099,2021-01-04
hwmo1,20.0212,-155.7331,585,-9999.0,2021-01-04
hwmo2,19.9766,-155.8298,12,-9999.0,2021-01-04
hwmo5,20.1117,-155.8151,635,-9999.0,2021-01-04
ibp,32.589,-106.847,1325,-0.564,2021-01-04
imcrkfen,68.60583,-149.31101,900,-9999.0,2021-01-04
imcrkridge0,68.60681,-149.2958,951,-9999.0,2021-01-04
imcrkridge1,68.60681,-149.2958,951,-9999.0,2021-01-04
imcrktussock,68.60633,-149.30408,918,-9999.0,2021-01-04
jasperridge,37.402028,-122.22104,197,-2.009,2021-01-04
jerbajada,32.57992,-106.633793,1402,-0.76,2021-01-04
jergrassland,32.5833,-106.8333,1331,-0.564,2021-01-04
jernort,32.619,-106.788,1328,-0.28,2021-01-04
jernovel,32.6335,-106.8334,1324,-0.269,2021-01-04
jernwern,32.6271,-106.7387,1325,-0.525,2021-01-04
jersand,32.515,-106.798,1363,-0.811,2021-01-04
jershrubland,32.6502,-106.8334,1328,-0.166,2021-01-04
junipersavannah,34.4254,-105.8615,1931,-0.702,2021-01-04
kamuela,20.015008,-155.661326,850,-9999.0,2021-01-04
kamuela2,20.014959,-155.661139,830,-9999.0,2021-01-04
kansas,39.0561,-95.1907,333,-0.396,2021-01-04
kelloggcorn,42.437536,-85.3225472,288,0.273,2021-01-04
kempnrs,45.83992,-89.67755,539,0.38,2021-01-04
kendall,31.73652,-109.94185,1529,-1.93,2021-01-04
konza,39.0824,-96.5603,443,-0.328,2021-01-04
laupahoehoe,19.9322,-155.2912,1145,-9999.0,2021-01-04
ldeocam,41.0039,-73.9053,121,-0.375,2021-01-04
lostcreek,46.0827,-89.9792,480,0.517,2021-01-04
luckyhills,31.743896,-110.052023,1366,-1.826,2021-01-04
macleish,42.4484,-72.6804,251,-0.333,2021-01-04
macordway,44.8106,-93.0272,264,-0.068,2021-01-04
mandanh5,46.775423,-100.95109,593,-2.366,2021-01-04
mandani2,46.7614,-100.9257,590,-2.415,2021-01-04
manilacotton,35.8872,-90.1371,73,0.295,2021-01-04
marena,36.06434,-97.21271,327,-0.344,2021-01-04
mead1,41.1651,-96.4766,361,-2.494,2021-01-04
mead2,41.1649,-96.4701,362,-2.494,2021-01-04
mead3,41.1797,-96.4397,363,-2.454,2021-01-04
meadpasture,41.1447,-96.4616,356,-2.506,2021-01-04
meadpasturese,41.1447,-96.4616,356,-2.506,2021-01-04
meadpasturesw,41.1447,-96.4616,356,-2.506,2021-01-04
missouriozarks,38.7441,-92.2,219,0.232,2021-01-04
morganmonroe,39.3231,-86.4131,275,-0.265,2021-01-04
morganmonroe2,39.3231,-86.4131,275,-0.265,2021-01-04
nahuku,19.415187,-155.238383,1202,-9999.0,2021-01-04
nationalelkrefuge,43.488931,-110.737824,1899,-0.061,2021-01-04
ncssm,36.018446,-78.92075,175,1.833,2021-01-04
NEON.D01.BART.DP1.00033,44.063869,-71.287375,285,-0.234,2021-01-04
NEON.D01.HARV.DP1.00033,42.536911,-72.17265,359,-0.554,2021-01-04
NEON.D01.HOPB.DP1.20002,42.471786,-72.329627,203,-1.016,2021-01-04
NEON.D02.BLAN.DP1.00033,39.033698,-78.041788,162,0.445,2021-01-04
NEON.D02.LEWI.DP1.20002,39.09564,-77.98322,152,0.503,2021-01-04
NEON.D02.POSE.DP1.20002,38.89332,-78.14678,293,0.651,2021-01-04
NEON.D02.SCBI.DP1.00033,38.892925,-78.139494,364,0.371,2021-01-04
NEON.D02.SERC.DP1.00033,38.89008,-76.56001,30,2.199,2021-01-04
NEON.D03.BARC.DP1.20002,29.676473,-82.009089,35,0.167,2021-01-04
NEON.D03.DSNY.DP1.00033,28.12505,-81.43619,22,0.58,2021-01-04
NEON.D03.FLNT.DP1.20002,31.185424,-84.437403,27,0.742,2021-01-04
NEON.D03.JERC.DP1.00033,31.194839,-84.468623,58,0.757,2021-01-04
NEON.D03.OSBS.DP1.00033,29.689282,-81.993431,56,-0.055,2021-01-04
NEON.D03.SUGG.DP1.20002,29.687054,-82.016171,28,-0.055,2021-01-04
NEON.D04.CUPE.DP1.20002,18.11352,-66.98676,164,-9999.0,2021-01-04
NEON.D04.GUAN.DP1.00033,17.96955,-66.8687,136,-9999.0,2021-01-04
NEON.D04.GUIL.DP1.20002,18.1741,-66.79851,564,-9999.0,2021-01-04
NEON.D04.LAJA.DP1.00033,18.021261,-67.076889,22,-9999.0,2021-01-04
NEON.D05.CRAM.DP1.20002,46.21111,-89.47825,518,0.668,2021-01-04
NEON.D05.LIRO.DP1.20002,45.998269,-89.704767,495,0.504,2021-01-04
NEON.D05.STEI.DP1.00033,45.50894,-89.58637,476,0.453,2021-01-04
NEON.D05.TREE.DP1.00033,45.49373,-89.58572,474,0.453,2021-01-04
NEON.D05.UNDE.DP1.00033,46.23391,-89.537254,529,0.726,2021-01-04
NEON.D06.KING.DP1.20002,39.10506,-96.60336,339,-0.113,2021-01-04
NEON.D06.KONA.DP1.00033,39.110446,-96.612935,443,-0.113,2021-01-04
NEON.D06.KONZ.DP1.00033,39.10077,-96.56309,415,-0.328,2021-01-04
NEON.D06.MCDI.DP1.20002,38.94428,-96.44197,376,-0.447,2021-01-04
NEON.D06.UKFS.DP1.00033,39.040431,-95.19215,330,-0.396,2021-01-04
NEON.D07.GRSM.DP1.00033,35.68896,-83.50195,589,1.405,2021-01-04
NEON.D07.LECO.DP1.20002,35.69043,-83.50379,578,1.405,2021-01-04
NEON.D07.MLBS.DP1.00033,37.378314,-80.524847,1177,2.133,2021-01-04
NEON.D07.ORNL.DP1.00033,35.964128,-84.282588,351,1.217,2021-01-04
NEON.D07.WALK.DP1.20002,35.95947,-84.28041,274,1.137,2021-01-04
NEON.D08.BLWA.DP1.20002,32.541529,-87.798151,23,1.165,2021-01-04
NEON.D08.DELA.DP1.00033,32.541727,-87.803877,36,1.165,2021-01-04
NEON.D08.LENO.DP1.00033,31.85388,-88.16122,10,1.321,2021-01-04
NEON.D08.MAYF.DP1.20002,32.959657,-87.408128,93,1.936,2021-01-04
NEON.D08.TALL.DP1.00033,32.95047,-87.393259,167,1.936,2021-01-04
NEON.D08.TOMB.DP1.20002,31.853431,-88.158872,10,1.321,2021-01-04
NEON.D09.DCFS.DP1.00033,47.161647,-99.106556,574,-2.331,2021-01-04
NEON.D09.NOGP.DP1.00033,46.76972,-100.91535,589,-2.415,2021-01-04
NEON.D09.PRLA.DP1.20002,47.15909,-99.11388,563,-2.335,2021-01-04
NEON.D09.PRPO.DP1.20002,47.12999,-99.250551,587,-2.346,2021-01-04
NEON.D09.WOOD.DP1.00033,47.1282,-99.241334,585,-2.346,2021-01-04
NEON.D10.ARIK.DP1.20002,39.758246,-102.447103,1188,-2.065,2021-01-04
NEON.D10.CPER.DP1.00033,40.81553,-104.7456,1600,-1.085,2021-01-04
NEON.D10.HQTW.DP1.00033,40.016704,-105.245612,1601,-0.728,2021-01-04
NEON.D10.RMNP.DP1.00033,40.275903,-105.545955,2751,-1.308,2021-01-04
NEON.D10.STER.DP1.00033,40.461894,-103.02929,1366,-1.506,2021-01-04
NEON.D11.BLUE.DP1.20002,34.444218,-96.624201,288,0.474,2021-01-04
NEON.D11.CLBJ.DP1.00033,33.40123,-97.57,279,0.68,2021-01-04
NEON.D11.OAES.DP1.00033,35.41059,-99.05879,520,-0.361,2021-01-04
NEON.D11.PRIN.DP1.20002,33.37859,-97.78226,255,0.813,2021-01-04
NEON.D12.BLDE.DP1.20002,44.95011,-110.58715,2035,0.229,2021-01-04
NEON.D12.YELL.DP1.00033,44.95348,-110.53914,2130,0.094,2021-01-04
NEON.D13.COMO.DP1.20002,40.03496,-105.54487,3036,-1.45,2021-01-04
NEON.D13.MOAB.DP1.00033,38.24833,-109.38827,1803,-2.657,2021-01-04
NEON.D13.NIWO.DP1.00033,40.05425,-105.58237,3493,-1.234,2021-01-04
NEON.D13.WLOU.DP1.20002,39.891366,-105.915395,2920,-0.923,2021-01-04
NEON.D14.JORN.DP1.00033,32.59068,-106.84254,1321,-0.564,2021-01-04
NEON.D14.SRER.DP1.00033,31.91068,-110.83549,999,-2.988,2021-01-04
NEON.D14.SYCA.DP1.20002,33.749057,-111.506903,644,-1.751,2021-01-04
NEON.D15.ONAQ.DP1.00033,40.177599,-112.452452,1655,-3.0,2021-01-04
NEON.D15.REDB.DP1.20002,40.783934,-111.797887,1696,-3.0,2021-01-04
NEON.D16.ABBY.DP1.00033,45.76243,-122.33033,390,-0.33,2021-01-04
NEON.D16.MART.DP1.20002,45.791248,-121.931959,354,-0.747,2021-01-04
NEON.D16.MCRA.DP1.20002,44.259598,-122.165554,880,-0.918,2021-01-04
NEON.D16.WREF.DP1.00033,45.82049,-121.95191,368,-0.796,2021-01-04
NEON.D17.BIGC.DP1.20002,37.059719,-119.257549,1133,-1.248,2021-01-04
NEON.D17.SJER.DP1.00033,37.10878,-119.73228,398,-1.181,2021-01-04
NEON.D17.SOAP.DP1.00033,37.03337,-119.26219,1210,-1.315,2021-01-04
NEON.D17.TEAK.DP1.00033,37.00583,-119.00602,2149,-1.309,2021-01-04
NEON.D17.TECR.DP1.20002,36.955931,-119.027363,2053,-1.345,2021-01-04
NEON.D18.BARR.DP1.00033,71.28241,-156.61936,7,-9999.0,2021-01-04
NEON.D18.OKSR.DP1.20002,68.669753,-149.143018,773,-9999.0,2021-01-04
NEON.D18.TOOK.DP1.20002,68.629562,-149.610509,715,-9999.0,2021-01-04
NEON.D18.TOOL.DP1.00033,68.66109,-149.37047,827,-9999.0,2021-01-04
NEON.D19.BONA.DP1.00033,65.15401,-147.50258,233,-9999.0,2021-01-04
NEON.D19.CARI.DP1.20002,65.15306,-147.50246,229,-9999.0,2021-01-04
NEON.D19.DEJU.DP1.00033,63.88112,-145.75136,504,-9999.0,2021-01-04
NEON.D19.HEAL.DP1.00033,63.87569,-149.21334,409,-9999.0,2021-01-04
NEON.D20.PUUM.DP1.00033,19.55309,-155.31731,1683,-9999.0,2021-01-04
nevcansnk3a,39.0099,-114.3095,3063,-2.81,2021-01-04
nevcanspg1a,38.9253,-114.4082,1792,-3.0,2021-01-04
nevcanspg2a,38.8921,-114.3521,2203,-2.884,2021-01-04
nevcanspg3a,38.8898,-114.3314,2820,-2.502,2021-01-04
nevcanspg4a,38.9061,-114.3089,3360,-2.502,2021-01-04
ninemileprairie,40.86801886,-96.82208066,381,-1.067,2021-01-04
nist,39.139,-77.2125,100,0.925,2021-01-04
niwot3,40.03286358,-105.5469702,3050,-1.45,2021-01-04
niwot5,40.03286358,-105.5469702,2993,-1.45,2021-01-04
northattleboroma,41.98369,-71.31056,60,-0.29,2021-01-04
northinletsaltmarsh,33.3455,-79.1957,1,0.635,2021-01-04
oakville,47.899334,-97.316139,268,-0.581,2021-01-04
oregonMP,44.4523,-121.5574,1253,-1.505,2021-01-04
oregonYP,44.32384,-121.605993,977,-1.217,2021-01-04
oregonYPbud,44.3238,-121.606,977,-1.217,2021-01-04
othshardwood,44.934805,-68.6655,41,-0.262,2021-01-04
othssoftwood,44.934527,-68.664888,41,-0.262,2021-01-04
pace,37.9229,-78.2739,100,1.799,2021-01-04
parkschoolbuffalo,42.9637,-78.7834,205,-0.291,2021-01-04
piedmontalpasture2,33.8875,-85.6935,238,0.984,2021-01-04
portal,31.9385,-109.0823,1330,-1.644,2021-01-04
proctor,44.525,-72.866,403,-1.474,2021-01-04
readingma,42.5304,-71.1272,100,-0.596,2021-01-04
robinson,37.4671,-83.1576,483,1.265,2021-01-04
robinson2,37.4671,-83.1576,483,1.265,2021-01-04
rosemountcons,44.6946,-93.0578,283,-0.312,2021-01-04
rosemountconv,44.691,-93.0576,283,-0.312,2021-01-04
rosemountnprs,44.6781,-93.0723,274,-0.208,2021-01-04
russellsage,32.456961,-91.974322,20,1.469,2021-01-04
sagehen,39.4315,-120.2398,1934,-1.339,2021-01-04
sagehen2,39.4307,-120.2407,1937,-1.339,2021-01-04
sagehen3,39.4311,-120.2405,1935,-1.339,2021-01-04
sanford,42.726777,-84.464482,268,0.38,2021-01-04
santacruz1,36.9741,-122.0308,11,-1.546,2021-01-04
santacruz2,36.9741,-122.0308,11,-1.546,2021-01-04
santaluciapreserve1,36.5265,-121.8682,500,-1.35,2021-01-04
santaluciapreserve2,36.5265,-121.8682,500,-1.35,2021-01-04
segaarboretum10,35.16209,-111.73151,2170,-2.569,2021-01-04
segaarboretum2,35.16209,-111.73151,2170,-2.569,2021-01-04
segaarboretum3,35.16209,-111.73151,2170,-2.569,2021-01-04
segaarboretum4,35.16214,-111.73153,2170,-2.569,2021-01-04
segaarboretum6,35.16209,-111.73151,2170,-2.569,2021-01-04
segaarboretum9,35.16222,-111.73158,2170,-2.569,2021-01-04
segaarboretumforest,35.1613,-111.7359,2173,-2.569,2021-01-04
segaarboretummeadow,35.1621,-111.7316,2157,-2.569,2021-01-04
segablackpoint,35.6814,-111.4754,1566,-1.461,2021-01-04
segabluechute,35.5876,-111.9716,1930,-2.726,2021-01-04
segabluechute1,35.58759,-111.97115,1931,-2.726,2021-01-04
segabluechute2,35.58759,-111.97115,1931,-2.726,2021-01-04
segabluechute4,35.58759,-111.9716,1931,-2.726,2021-01-04
segabluechute6,35.58759,-111.97115,1931,-2.726,2021-01-04
segabluechute7,35.58759,-111.97115,1931,-2.726,2021-01-04
segabluechute8,35.58759,-111.97115,1931,-2.726,2021-01-04
segabradshaw,34.9109,-111.9285,1402,-2.077,2021-01-04
segahartprairie,35.3536,-111.7324,2585,-2.539,2021-01-04
segalcr,35.7231,-111.321,1275,-2.355,2021-01-04
segalcr2,35.7069,-111.36,1495,-1.58,2021-01-04
segalittlemountain,36.5865,-112.3634,2276,-2.38,2021-01-04
segasoapcreek,36.751,-111.716,1233,-2.622,2021-01-04
segawhitepockets,36.6081,-112.4082,2057,-2.501,2021-01-04
sevilletagrass,34.360444,-106.700186,1600,-0.845,2021-01-04
sevilletanewgrass,34.358,-106.6799,1603,-1.015,2021-01-04
sevilletashrub,34.334956,-106.744469,1603,-0.764,2021-01-04
sevMRME10L,34.3438,-106.7269,1604,-0.998,2021-01-04
sevMRME11C,34.3438,-106.7268,1604,-0.998,2021-01-04
sevMRME1S,34.3442,-106.7272,1604,-0.998,2021-01-04
sevpjrm12,34.38615,-106.52621,1905,-1.278,2021-01-04
sevpjrm13,34.38631,-106.52791,1914,-1.278,2021-01-04
shalehillsczo,40.6658,-77.9041,310,-0.047,2021-01-04
shenandoah,38.6167,-78.35,1037,0.179,2021-01-04
silverton,44.9986,-122.6948,347,-1.175,2021-01-04
siwetland,38.0369,-121.7546,-5,-2.275,2021-01-04
slatefloodplain,38.9094,-107.0282,2725,-1.503,2021-01-04
snodgrass1,38.92619636,-106.9714376,3023,-1.634,2021-01-04
snodgrass2,38.92619636,-106.9714376,3023,-1.634,2021-01-04
snodgrass3,38.92839978,-106.9781196,3141,-1.634,2021-01-04
snodgrass4,38.92839978,-106.9781196,3141,-1.634,2021-01-04
snodgrass5,38.92744789,-106.9785209,3152,-1.634,2021-01-04
snodgrass6,38.92744789,-106.9785209,3152,-1.634,2021-01-04
snodgrass7,38.93142134,-106.9852388,3363,-1.596,2021-01-04
snodgrass8,38.93142134,-106.9852388,3363,-1.596,2021-01-04
southerngreatplains,36.6058,-97.4888,314,-0.032,2021-01-04
springfieldma,42.135162,-72.585972,56,-0.379,2021-01-04
spruceA0EMI,47.5049,-93.4541,413,-0.577,2021-01-04
spruceA0EMT,47.5049,-93.4541,418,-0.577,2021-01-04
spruceA0P07,47.50493,-93.45314,413,-0.577,2021-01-04
spruceA0P07SH,47.50493,-93.45314,413,-0.577,2021-01-04
spruceA0P21,47.50625,-93.45275,413,-0.577,2021-01-04
spruceA0P21SH,47.50625,-93.45275,413,-0.577,2021-01-04
srg,31.7894,-110.8276,1281,-2.465,2021-01-04
srm,31.8214,-110.8661,1116,-2.68,2021-01-04
statenrice1,38.1235,-121.549,-5,-1.985,2021-01-04
stjones,39.088222,-75.43725,2,1.747,2021-01-04
sweetbriar,37.57341,-79.08482,242,2.167,2021-01-04
sweetbriarclearcut,37.5753,-79.0872,242,2.167,2021-01-04
sweetbriargrass,37.5605,-79.0884,240,2.167,2021-01-04
sylvania,46.242,-89.348,540,0.88,2021-01-04
templefieldstation1,40.1667,-75.1894,105,0.499,2021-01-04
tfforest,43.1086,-70.9505,23,-0.742,2021-01-04
tidmarshplymouth,41.9157,-70.5754,9,-0.858,2021-01-04
tonzi,38.43091667,-120.9658861,177,-1.349,2021-01-04
townsenddemeadow,39.3917,-75.6281,11,1.677,2021-01-04
tsubiology,36.1671,-86.8295,164,1.027,2021-01-04
tsubiology2,36.1171,-86.8295,100,0.278,2021-01-04
tuckerprairie,38.9491,-91.9952,274,-0.057,2021-01-04
twodafo,29.1658,-95.829,16,0.482,2021-01-04
tworfaa,31.4777,-96.8882,167,1.428,2021-01-04
tworfpr,31.4802,-96.8826,162,1.483,2021-01-04
tworfta,31.4693,-96.8864,173,1.428,2021-01-04
twosfpr,30.6176,-97.2938,157,-0.59,2021-01-04
ucnrsanzaborrego,33.2401,-116.3886,214,0.688,2021-01-04
ufona,27.3836,-81.950856,25,-0.195,2021-01-04
uiefmaize2,40.0628,-88.1961,224,0.046,2021-01-04
uiefmiscanthus2,40.0628,-88.1984,221,0.046,2021-01-04
uiefprairie2,40.0637,-88.1973,224,0.046,2021-01-04
uiefsorghum,40.0065,-88.2032,224,-0.296,2021-01-04
uiefswitchgrass2,40.0637,-88.1973,224,0.046,2021-01-04
umichbiological,45.55984,-84.71382,230,1.498,2021-01-04
umichbiological2,45.5625,-84.6976,240,1.398,2021-01-04
unca,35.5951,-82.5515,650,1.61,2021-01-04
usgseros,43.7343,-96.6234,448,-1.961,2021-01-04
usmpj,34.43845,-106.2543606,2126,-0.924,2021-01-04
usof5,35.7297,-90.0406,70,0.344,2021-01-04
usof6,35.7333,-90.0403,70,0.344,2021-01-04
uwmfieldsta,43.38709,-88.0229,265,1.022,2021-01-04
vaira,38.41328056,-120.9506361,129,-1.349,2021-01-04
vallesburnedconifer,35.8884,-106.5321,3043,-2.295,2021-01-04
vallesmixedconifer,35.9192,-106.6142,2752,-2.274,2021-01-04
vallesponderosapine,35.864,-106.5964,2501,-2.257,2021-01-04
waahila,21.3017,-157.8152,55,-9999.0,2021-01-04
warrenwilson,35.6069,-82.4421,2198,1.691,2021-01-04
willamettepoplar,44.1368,-123.1823,112,-1.4,2021-01-04
willowcreek,45.805986,-90.07912,521,0.544,2021-01-04
windriver,45.8212833,-121.9520833,371,-0.796,2021-01-04
windriverunderstory,45.8212833,-121.9520833,371,-0.796,2021-01-04
wolfesneckfarm,43.8305,-70.0715,16,-0.572,2021-01-04
worcester,42.2697,-71.8428,185,-0.063,2021-01-04
alligatorriver,35.7879,-75.9038,1,1.238,2021-01-11
arbutuslake,43.98207,-74.23322,535,-1.845,2021-01-11
arbutuslakeinlet,43.99336,-74.24527,527,-1.845,2021-01-11
archboldavir,27.176064,-81.21958,8,1.981,2021-01-11
archboldavirx,27.166627,-81.219828,8,1.981,2021-01-11
archboldbahia,27.1656,-81.216112,8,1.981,2021-01-11
archboldpnot,27.187948,-81.200345,9,1.981,2021-01-11
archboldpnotx,27.180677,-81.20068,9,1.981,2021-01-11
arkansascornsoy,34.416,-91.6723,61,1.447,2021-01-11
arsbrooks10,41.9749,-93.6905,312,-1.35,2021-01-11
arsbrooks11,41.9744,-93.6937,313,-1.35,2021-01-11
arscolesnorth,42.4884,-93.5225,356,-1.15,2021-01-11
arscolessouth,42.4816,-93.5235,352,-1.15,2021-01-11
arsgacp1,31.5109,-83.6179,96,0.632,2021-01-11
arsgacp3,31.7563,-83.7516,139,0.589,2021-01-11
arsgacp4,31.7093,-83.7287,127,0.431,2021-01-11
arsgreatbasinltar098,43.1675,-116.7132,1426,0.074,2021-01-11
arsgreatbasinltar117,43.1432,-116.7357,1625,-0.728,2021-01-11
arsgreatbasinltar177,43.0645,-116.7484,2114,-1.167,2021-01-11
arsltarmdcr,39.0587,-75.8513,17,2.242,2021-01-11
arsltarmdcrnatw,39.0575,-75.7531,16,2.026,2021-01-11
arsltarmdcrprcw,39.0667,-75.7609,17,2.026,2021-01-11
arsltarmdcrresw,39.0549,-75.7532,16,2.026,2021-01-11
arsltarucbec1,40.7537,-78.0057,400,-0.22,2021-01-11
arsltarucbec2,40.7558,-77.9999,396,-0.22,2021-01-11
arsmnswanlake1,45.684508,-95.799703,370,-1.877,2021-01-11
arsmorris1,45.6167,-96.1269,341,-2.552,2021-01-11
arsmorris2,45.627,-96.127,338,-2.552,2021-01-11
arsmorris3,45.6091,-96.1265,342,-2.552,2021-01-11
arsope3ltar,39.0309,-76.8442,41,1.857,2021-01-11
ashburnham,42.6029,-71.926,292,-0.295,2021-01-11
asuhighlands,36.2076,-81.7032,1016,1.611,2021-01-11
austincary,29.738,-82.2188,44,-0.073,2021-01-11
barrow,71.28007453,-156.6091492,5,-9999.0,2021-01-11
bartlettir,44.0646,-71.2881,268,-0.261,2021-01-11
bigtraillake,64.9194,-147.822,190,-9999.0,2021-01-11
bitterbrush001,48.154,-119.9456,667,-0.925,2021-01-11
blackrockforest,41.3974,-74.0239,427,-0.937,2021-01-11
bnzblackspruce,64.6963,-148.3235,102,-9999.0,2021-01-11
bnzrichfen,64.70134,-148.31195,97,-9999.0,2021-01-11
bnzthermokarstbog,64.6955,-148.3208,104,-9999.0,2021-01-11
boglakepeatland,47.5051,-93.4893,416,-0.6,2021-01-11
bostoncommon,42.355912,-71.064145,10,-0.691,2021-01-11
bostonu,42.35041,-71.10438,10,-0.704,2021-01-11
bouldinalfalfa,38.0985,-121.4993,-5,-1.891,2021-01-11
bouldincorn,38.109,-121.535,-5,-1.913,2021-01-11
bozeman,45.783056,-110.777778,2332,-1.464,2021-01-11
brackishimpoundment,33.2015,-79.2973,1,0.845,2021-01-11
bullshoals,36.562833,-93.06663,260,1.468,2021-01-11
burnssagebrush,43.4712,-119.6909,1398,-0.544,2021-01-11
butte,45.95304,-112.47964,1682,-0.179,2021-01-11
butterice,39.5793,-121.858,33,-2.183,2021-01-11
cafboydnorthltar01,46.755104,-117.126052,795,-0.772,2021-01-11
cafboydsouthltar01,46.751809,-117.128502,795,-0.772,2021-01-11
cafcookeastltar01,46.78152,-117.0821,794,-0.639,2021-01-11
cafcookwestltar01,46.784037,-117.09083,807,-0.639,2021-01-11
caryinstitute,41.7839,-73.7341,127,-0.568,2021-01-11
centralredwoods1,38.632272,-123.301511,200,-2.261,2021-01-11
centralredwoods2,38.632272,-123.301511,200,-2.261,2021-01-11
cperagm,40.8402,-104.7672,1644,-1.139,2021-01-11
cperheavy,40.8153,-104.7386,1652,-1.134,2021-01-11
cpertgm,40.833,-104.76,1644,-1.116,2021-01-11
cperuvb,40.8055764,-104.7558542,1641,-1.116,2021-01-11
cuny,40.8162,-73.9507,42,0.013,2021-01-11
doverdesaltmarsh,39.0888,-75.4368,0,1.73,2021-01-11
downerwoods,43.07938,-87.88076,213,1.192,2021-01-11
dukehw,35.973583,-79.100371,400,1.67,2021-01-11
ecb1,41.5348,-84.8068,275,-1.417,2021-01-11
ecb2,41.5321,-84.808,275,-1.417,2021-01-11
ecb4,41.1796,-83.0604,240,-0.062,2021-01-11
elverde,18.320654,-65.8199,312,-9999.0,2021-01-11
flagstaff,35.17961521,-111.6049032,6983,-2.517,2021-01-11
flagstaff2,35.179225,-111.604506,6983,-2.517,2021-01-11
flagstaffchimneysprings,35.257296,-111.678542,2250,-2.546,2021-01-11
forbes,39.232,-121.2972,360,-1.71,2021-01-11
fortpaynealpasture1,34.3824,-85.6428,405,1.484,2021-01-11
fortpaynealpasture2,34.3824,-85.6447,403,1.484,2021-01-11
gcesapelo,31.4440444,-81.283528,0,0.233,2021-01-11
gilberttract,38.0015,-121.6691,6,-2.146,2021-01-11
glees,41.3644,-106.2394,3150,-1.074,2021-01-11
glennorganicrice,39.6805,-122.0026,2,-2.135,2021-01-11
glennrice,39.5944,-122.0253,36,-2.209,2021-01-11
goodnow,43.96018,-74.20994,820,-1.837,2021-01-11
goodwater,39.22848,-92.11936,264,0.151,2021-01-11
goodwaterbau,39.23115,-92.15216,274,0.084,2021-01-11
grandteton,43.915017,-110.578036,2054,-0.237,2021-01-11
grca1pj,36.0241,-112.2211,1978,-2.433,2021-01-11
greenridge1,39.6905,-78.4067,285,-0.182,2021-01-11
harvard,42.5378,-72.1715,340,-0.593,2021-01-11
harvardbarn,42.53532,-72.1899,350,-0.597,2021-01-11
harvardbarn2,42.53532,-72.1899,350,-0.597,2021-01-11
harvardems2,42.5378,-72.1715,340,-0.593,2021-01-11
harvardfarmnorth,42.520465,-72.182242,355,-0.597,2021-01-11
harvardfarmsouth,42.522466,-72.182339,355,-0.597,2021-01-11
harvardgarden,42.5291,-72.1863,335,-0.597,2021-01-11
harvardhemlock,42.539,-72.18,355,-0.597,2021-01-11
harvardhemlock2,42.539407,-72.177976,355,-0.593,2021-01-11
harvardlph,42.542,-72.185,380,-0.597,2021-01-11
hawbeckereddy,40.6608,-77.848849,310,-0.01,2021-01-11
hobcawclearcutlongleaf,33.3486,-79.232,4,0.91,2021-01-11
hobcawmaturelongleaf,33.3242,-79.2439,8,0.91,2021-01-11
homesteadsprings,37.2009,-92.9937,452,1.01,2021-01-11
howland1,45.2041,-68.7403,80,0.044,2021-01-11
howland2,45.2128,-68.7418,79,0.044,2021-01-11
hubbardbrook,43.9438,-71.701,253,-0.298,2021-01-11
humnokericea,34.585192,-91.751684,61,1.246,2021-01-11
humnokericec,34.588853,-91.7516729,70,1.246,2021-01-11
huyckpreserveny,42.5266,-74.1587,478,-0.02,2021-01-11
hwmo1,20.0212,-155.7331,585,-9999.0,2021-01-11
hwmo2,19.9766,-155.8298,12,-9999.0,2021-01-11
hwmo5,20.1117,-155.8151,635,-9999.0,2021-01-11
ibp,32.589,-106.847,1325,-0.568,2021-01-11
imcrkfen,68.60583,-149.31101,900,-9999.0,2021-01-11
imcrkridge0,68.60681,-149.2958,951,-9999.0,2021-01-11
imcrkridge1,68.60681,-149.2958,951,-9999.0,2021-01-11
imcrktussock,68.60633,-149.30408,918,-9999.0,2021-01-11
jasperridge,37.402028,-122.22104,197,-1.9,2021-01-11
jerbajada,32.57992,-106.633793,1402,-0.823,2021-01-11
jergrassland,32.5833,-106.8333,1331,-0.568,2021-01-11
jernort,32.619,-106.788,1328,-0.284,2021-01-11
jernovel,32.6335,-106.8334,1324,-0.271,2021-01-11
jernwern,32.6271,-106.7387,1325,-0.541,2021-01-11
jersand,32.515,-106.798,1363,-0.844,2021-01-11
jershrubland,32.6502,-106.8334,1328,-0.162,2021-01-11
junipersavannah,34.4254,-105.8615,1931,-0.758,2021-01-11
kamuela,20.015008,-155.661326,850,-9999.0,2021-01-11
kamuela2,20.014959,-155.661139,830,-9999.0,2021-01-11
kansas,39.0561,-95.1907,333,-0.293,2021-01-11
kelloggcorn,42.437536,-85.3225472,288,0.236,2021-01-11
kempnrs,45.83992,-89.67755,539,0.379,2021-01-11
kendall,31.73652,-109.94185,1529,-1.848,2021-01-11
konza,39.0824,-96.5603,443,-0.299,2021-01-11
laupahoehoe,19.9322,-155.2912,1145,-9999.0,2021-01-11
ldeocam,41.0039,-73.9053,121,-0.451,2021-01-11
lostcreek,46.0827,-89.9792,480,0.515,2021-01-11
luckyhills,31.743896,-110.052023,1366,-1.749,2021-01-11
macleish,42.4484,-72.6804,251,-0.403,2021-01-11
macordway,44.8106,-93.0272,264,-0.076,2021-01-11
mandanh5,46.775423,-100.95109,593,-2.394,2021-01-11
mandani2,46.7614,-100.9257,590,-2.443,2021-01-11
manilacotton,35.8872,-90.1371,73,0.094,2021-01-11
marena,36.06434,-97.21271,327,-0.296,2021-01-11
mead1,41.1651,-96.4766,361,-2.474,2021-01-11
mead2,41.1649,-96.4701,362,-2.474,2021-01-11
mead3,41.1797,-96.4397,363,-2.438,2021-01-11
meadpasture,41.1447,-96.4616,356,-2.491,2021-01-11
meadpasturese,41.1447,-96.4616,356,-2.491,2021-01-11
meadpasturesw,41.1447,-96.4616,356,-2.491,2021-01-11
missouriozarks,38.7441,-92.2,219,0.195,2021-01-11
morganmonroe,39.3231,-86.4131,275,-0.373,2021-01-11
morganmonroe2,39.3231,-86.4131,275,-0.373,2021-01-11
nahuku,19.415187,-155.238383,1202,-9999.0,2021-01-11
nationalelkrefuge,43.488931,-110.737824,1899,-0.286,2021-01-11
ncssm,36.018446,-78.92075,175,1.695,2021-01-11
NEON.D01.BART.DP1.00033,44.063869,-71.287375,285,-0.261,2021-01-11
NEON.D01.HARV.DP1.00033,42.536911,-72.17265,359,-0.593,2021-01-11
NEON.D01.HOPB.DP1.20002,42.471786,-72.329627,203,-1.05,2021-01-11
NEON.D02.BLAN.DP1.00033,39.033698,-78.041788,162,0.333,2021-01-11
NEON.D02.LEWI.DP1.20002,39.09564,-77.98322,152,0.371,2021-01-11
NEON.D02.POSE.DP1.20002,38.89332,-78.14678,293,0.556,2021-01-11
NEON.D02.SCBI.DP1.00033,38.892925,-78.139494,364,0.274,2021-01-11
NEON.D02.SERC.DP1.00033,38.89008,-76.56001,30,2.185,2021-01-11
NEON.D03.BARC.DP1.20002,29.676473,-82.009089,35,0.15,2021-01-11
NEON.D03.DSNY.DP1.00033,28.12505,-81.43619,22,0.478,2021-01-11
NEON.D03.FLNT.DP1.20002,31.185424,-84.437403,27,0.738,2021-01-11
NEON.D03.JERC.DP1.00033,31.194839,-84.468623,58,0.759,2021-01-11
NEON.D03.OSBS.DP1.00033,29.689282,-81.993431,56,-0.066,2021-01-11
NEON.D03.SUGG.DP1.20002,29.687054,-82.016171,28,-0.066,2021-01-11
NEON.D04.CUPE.DP1.20002,18.11352,-66.98676,164,-9999.0,2021-01-11
NEON.D04.GUAN.DP1.00033,17.96955,-66.8687,136,-9999.0,2021-01-11
NEON.D04.GUIL.DP1.20002,18.1741,-66.79851,564,-9999.0,2021-01-11
NEON.D04.LAJA.DP1.00033,18.021261,-67.076889,22,-9999.0,2021-01-11
NEON.D05.CRAM.DP1.20002,46.21111,-89.47825,518,0.66,2021-01-11
NEON.D05.LIRO.DP1.20002,45.998269,-89.704767,495,0.505,2021-01-11
NEON.D05.STEI.DP1.00033,45.50894,-89.58637,476,0.455,2021-01-11
NEON.D05.TREE.DP1.00033,45.49373,-89.58572,474,0.455,2021-01-11
NEON.D05.UNDE.DP1.00033,46.23391,-89.537254,529,0.719,2021-01-11
NEON.D06.KING.DP1.20002,39.10506,-96.60336,339,-0.088,2021-01-11
NEON.D06.KONA.DP1.00033,39.110446,-96.612935,443,-0.088,2021-01-11
NEON.D06.KONZ.DP1.00033,39.10077,-96.56309,415,-0.299,2021-01-11
NEON.D06.MCDI.DP1.20002,38.94428,-96.44197,376,-0.38,2021-01-11
NEON.D06.UKFS.DP1.00033,39.040431,-95.19215,330,-0.293,2021-01-11
NEON.D07.GRSM.DP1.00033,35.68896,-83.50195,589,0.996,2021-01-11
NEON.D07.LECO.DP1.20002,35.69043,-83.50379,578,0.996,2021-01-11
NEON.D07.MLBS.DP1.00033,37.378314,-80.524847,1177,1.861,2021-01-11
NEON.D07.ORNL.DP1.00033,35.964128,-84.282588,351,0.643,2021-01-11
NEON.D07.WALK.DP1.20002,35.95947,-84.28041,274,0.543,2021-01-11
NEON.D08.BLWA.DP1.20002,32.541529,-87.798151,23,0.887,2021-01-11
NEON.D08.DELA.DP1.00033,32.541727,-87.803877,36,0.887,2021-01-11
NEON.D08.LENO.DP1.00033,31.85388,-88.16122,10,1.149,2021-01-11
NEON.D08.MAYF.DP1.20002,32.959657,-87.408128,93,1.642,2021-01-11
NEON.D08.TALL.DP1.00033,32.95047,-87.393259,167,1.642,2021-01-11
NEON.D08.TOMB.DP1.20002,31.853431,-88.158872,10,1.149,2021-01-11
NEON.D09.DCFS.DP1.00033,47.161647,-99.106556,574,-2.283,2021-01-11
NEON.D09.NOGP.DP1.00033,46.76972,-100.91535,589,-2.443,2021-01-11
NEON.D09.PRLA.DP1.20002,47.15909,-99.11388,563,-2.289,2021-01-11
NEON.D09.PRPO.DP1.20002,47.12999,-99.250551,587,-2.306,2021-01-11
NEON.D09.WOOD.DP1.00033,47.1282,-99.241334,585,-2.306,2021-01-11
NEON.D10.ARIK.DP1.20002,39.758246,-102.447103,1188,-2.022,2021-01-11
NEON.D10.CPER.DP1.00033,40.81553,-104.7456,1600,-1.116,2021-01-11
NEON.D10.HQTW.DP1.00033,40.016704,-105.245612,1601,-0.887,2021-01-11
NEON.D10.RMNP.DP1.00033,40.275903,-105.545955,2751,-1.542,2021-01-11
NEON.D10.STER.DP1.00033,40.461894,-103.02929,1366,-1.503,2021-01-11
NEON.D11.BLUE.DP1.20002,34.444218,-96.624201,288,0.337,2021-01-11
NEON.D11.CLBJ.DP1.00033,33.40123,-97.57,279,0.607,2021-01-11
NEON.D11.OAES.DP1.00033,35.41059,-99.05879,520,-0.345,2021-01-11
NEON.D11.PRIN.DP1.20002,33.37859,-97.78226,255,0.728,2021-01-11
NEON.D12.BLDE.DP1.20002,44.95011,-110.58715,2035,-0.151,2021-01-11
NEON.D12.YELL.DP1.00033,44.95348,-110.53914,2130,-0.3,2021-01-11
NEON.D13.COMO.DP1.20002,40.03496,-105.54487,3036,-1.603,2021-01-11
NEON.D13.MOAB.DP1.00033,38.24833,-109.38827,1803,-2.635,2021-01-11
NEON.D13.NIWO.DP1.00033,40.05425,-105.58237,3493,-1.409,2021-01-11
NEON.D13.WLOU.DP1.20002,39.891366,-105.915395,2920,-1.298,2021-01-11
NEON.D14.JORN.DP1.00033,32.59068,-106.84254,1321,-0.568,2021-01-11
NEON.D14.SRER.DP1.00033,31.91068,-110.83549,999,-2.908,2021-01-11
NEON.D14.SYCA.DP1.20002,33.749057,-111.506903,644,-1.646,2021-01-11
NEON.D15.ONAQ.DP1.00033,40.177599,-112.452452,1655,-3.0,2021-01-11
NEON.D15.REDB.DP1.20002,40.783934,-111.797887,1696,-3.0,2021-01-11
NEON.D16.ABBY.DP1.00033,45.76243,-122.33033,390,-0.391,2021-01-11
NEON.D16.MART.DP1.20002,45.791248,-121.931959,354,-0.649,2021-01-11
NEON.D16.MCRA.DP1.20002,44.259598,-122.165554,880,-0.831,2021-01-11
NEON.D16.WREF.DP1.00033,45.82049,-121.95191,368,-0.717,2021-01-11
NEON.D17.BIGC.DP1.20002,37.059719,-119.257549,1133,-1.201,2021-01-11
NEON.D17.SJER.DP1.00033,37.10878,-119.73228,398,-1.146,2021-01-11
NEON.D17.SOAP.DP1.00033,37.03337,-119.26219,1210,-1.269,2021-01-11
NEON.D17.TEAK.DP1.00033,37.00583,-119.00602,2149,-1.257,2021-01-11
NEON.D17.TECR.DP1.20002,36.955931,-119.027363,2053,-1.281,2021-01-11
NEON.D18.BARR.DP1.00033,71.28241,-156.61936,7,-9999.0,2021-01-11
NEON.D18.OKSR.DP1.20002,68.669753,-149.143018,773,-9999.0,2021-01-11
NEON.D18.TOOK.DP1.20002,68.629562,-149.610509,715,-9999.0,2021-01-11
NEON.D18.TOOL.DP1.00033,68.66109,-149.37047,827,-9999.0,2021-01-11
NEON.D19.BONA.DP1.00033,65.15401,-147.50258,233,-9999.0,2021-01-11
NEON.D19.CARI.DP1.20002,65.15306,-147.50246,229,-9999.0,2021-01-11
NEON.D19.DEJU.DP1.00033,63.88112,-145.75136,504,-9999.0,2021-01-11
NEON.D19.HEAL.DP1.00033,63.87569,-149.21334,409,-9999.0,2021-01-11
NEON.D20.PUUM.DP1.00033,19.55309,-155.31731,1683,-9999.0,2021-01-11
nevcansnk3a,39.0099,-114.3095,3063,-2.823,2021-01-11
nevcanspg1a,38.9253,-114.4082,1792,-3.0,2021-01-11
nevcanspg2a,38.8921,-114.3521,2203,-2.907,2021-01-11
nevcanspg3a,38.8898,-114.3314,2820,-2.505,2021-01-11
nevcanspg4a,38.9061,-114.3089,3360,-2.505,2021-01-11
ninemileprairie,40.86801886,-96.82208066,381,-1.061,2021-01-11
nist,39.139,-77.2125,100,0.896,2021-01-11
niwot3,40.03286358,-105.5469702,3050,-1.603,2021-01-11
niwot5,40.03286358,-105.5469702,2993,-1.603,2021-01-11
northattleboroma,41.98369,-71.31056,60,-0.395,2021-01-11
northinletsaltmarsh,33.3455,-79.1957,1,0.641,2021-01-11
oakville,47.899334,-97.316139,268,-0.604,2021-01-11
oregonMP,44.4523,-121.5574,1253,-1.309,2021-01-11
oregonYP,44.32384,-121.605993,977,-1.036,2021-01-11
oregonYPbud,44.3238,-121.606,977,-1.036,2021-01-11
othshardwood,44.934805,-68.6655,41,-0.233,2021-01-11
othssoftwood,44.934527,-68.664888,41,-0.233,2021-01-11
pace,37.9229,-78.2739,100,1.727,2021-01-11
parkschoolbuffalo,42.9637,-78.7834,205,-0.418,2021-01-11
piedmontalpasture2,33.8875,-85.6935,238,0.837,2021-01-11
portal,31.9385,-109.0823,1330,-1.595,2021-01-11
proctor,44.525,-72.866,403,-1.648,2021-01-11
readingma,42.5304,-71.1272,100,-0.669,2021-01-11
robinson,37.4671,-83.1576,483,0.926,2021-01-11
robinson2,37.4671,-83.1576,483,0.926,2021-01-11
rosemountcons,44.6946,-93.0578,283,-0.315,2021-01-11
rosemountconv,44.691,-93.0576,283,-0.315,2021-01-11
rosemountnprs,44.6781,-93.0723,274,-0.213,2021-01-11
russellsage,32.456961,-91.974322,20,1.336,2021-01-11
sagehen,39.4315,-120.2398,1934,-1.172,2021-01-11
sagehen2,39.4307,-120.2407,1937,-1.172,2021-01-11
sagehen3,39.4311,-120.2405,1935,-1.172,2021-01-11
sanford,42.726777,-84.464482,268,0.353,2021-01-11
santacruz1,36.9741,-122.0308,11,-1.497,2021-01-11
santacruz2,36.9741,-122.0308,11,-1.497,2021-01-11
santaluciapreserve1,36.5265,-121.8682,500,-1.402,2021-01-11
santaluciapreserve2,36.5265,-121.8682,500,-1.402,2021-01-11
segaarboretum10,35.16209,-111.73151,2170,-2.444,2021-01-11
segaarboretum2,35.16209,-111.73151,2170,-2.444,2021-01-11
segaarboretum3,35.16209,-111.73151,2170,-2.444,2021-01-11
segaarboretum4,35.16214,-111.73153,2170,-2.444,2021-01-11
segaarboretum6,35.16209,-111.73151,2170,-2.444,2021-01-11
segaarboretum9,35.16222,-111.73158,2170,-2.444,2021-01-11
segaarboretumforest,35.1613,-111.7359,2173,-2.444,2021-01-11
segaarboretummeadow,35.1621,-111.7316,2157,-2.444,2021-01-11
segablackpoint,35.6814,-111.4754,1566,-1.431,2021-01-11
segabluechute,35.5876,-111.9716,1930,-2.607,2021-01-11
segabluechute1,35.58759,-111.97115,1931,-2.607,2021-01-11
segabluechute2,35.58759,-111.97115,1931,-2.607,2021-01-11
segabluechute4,35.58759,-111.9716,1931,-2.607,2021-01-11
segabluechute6,35.58759,-111.97115,1931,-2.607,2021-01-11
segabluechute7,35.58759,-111.97115,1931,-2.607,2021-01-11
segabluechute8,35.58759,-111.97115,1931,-2.607,2021-01-11
segabradshaw,34.9109,-111.9285,1402,-1.955,2021-01-11
segahartprairie,35.3536,-111.7324,2585,-2.44,2021-01-11
segalcr,35.7231,-111.321,1275,-2.336,2021-01-11
segalcr2,35.7069,-111.36,1495,-1.566,2021-01-11
segalittlemountain,36.5865,-112.3634,2276,-2.307,2021-01-11
segasoapcreek,36.751,-111.716,1233,-2.582,2021-01-11
segawhitepockets,36.6081,-112.4082,2057,-2.433,2021-01-11
sevilletagrass,34.360444,-106.700186,1600,-0.845,2021-01-11
sevilletanewgrass,34.358,-106.6799,1603,-1.006,2021-01-11
sevilletashrub,34.334956,-106.744469,1603,-0.771,2021-01-11
sevMRME10L,34.3438,-106.7269,1604,-0.996,2021-01-11
sevMRME11C,34.3438,-106.7268,1604,-0.996,2021-01-11
sevMRME1S,34.3442,-106.7272,1604,-0.996,2021-01-11
sevpjrm12,34.38615,-106.52621,1905,-1.264,2021-01-11
sevpjrm13,34.38631,-106.52791,1914,-1.264,2021-01-11
shalehillsczo,40.6658,-77.9041,310,-0.11,2021-01-11
shenandoah,38.6167,-78.35,1037,0.105,2021-01-11
silverton,44.9986,-122.6948,347,-0.823,2021-01-11
siwetland,38.0369,-121.7546,-5,-2.223,2021-01-11
slatefloodplain,38.9094,-107.0282,2725,-1.718,2021-01-11
snodgrass1,38.92619636,-106.9714376,3023,-1.797,2021-01-11
snodgrass2,38.92619636,-106.9714376,3023,-1.797,2021-01-11
snodgrass3,38.92839978,-106.9781196,3141,-1.797,2021-01-11
snodgrass4,38.92839978,-106.9781196,3141,-1.797,2021-01-11
snodgrass5,38.92744789,-106.9785209,3152,-1.797,2021-01-11
snodgrass6,38.92744789,-106.9785209,3152,-1.797,2021-01-11
snodgrass7,38.93142134,-106.9852388,3363,-1.768,2021-01-11
snodgrass8,38.93142134,-106.9852388,3363,-1.768,2021-01-11
southerngreatplains,36.6058,-97.4888,314,0.003,2021-01-11
springfieldma,42.135162,-72.585972,56,-0.431,2021-01-11
spruceA0EMI,47.5049,-93.4541,413,-0.6,2021-01-11
spruceA0EMT,47.5049,-93.4541,418,-0.6,2021-01-11
spruceA0P07,47.50493,-93.45314,413,-0.6,2021-01-11
spruceA0P07SH,47.50493,-93.45314,413,-0.6,2021-01-11
spruceA0P21,47.50625,-93.45275,413,-0.6,2021-01-11
spruceA0P21SH,47.50625,-93.45275,413,-0.6,2021-01-11
srg,31.7894,-110.8276,1281,-2.381,2021-01-11
srm,31.8214,-110.8661,1116,-2.593,2021-01-11
statenrice1,38.1235,-121.549,-5,-1.928,2021-01-11
stjones,39.088222,-75.43725,2,1.73,2021-01-11
sweetbriar,37.57341,-79.08482,242,2.066,2021-01-11
sweetbriarclearcut,37.5753,-79.0872,242,2.066,2021-01-11
sweetbriargrass,37.5605,-79.0884,240,2.066,2021-01-11
sylvania,46.242,-89.348,540,0.872,2021-01-11
templefieldstation1,40.1667,-75.1894,105,0.427,2021-01-11
tfforest,43.1086,-70.9505,23,-0.815,2021-01-11
tidmarshplymouth,41.9157,-70.5754,9,-0.935,2021-01-11
tonzi,38.43091667,-120.9658861,177,-1.233,2021-01-11
townsenddemeadow,39.3917,-75.6281,11,1.668,2021-01-11
tsubiology,36.1671,-86.8295,164,0.782,2021-01-11
tsubiology2,36.1171,-86.8295,100,0.036,2021-01-11
tuckerprairie,38.9491,-91.9952,274,-0.063,2021-01-11
twodafo,29.1658,-95.829,16,0.508,2021-01-11
tworfaa,31.4777,-96.8882,167,1.444,2021-01-11
tworfpr,31.4802,-96.8826,162,1.483,2021-01-11
tworfta,31.4693,-96.8864,173,1.444,2021-01-11
twosfpr,30.6176,-97.2938,157,-0.53,2021-01-11
ucnrsanzaborrego,33.2401,-116.3886,214,0.631,2021-01-11
ufona,27.3836,-81.950856,25,-0.301,2021-01-11
uiefmaize2,40.0628,-88.1961,224,0.038,2021-01-11
uiefmiscanthus2,40.0628,-88.1984,221,0.038,2021-01-11
uiefprairie2,40.0637,-88.1973,224,0.038,2021-01-11
uiefsorghum,40.0065,-88.2032,224,-0.291,2021-01-11
uiefswitchgrass2,40.0637,-88.1973,224,0.038,2021-01-11
umichbiological,45.55984,-84.71382,230,1.445,2021-01-11
umichbiological2,45.5625,-84.6976,240,1.346,2021-01-11
unca,35.5951,-82.5515,650,1.338,2021-01-11
usgseros,43.7343,-96.6234,448,-1.917,2021-01-11
usmpj,34.43845,-106.2543606,2126,-0.948,2021-01-11
usof5,35.7297,-90.0406,70,0.131,2021-01-11
usof6,35.7333,-90.0403,70,0.131,2021-01-11
uwmfieldsta,43.38709,-88.0229,265,1.07,2021-01-11
vaira,38.41328056,-120.9506361,129,-1.233,2021-01-11
vallesburnedconifer,35.8884,-106.5321,3043,-2.264,2021-01-11
vallesmixedconifer,35.9192,-106.6142,2752,-2.244,2021-01-11
vallesponderosapine,35.864,-106.5964,2501,-2.226,2021-01-11
waahila,21.3017,-157.8152,55,-9999.0,2021-01-11
warrenwilson,35.6069,-82.4421,2198,1.418,2021-01-11
willamettepoplar,44.1368,-123.1823,112,-1.026,2021-01-11
willowcreek,45.805986,-90.07912,521,0.546,2021-01-11
windriver,45.8212833,-121.9520833,371,-0.717,2021-01-11
windriverunderstory,45.8212833,-121.9520833,371,-0.717,2021-01-11
wolfesneckfarm,43.8305,-70.0715,16,-0.594,2021-01-11
worcester,42.2697,-71.8428,185,-0.114,2021-01-11
alligatorriver,35.7879,-75.9038,1,1.252,2021-01-18
arbutuslake,43.98207,-74.23322,535,-2.084,2021-01-18
arbutuslakeinlet,43.99336,-74.24527,527,-2.084,2021-01-18
archboldavir,27.176064,-81.21958,8,1.909,2021-01-18
archboldavirx,27.166627,-81.219828,8,1.909,2021-01-18
archboldbahia,27.1656,-81.216112,8,1.909,2021-01-18
archboldpnot,27.187948,-81.200345,9,1.909,2021-01-18
archboldpnotx,27.180677,-81.20068,9,1.909,2021-01-18
arkansascornsoy,34.416,-91.6723,61,1.121,2021-01-18
arsbrooks10,41.9749,-93.6905,312,-1.284,2021-01-18
arsbrooks11,41.9744,-93.6937,313,-1.284,2021-01-18
arscolesnorth,42.4884,-93.5225,356,-1.093,2021-01-18
arscolessouth,42.4816,-93.5235,352,-1.093,2021-01-18
arsgacp1,31.5109,-83.6179,96,0.622,2021-01-18
arsgacp3,31.7563,-83.7516,139,0.546,2021-01-18
arsgacp4,31.7093,-83.7287,127,0.388,2021-01-18
arsgreatbasinltar098,43.1675,-116.7132,1426,0.187,2021-01-18
arsgreatbasinltar117,43.1432,-116.7357,1625,-0.602,2021-01-18
arsgreatbasinltar177,43.0645,-116.7484,2114,-1.037,2021-01-18
arsltarmdcr,39.0587,-75.8513,17,2.161,2021-01-18
arsltarmdcrnatw,39.0575,-75.7531,16,1.93,2021-01-18
arsltarmdcrprcw,39.0667,-75.7609,17,1.93,2021-01-18
arsltarmdcrresw,39.0549,-75.7532,16,1.93,2021-01-18
arsltarucbec1,40.7537,-78.0057,400,-0.37,2021-01-18
arsltarucbec2,40.7558,-77.9999,396,-0.37,2021-01-18
arsmnswanlake1,45.684508,-95.799703,370,-1.909,2021-01-18
arsmorris1,45.6167,-96.1269,341,-2.552,2021-01-18
arsmorris2,45.627,-96.127,338,-2.552,2021-01-18
arsmorris3,45.6091,-96.1265,342,-2.552,2021-01-18
arsope3ltar,39.0309,-76.8442,41,1.756,2021-01-18
ashburnham,42.6029,-71.926,292,-0.442,2021-01-18
asuhighlands,36.2076,-81.7032,1016,1.471,2021-01-18
austincary,29.738,-82.2188,44,-0.046,2021-01-18
barrow,71.28007453,-156.6091492,5,-9999.0,2021-01-18
bartlettir,44.0646,-71.2881,268,-0.441,2021-01-18
bigtraillake,64.9194,-147.822,190,-9999.0,2021-01-18
bitterbrush001,48.154,-119.9456,667,-0.629,2021-01-18
blackrockforest,41.3974,-74.0239,427,-1.091,2021-01-18
bnzblackspruce,64.6963,-148.3235,102,-9999.0,2021-01-18
bnzrichfen,64.70134,-148.31195,97,-9999.0,2021-01-18
bnzthermokarstbog,64.6955,-148.3208,104,-9999.0,2021-01-18
boglakepeatland,47.5051,-93.4893,416,-0.56,2021-01-18
bostoncommon,42.355912,-71.064145,10,-0.838,2021-01-18
bostonu,42.35041,-71.10438,10,-0.839,2021-01-18
bouldinalfalfa,38.0985,-121.4993,-5,-1.787,2021-01-18
bouldincorn,38.109,-121.535,-5,-1.809,2021-01-18
bozeman,45.783056,-110.777778,2332,-1.678,2021-01-18
brackishimpoundment,33.2015,-79.2973,1,0.833,2021-01-18
bullshoals,36.562833,-93.06663,260,1.338,2021-01-18
burnssagebrush,43.4712,-119.6909,1398,-0.56,2021-01-18
butte,45.95304,-112.47964,1682,-0.384,2021-01-18
butterice,39.5793,-121.858,33,-2.148,2021-01-18
cafboydnorthltar01,46.755104,-117.126052,795,-0.485,2021-01-18
cafboydsouthltar01,46.751809,-117.128502,795,-0.485,2021-01-18
cafcookeastltar01,46.78152,-117.0821,794,-0.379,2021-01-18
cafcookwestltar01,46.784037,-117.09083,807,-0.379,2021-01-18
caryinstitute,41.7839,-73.7341,127,-0.753,2021-01-18
centralredwoods1,38.632272,-123.301511,200,-2.17,2021-01-18
centralredwoods2,38.632272,-123.301511,200,-2.17,2021-01-18
cperagm,40.8402,-104.7672,1644,-1.132,2021-01-18
cperheavy,40.8153,-104.7386,1652,-1.129,2021-01-18
cpertgm,40.833,-104.76,1644,-1.107,2021-01-18
cperuvb,40.8055764,-104.7558542,1641,-1.107,2021-01-18
cuny,40.8162,-73.9507,42,-0.079,2021-01-18
doverdesaltmarsh,39.0888,-75.4368,0,1.599,2021-01-18
downerwoods,43.07938,-87.88076,213,1.15,2021-01-18
dukehw,35.973583,-79.100371,400,1.544,2021-01-18
ecb1,41.5348,-84.8068,275,-1.478,2021-01-18
ecb2,41.5321,-84.808,275,-1.478,2021-01-18
ecb4,41.1796,-83.0604,240,-0.192,2021-01-18
elverde,18.320654,-65.8199,312,-9999.0,2021-01-18
flagstaff,35.17961521,-111.6049032,6983,-2.473,2021-01-18
flagstaff2,35.179225,-111.604506,6983,-2.473,2021-01-18
flagstaffchimneysprings,35.257296,-111.678542,2250,-2.501,2021-01-18
forbes,39.232,-121.2972,360,-1.644,2021-01-18
fortpaynealpasture1,34.3824,-85.6428,405,1.232,2021-01-18
fortpaynealpasture2,34.3824,-85.6447,403,1.232,2021-01-18
gcesapelo,31.4440444,-81.283528,0,0.215,2021-01-18
gilberttract,38.0015,-121.6691,6,-2.077,2021-01-18
glees,41.3644,-106.2394,3150,-1.333,2021-01-18
glennorganicrice,39.6805,-122.0026,2,-2.117,2021-01-18
glennrice,39.5944,-122.0253,36,-2.199,2021-01-18
goodnow,43.96018,-74.20994,820,-2.063,2021-01-18
goodwater,39.22848,-92.11936,264,0.078,2021-01-18
goodwaterbau,39.23115,-92.15216,274,0.009,2021-01-18
grandteton,43.915017,-110.578036,2054,-0.367,2021-01-18
grca1pj,36.0241,-112.2211,1978,-2.389,2021-01-18
greenridge1,39.6905,-78.4067,285,-0.25,2021-01-18
harvard,42.5378,-72.1715,340,-0.799,2021-01-18
harvardbarn,42.53532,-72.1899,350,-0.805,2021-01-18
harvardbarn2,42.53532,-72.1899,350,-0.805,2021-01-18
harvardems2,42.5378,-72.1715,340,-0.799,2021-01-18
harvardfarmnorth,42.520465,-72.182242,355,-0.805,2021-01-18
harvardfarmsouth,42.522466,-72.182339,355,-0.805,2021-01-18
harvardgarden,42.5291,-72.1863,335,-0.805,2021-01-18
harvardhemlock,42.539,-72.18,355,-0.805,2021-01-18
harvardhemlock2,42.539407,-72.177976,355,-0.799,2021-01-18
harvardlph,42.542,-72.185,380,-0.805,2021-01-18
hawbeckereddy,40.6608,-77.848849,310,-0.144,2021-01-18
hobcawclearcutlongleaf,33.3486,-79.232,4,0.9,2021-01-18
hobcawmaturelongleaf,33.3242,-79.2439,8,0.9,2021-01-18
homesteadsprings,37.2009,-92.9937,452,0.883,2021-01-18
howland1,45.2041,-68.7403,80,-0.118,2021-01-18
howland2,45.2128,-68.7418,79,-0.118,2021-01-18
hubbardbrook,43.9438,-71.701,253,-0.465,2021-01-18
humnokericea,34.585192,-91.751684,61,0.984,2021-01-18
humnokericec,34.588853,-91.7516729,70,0.984,2021-01-18
huyckpreserveny,42.5266,-74.1587,478,-0.17,2021-01-18
hwmo1,20.0212,-155.7331,585,-9999.0,2021-01-18
hwmo2,19.9766,-155.8298,12,-9999.0,2021-01-18
hwmo5,20.1117,-155.8151,635,-9999.0,2021-01-18
ibp,32.589,-106.847,1325,-0.947,2021-01-18
imcrkfen,68.60583,-149.31101,900,-9999.0,2021-01-18
imcrkridge0,68.60681,-149.2958,951,-9999.0,2021-01-18
imcrkridge1,68.60681,-149.2958,951,-9999.0,2021-01-18
imcrktussock,68.60633,-149.30408,918,-9999.0,2021-01-18
jasperridge,37.402028,-122.22104,197,-1.826,2021-01-18
jerbajada,32.57992,-106.633793,1402,-1.177,2021-01-18
jergrassland,32.5833,-106.8333,1331,-0.947,2021-01-18
jernort,32.619,-106.788,1328,-0.715,2021-01-18
jernovel,32.6335,-106.8334,1324,-0.683,2021-01-18
jernwern,32.6271,-106.7387,1325,-0.963,2021-01-18
jersand,32.515,-106.798,1363,-1.136,2021-01-18
jershrubland,32.6502,-106.8334,1328,-0.595,2021-01-18
junipersavannah,34.4254,-105.8615,1931,-1.077,2021-01-18
kamuela,20.015008,-155.661326,850,-9999.0,2021-01-18
kamuela2,20.014959,-155.661139,830,-9999.0,2021-01-18
kansas,39.0561,-95.1907,333,-0.32,2021-01-18
kelloggcorn,42.437536,-85.3225472,288,0.12,2021-01-18
kempnrs,45.83992,-89.67755,539,0.369,2021-01-18
kendall,31.73652,-109.94185,1529,-1.992,2021-01-18
konza,39.0824,-96.5603,443,-0.322,2021-01-18
laupahoehoe,19.9322,-155.2912,1145,-9999.0,2021-01-18
ldeocam,41.0039,-73.9053,121,-0.581,2021-01-18
lostcreek,46.0827,-89.9792,480,0.528,2021-01-18
luckyhills,31.743896,-110.052023,1366,-1.94,2021-01-18
macleish,42.4484,-72.6804,251,-0.566,2021-01-18
macordway,44.8106,-93.0272,264,-0.061,2021-01-18
mandanh5,46.775423,-100.95109,593,-2.417,2021-01-18
mandani2,46.7614,-100.9257,590,-2.467,2021-01-18
manilacotton,35.8872,-90.1371,73,-0.169,2021-01-18
marena,36.06434,-97.21271,327,-0.328,2021-01-18
mead1,41.1651,-96.4766,361,-2.393,2021-01-18
mead2,41.1649,-96.4701,362,-2.393,2021-01-18
mead3,41.1797,-96.4397,363,-2.359,2021-01-18
meadpasture,41.1447,-96.4616,356,-2.411,2021-01-18
meadpasturese,41.1447,-96.4616,356,-2.411,2021-01-18
meadpasturesw,41.1447,-96.4616,356,-2.411,2021-01-18
missouriozarks,38.7441,-92.2,219,0.1,2021-01-18
morganmonroe,39.3231,-86.4131,275,-0.656,2021-01-18
morganmonroe2,39.3231,-86.4131,275,-0.656,2021-01-18
nahuku,19.415187,-155.238383,1202,-9999.0,2021-01-18
nationalelkrefuge,43.488931,-110.737824,1899,-0.384,2021-01-18
ncssm,36.018446,-78.92075,175,1.605,2021-01-18
NEON.D01.BART.DP1.00033,44.063869,-71.287375,285,-0.441,2021-01-18
NEON.D01.HARV.DP1.00033,42.536911,-72.17265,359,-0.799,2021-01-18
NEON.D01.HOPB.DP1.20002,42.471786,-72.329627,203,-1.276,2021-01-18
NEON.D02.BLAN.DP1.00033,39.033698,-78.041788,162,0.205,2021-01-18
NEON.D02.LEWI.DP1.20002,39.09564,-77.98322,152,0.246,2021-01-18
NEON.D02.POSE.DP1.20002,38.89332,-78.14678,293,0.458,2021-01-18
NEON.D02.SCBI.DP1.00033,38.892925,-78.139494,364,0.158,2021-01-18
NEON.D02.SERC.DP1.00033,38.89008,-76.56001,30,2.128,2021-01-18
NEON.D03.BARC.DP1.20002,29.676473,-82.009089,35,0.166,2021-01-18
NEON.D03.DSNY.DP1.00033,28.12505,-81.43619,22,0.469,2021-01-18
NEON.D03.FLNT.DP1.20002,31.185424,-84.437403,27,0.691,2021-01-18
NEON.D03.JERC.DP1.00033,31.194839,-84.468623,58,0.715,2021-01-18
NEON.D03.OSBS.DP1.00033,29.689282,-81.993431,56,-0.043,2021-01-18
NEON.D03.SUGG.DP1.20002,29.687054,-82.016171,28,-0.043,2021-01-18
NEON.D04.CUPE.DP1.20002,18.11352,-66.98676,164,-9999.0,2021-01-18
NEON.D04.GUAN.DP1.00033,17.96955,-66.8687,136,-9999.0,2021-01-18
NEON.D04.GUIL.DP1.20002,18.1741,-66.79851,564,-9999.0,2021-01-18
NEON.D04.LAJA.DP1.00033,18.021261,-67.076889,22,-9999.0,2021-01-18
NEON.D05.CRAM.DP1.20002,46.21111,-89.47825,518,0.663,2021-01-18
NEON.D05.LIRO.DP1.20002,45.998269,-89.704767,495,0.498,2021-01-18
NEON.D05.STEI.DP1.00033,45.50894,-89.58637,476,0.429,2021-01-18
NEON.D05.TREE.DP1.00033,45.49373,-89.58572,474,0.429,2021-01-18
NEON.D05.UNDE.DP1.00033,46.23391,-89.537254,529,0.722,2021-01-18
NEON.D06.KING.DP1.20002,39.10506,-96.60336,339,-0.11,2021-01-18
NEON.D06.KONA.DP1.00033,39.110446,-96.612935,443,-0.11,2021-01-18
NEON.D06.KONZ.DP1.00033,39.10077,-96.56309,415,-0.322,2021-01-18
NEON.D06.MCDI.DP1.20002,38.94428,-96.44197,376,-0.4,2021-01-18
NEON.D06.UKFS.DP1.00033,39.040431,-95.19215,330,-0.32,2021-01-18
NEON.D07.GRSM.DP1.00033,35.68896,-83.50195,589,0.667,2021-01-18
NEON.D07.LECO.DP1.20002,35.69043,-83.50379,578,0.667,2021-01-18
NEON.D07.MLBS.DP1.00033,37.378314,-80.524847,1177,1.784,2021-01-18
NEON.D07.ORNL.DP1.00033,35.964128,-84.282588,351,0.248,2021-01-18
NEON.D07.WALK.DP1.20002,35.95947,-84.28041,274,0.148,2021-01-18
NEON.D08.BLWA.DP1.20002,32.541529,-87.798151,23,0.629,2021-01-18
NEON.D08.DELA.DP1.00033,32.541727,-87.803877,36,0.629,2021-01-18
NEON.D08.LENO.DP1.00033,31.85388,-88.16122,10,1.036,2021-01-18
NEON.D08.MAYF.DP1.20002,32.959657,-87.408128,93,1.184,2021-01-18
NEON.D08.TALL.DP1.00033,32.95047,-87.393259,167,1.184,2021-01-18
NEON.D08.TOMB.DP1.20002,31.853431,-88.158872,10,1.036,2021-01-18
NEON.D09.DCFS.DP1.00033,47.161647,-99.106556,574,-2.282,2021-01-18
NEON.D09.NOGP.DP1.00033,46.76972,-100.91535,589,-2.467,2021-01-18
NEON.D09.PRLA.DP1.20002,47.15909,-99.11388,563,-2.282,2021-01-18
NEON.D09.PRPO.DP1.20002,47.12999,-99.250551,587,-2.297,2021-01-18
NEON.D09.WOOD.DP1.00033,47.1282,-99.241334,585,-2.297,2021-01-18
NEON.D10.ARIK.DP1.20002,39.758246,-102.447103,1188,-2.013,2021-01-18
NEON.D10.CPER.DP1.00033,40.81553,-104.7456,1600,-1.107,2021-01-18
NEON.D10.HQTW.DP1.00033,40.016704,-105.245612,1601,-1.008,2021-01-18
NEON.D10.RMNP.DP1.00033,40.275903,-105.545955,2751,-1.823,2021-01-18
NEON.D10.STER.DP1.00033,40.461894,-103.02929,1366,-1.49,2021-01-18
NEON.D11.BLUE.DP1.20002,34.444218,-96.624201,288,0.181,2021-01-18
NEON.D11.CLBJ.DP1.00033,33.40123,-97.57,279,0.438,2021-01-18
NEON.D11.OAES.DP1.00033,35.41059,-99.05879,520,-0.355,2021-01-18
NEON.D11.PRIN.DP1.20002,33.37859,-97.78226,255,0.59,2021-01-18
NEON.D12.BLDE.DP1.20002,44.95011,-110.58715,2035,-0.315,2021-01-18
NEON.D12.YELL.DP1.00033,44.95348,-110.53914,2130,-0.442,2021-01-18
NEON.D13.COMO.DP1.20002,40.03496,-105.54487,3036,-1.841,2021-01-18
NEON.D13.MOAB.DP1.00033,38.24833,-109.38827,1803,-2.604,2021-01-18
NEON.D13.NIWO.DP1.00033,40.05425,-105.58237,3493,-1.726,2021-01-18
NEON.D13.WLOU.DP1.20002,39.891366,-105.915395,2920,-1.634,2021-01-18
NEON.D14.JORN.DP1.00033,32.59068,-106.84254,1321,-0.947,2021-01-18
NEON.D14.SRER.DP1.00033,31.91068,-110.83549,999,-3.0,2021-01-18
NEON.D14.SYCA.DP1.20002,33.749057,-111.506903,644,-1.805,2021-01-18
NEON.D15.ONAQ.DP1.00033,40.177599,-112.452452,1655,-3.0,2021-01-18
NEON.D15.REDB.DP1.20002,40.783934,-111.797887,1696,-3.0,2021-01-18
NEON.D16.ABBY.DP1.00033,45.76243,-122.33033,390,-0.186,2021-01-18
NEON.D16.MART.DP1.20002,45.791248,-121.931959,354,-0.351,2021-01-18
NEON.D16.MCRA.DP1.20002,44.259598,-122.165554,880,-0.681,2021-01-18
NEON.D16.WREF.DP1.00033,45.82049,-121.95191,368,-0.464,2021-01-18
NEON.D17.BIGC.DP1.20002,37.059719,-119.257549,1133,-1.171,2021-01-18
NEON.D17.SJER.DP1.00033,37.10878,-119.73228,398,-1.078,2021-01-18
NEON.D17.SOAP.DP1.00033,37.03337,-119.26219,1210,-1.229,2021-01-18
NEON.D17.TEAK.DP1.00033,37.00583,-119.00602,2149,-1.243,2021-01-18
NEON.D17.TECR.DP1.20002,36.955931,-119.027363,2053,-1.264,2021-01-18
NEON.D18.BARR.DP1.00033,71.28241,-156.61936,7,-9999.0,2021-01-18
NEON.D18.OKSR.DP1.20002,68.669753,-149.143018,773,-9999.0,2021-01-18
NEON.D18.TOOK.DP1.20002,68.629562,-149.610509,715,-9999.0,2021-01-18
NEON.D18.TOOL.DP1.00033,68.66109,-149.37047,827,-9999.0,2021-01-18
NEON.D19.BONA.DP1.00033,65.15401,-147.50258,233,-9999.0,2021-01-18
NEON.D19.CARI.DP1.20002,65.15306,-147.50246,229,-9999.0,2021-01-18
NEON.D19.DEJU.DP1.00033,63.88112,-145.75136,504,-9999.0,2021-01-18
NEON.D19.HEAL.DP1.00033,63.87569,-149.21334,409,-9999.0,2021-01-18
NEON.D20.PUUM.DP1.00033,19.55309,-155.31731,1683,-9999.0,2021-01-18
nevcansnk3a,39.0099,-114.3095,3063,-2.805,2021-01-18
nevcanspg1a,38.9253,-114.4082,1792,-3.0,2021-01-18
nevcanspg2a,38.8921,-114.3521,2203,-2.913,2021-01-18
nevcanspg3a,38.8898,-114.3314,2820,-2.516,2021-01-18
nevcanspg4a,38.9061,-114.3089,3360,-2.516,2021-01-18
ninemileprairie,40.86801886,-96.82208066,381,-1.0,2021-01-18
nist,39.139,-77.2125,100,0.767,2021-01-18
niwot3,40.03286358,-105.5469702,3050,-1.841,2021-01-18
niwot5,40.03286358,-105.5469702,2993,-1.841,2021-01-18
northattleboroma,41.98369,-71.31056,60,-0.54,2021-01-18
northinletsaltmarsh,33.3455,-79.1957,1,0.64,2021-01-18
oakville,47.899334,-97.316139,268,-0.615,2021-01-18
oregonMP,44.4523,-121.5574,1253,-1.105,2021-01-18
oregonYP,44.32384,-121.605993,977,-0.819,2021-01-18
oregonYPbud,44.3238,-121.606,977,-0.819,2021-01-18
othshardwood,44.934805,-68.6655,41,-0.37,2021-01-18
othssoftwood,44.934527,-68.664888,41,-0.37,2021-01-18
pace,37.9229,-78.2739,100,1.632,2021-01-18
parkschoolbuffalo,42.9637,-78.7834,205,-0.563,2021-01-18
piedmontalpasture2,33.8875,-85.6935,238,0.515,2021-01-18
portal,31.9385,-109.0823,1330,-1.776,2021-01-18
proctor,44.525,-72.866,403,-1.848,2021-01-18
readingma,42.5304,-71.1272,100,-0.803,2021-01-18
robinson,37.4671,-83.1576,483,0.576,2021-01-18
robinson2,37.4671,-83.1576,483,0.576,2021-01-18
rosemountcons,44.6946,-93.0578,283,-0.274,2021-01-18
rosemountconv,44.691,-93.0576,283,-0.274,2021-01-18
rosemountnprs,44.6781,-93.0723,274,-0.173,2021-01-18
russellsage,32.456961,-91.974322,20,0.974,2021-01-18
sagehen,39.4315,-120.2398,1934,-1.179,2021-01-18
sagehen2,39.4307,-120.2407,1937,-1.179,2021-01-18
sagehen3,39.4311,-120.2405,1935,-1.179,2021-01-18
sanford,42.726777,-84.464482,268,0.239,2021-01-18
santacruz1,36.9741,-122.0308,11,-1.45,2021-01-18
santacruz2,36.9741,-122.0308,11,-1.45,2021-01-18
santaluciapreserve1,36.5265,-121.8682,500,-1.398,2021-01-18
santaluciapreserve2,36.5265,-121.8682,500,-1.398,2021-01-18
segaarboretum10,35.16209,-111.73151,2170,-2.398,2021-01-18
segaarboretum2,35.16209,-111.73151,2170,-2.398,2021-01-18
segaarboretum3,35.16209,-111.73151,2170,-2.398,2021-01-18
segaarboretum4,35.16214,-111.73153,2170,-2.398,2021-01-18
segaarboretum6,35.16209,-111.73151,2170,-2.398,2021-01-18
segaarboretum9,35.16222,-111.73158,2170,-2.398,2021-01-18
segaarboretumforest,35.1613,-111.7359,2173,-2.398,2021-01-18
segaarboretummeadow,35.1621,-111.7316,2157,-2.398,2021-01-18
segablackpoint,35.6814,-111.4754,1566,-1.42,2021-01-18
segabluechute,35.5876,-111.9716,1930,-2.583,2021-01-18
segabluechute1,35.58759,-111.97115,1931,-2.583,2021-01-18
segabluechute2,35.58759,-111.97115,1931,-2.583,2021-01-18
segabluechute4,35.58759,-111.9716,1931,-2.583,2021-01-18
segabluechute6,35.58759,-111.97115,1931,-2.583,2021-01-18
segabluechute7,35.58759,-111.97115,1931,-2.583,2021-01-18
segabluechute8,35.58759,-111.97115,1931,-2.583,2021-01-18
segabradshaw,34.9109,-111.9285,1402,-1.925,2021-01-18
segahartprairie,35.3536,-111.7324,2585,-2.473,2021-01-18
segalcr,35.7231,-111.321,1275,-2.32,2021-01-18
segalcr2,35.7069,-111.36,1495,-1.561,2021-01-18
segalittlemountain,36.5865,-112.3634,2276,-2.29,2021-01-18
segasoapcreek,36.751,-111.716,1233,-2.559,2021-01-18
segawhitepockets,36.6081,-112.4082,2057,-2.401,2021-01-18
sevilletagrass,34.360444,-106.700186,1600,-1.086,2021-01-18
sevilletanewgrass,34.358,-106.6799,1603,-1.347,2021-01-18
sevilletashrub,34.334956,-106.744469,1603,-0.987,2021-01-18
sevMRME10L,34.3438,-106.7269,1604,-1.283,2021-01-18
sevMRME11C,34.3438,-106.7268,1604,-1.283,2021-01-18
sevMRME1S,34.3442,-106.7272,1604,-1.283,2021-01-18
sevpjrm12,34.38615,-106.52621,1905,-1.869,2021-01-18
sevpjrm13,34.38631,-106.52791,1914,-1.869,2021-01-18
shalehillsczo,40.6658,-77.9041,310,-0.249,2021-01-18
shenandoah,38.6167,-78.35,1037,-0.037,2021-01-18
silverton,44.9986,-122.6948,347,-0.57,2021-01-18
siwetland,38.0369,-121.7546,-5,-2.175,2021-01-18
slatefloodplain,38.9094,-107.0282,2725,-1.874,2021-01-18
snodgrass1,38.92619636,-106.9714376,3023,-1.982,2021-01-18
snodgrass2,38.92619636,-106.9714376,3023,-1.982,2021-01-18
snodgrass3,38.92839978,-106.9781196,3141,-1.982,2021-01-18
snodgrass4,38.92839978,-106.9781196,3141,-1.982,2021-01-18
snodgrass5,38.92744789,-106.9785209,3152,-1.982,2021-01-18
snodgrass6,38.92744789,-106.9785209,3152,-1.982,2021-01-18
snodgrass7,38.93142134,-106.9852388,3363,-1.951,2021-01-18
snodgrass8,38.93142134,-106.9852388,3363,-1.951,2021-01-18
southerngreatplains,36.6058,-97.4888,314,-0.023,2021-01-18
springfieldma,42.135162,-72.585972,56,-0.553,2021-01-18
spruceA0EMI,47.5049,-93.4541,413,-0.565,2021-01-18
spruceA0EMT,47.5049,-93.4541,418,-0.565,2021-01-18
spruceA0P07,47.50493,-93.45314,413,-0.565,2021-01-18
spruceA0P07SH,47.50493,-93.45314,413,-0.565,2021-01-18
spruceA0P21,47.50625,-93.45275,413,-0.565,2021-01-18
spruceA0P21SH,47.50625,-93.45275,413,-0.565,2021-01-18
srg,31.7894,-110.8276,1281,-2.593,2021-01-18
srm,31.8214,-110.8661,1116,-2.769,2021-01-18
statenrice1,38.1235,-121.549,-5,-1.818,2021-01-18
stjones,39.088222,-75.43725,2,1.599,2021-01-18
sweetbriar,37.57341,-79.08482,242,1.983,2021-01-18
sweetbriarclearcut,37.5753,-79.0872,242,1.983,2021-01-18
sweetbriargrass,37.5605,-79.0884,240,1.983,2021-01-18
sylvania,46.242,-89.348,540,0.88,2021-01-18
templefieldstation1,40.1667,-75.1894,105,0.284,2021-01-18
tfforest,43.1086,-70.9505,23,-0.976,2021-01-18
tidmarshplymouth,41.9157,-70.5754,9,-1.253,2021-01-18
tonzi,38.43091667,-120.9658861,177,-1.161,2021-01-18
townsenddemeadow,39.3917,-75.6281,11,1.551,2021-01-18
tsubiology,36.1671,-86.8295,164,0.466,2021-01-18
tsubiology2,36.1171,-86.8295,100,-0.418,2021-01-18
tuckerprairie,38.9491,-91.9952,274,-0.175,2021-01-18
twodafo,29.1658,-95.829,16,0.555,2021-01-18
tworfaa,31.4777,-96.8882,167,1.184,2021-01-18
tworfpr,31.4802,-96.8826,162,1.218,2021-01-18
tworfta,31.4693,-96.8864,173,1.184,2021-01-18
twosfpr,30.6176,-97.2938,157,-0.656,2021-01-18
ucnrsanzaborrego,33.2401,-116.3886,214,0.539,2021-01-18
ufona,27.3836,-81.950856,25,-0.323,2021-01-18
uiefmaize2,40.0628,-88.1961,224,-0.105,2021-01-18
uiefmiscanthus2,40.0628,-88.1984,221,-0.105,2021-01-18
uiefprairie2,40.0637,-88.1973,224,-0.105,2021-01-18
uiefsorghum,40.0065,-88.2032,224,-0.451,2021-01-18
uiefswitchgrass2,40.0637,-88.1973,224,-0.105,2021-01-18
umichbiological,45.55984,-84.71382,230,1.365,2021-01-18
umichbiological2,45.5625,-84.6976,240,1.266,2021-01-18
unca,35.5951,-82.5515,650,1.214,2021-01-18
usgseros,43.7343,-96.6234,448,-1.881,2021-01-18
usmpj,34.43845,-106.2543606,2126,-1.378,2021-01-18
usof5,35.7297,-90.0406,70,-0.254,2021-01-18
usof6,35.7333,-90.0403,70,-0.254,2021-01-18
uwmfieldsta,43.38709,-88.0229,265,1.05,2021-01-18
vaira,38.41328056,-120.9506361,129,-1.161,2021-01-18
vallesburnedconifer,35.8884,-106.5321,3043,-2.324,2021-01-18
vallesmixedconifer,35.9192,-106.6142,2752,-2.297,2021-01-18
vallesponderosapine,35.864,-106.5964,2501,-2.281,2021-01-18
waahila,21.3017,-157.8152,55,-9999.0,2021-01-18
warrenwilson,35.6069,-82.4421,2198,1.281,2021-01-18
willamettepoplar,44.1368,-123.1823,112,-0.867,2021-01-18
willowcreek,45.805986,-90.07912,521,0.542,2021-01-18
windriver,45.8212833,-121.9520833,371,-0.464,2021-01-18
windriverunderstory,45.8212833,-121.9520833,371,-0.464,2021-01-18
wolfesneckfarm,43.8305,-70.0715,16,-0.736,2021-01-18
worcester,42.2697,-71.8428,185,-0.269,2021-01-18
alligatorriver,35.7879,-75.9038,1,1.098,2021-01-25
arbutuslake,43.98207,-74.23322,535,-1.934,2021-01-25
arbutuslakeinlet,43.99336,-74.24527,527,-1.934,2021-01-25
archboldavir,27.176064,-81.21958,8,1.867,2021-01-25
archboldavirx,27.166627,-81.219828,8,1.867,2021-01-25
archboldbahia,27.1656,-81.216112,8,1.867,2021-01-25
archboldpnot,27.187948,-81.200345,9,1.867,2021-01-25
archboldpnotx,27.180677,-81.20068,9,1.867,2021-01-25
arkansascornsoy,34.416,-91.6723,61,1.041,2021-01-25
arsbrooks10,41.9749,-93.6905,312,-1.332,2021-01-25
arsbrooks11,41.9744,-93.6937,313,-1.332,2021-01-25
arscolesnorth,42.4884,-93.5225,356,-1.155,2021-01-25
arscolessouth,42.4816,-93.5235,352,-1.155,2021-01-25
arsgacp1,31.5109,-83.6179,96,0.509,2021-01-25
arsgacp3,31.7563,-83.7516,139,0.436,2021-01-25
arsgacp4,31.7093,-83.7287,127,0.279,2021-01-25
arsgreatbasinltar098,43.1675,-116.7132,1426,0.014,2021-01-25
arsgreatbasinltar117,43.1432,-116.7357,1625,-0.751,2021-01-25
arsgreatbasinltar177,43.0645,-116.7484,2114,-1.146,2021-01-25
arsltarmdcr,39.0587,-75.8513,17,2.227,2021-01-25
arsltarmdcrnatw,39.0575,-75.7531,16,1.994,2021-01-25
arsltarmdcrprcw,39.0667,-75.7609,17,1.994,2021-01-25
arsltarmdcrresw,39.0549,-75.7532,16,1.994,2021-01-25
arsltarucbec1,40.7537,-78.0057,400,-0.327,2021-01-25
arsltarucbec2,40.7558,-77.9999,396,-0.327,2021-01-25
arsmnswanlake1,45.684508,-95.799703,370,-1.888,2021-01-25
arsmorris1,45.6167,-96.1269,341,-2.535,2021-01-25
arsmorris2,45.627,-96.127,338,-2.535,2021-01-25
arsmorris3,45.6091,-96.1265,342,-2.535,2021-01-25
arsope3ltar,39.0309,-76.8442,41,1.772,2021-01-25
ashburnham,42.6029,-71.926,292,-0.339,2021-01-25
asuhighlands,36.2076,-81.7032,1016,1.404,2021-01-25
austincary,29.738,-82.2188,44,-0.085,2021-01-25
barrow,71.28007453,-156.6091492,5,-9999.0,2021-01-25
bartlettir,44.0646,-71.2881,268,-0.331,2021-01-25
bigtraillake,64.9194,-147.822,190,-9999.0,2021-01-25
bitterbrush001,48.154,-119.9456,667,-0.663,2021-01-25
blackrockforest,41.3974,-74.0239,427,-1.052,2021-01-25
bnzblackspruce,64.6963,-148.3235,102,-9999.0,2021-01-25
bnzrichfen,64.70134,-148.31195,97,-9999.0,2021-01-25
bnzthermokarstbog,64.6955,-148.3208,104,-9999.0,2021-01-25
boglakepeatland,47.5051,-93.4893,416,-0.619,2021-01-25
bostoncommon,42.355912,-71.064145,10,-0.755,2021-01-25
bostonu,42.35041,-71.10438,10,-0.74,2021-01-25
bouldinalfalfa,38.0985,-121.4993,-5,-1.835,2021-01-25
bouldincorn,38.109,-121.535,-5,-1.857,2021-01-25
bozeman,45.783056,-110.777778,2332,-1.653,2021-01-25
brackishimpoundment,33.2015,-79.2973,1,0.679,2021-01-25
bullshoals,36.562833,-93.06663,260,1.317,2021-01-25
burnssagebrush,43.4712,-119.6909,1398,-0.635,2021-01-25
butte,45.95304,-112.47964,1682,-0.423,2021-01-25
butterice,39.5793,-121.858,33,-2.193,2021-01-25
cafboydnorthltar01,46.755104,-117.126052,795,-0.593,2021-01-25
cafboydsouthltar01,46.751809,-117.128502,795,-0.593,2021-01-25
cafcookeastltar01,46.78152,-117.0821,794,-0.512,2021-01-25
cafcookwestltar01,46.784037,-117.09083,807,-0.512,2021-01-25
caryinstitute,41.7839,-73.7341,127,-0.712,2021-01-25
centralredwoods1,38.632272,-123.301511,200,-2.101,2021-01-25
centralredwoods2,38.632272,-123.301511,200,-2.101,2021-01-25
cperagm,40.8402,-104.7672,1644,-1.107,2021-01-25
cperheavy,40.8153,-104.7386,1652,-1.108,2021-01-25
cpertgm,40.833,-104.76,1644,-1.088,2021-01-25
cperuvb,40.8055764,-104.7558542,1641,-1.088,2021-01-25
cuny,40.8162,-73.9507,42,0.019,2021-01-25
doverdesaltmarsh,39.0888,-75.4368,0,1.636,2021-01-25
downerwoods,43.07938,-87.88076,213,1.094,2021-01-25
dukehw,35.973583,-79.100371,400,1.471,2021-01-25
ecb1,41.5348,-84.8068,275,-1.512,2021-01-25
ecb2,41.5321,-84.808,275,-1.512,2021-01-25
ecb4,41.1796,-83.0604,240,-0.236,2021-01-25
elverde,18.320654,-65.8199,312,-9999.0,2021-01-25
flagstaff,35.17961521,-111.6049032,6983,-2.283,2021-01-25
flagstaff2,35.179225,-111.604506,6983,-2.283,2021-01-25
flagstaffchimneysprings,35.257296,-111.678542,2250,-2.324,2021-01-25
forbes,39.232,-121.2972,360,-1.624,2021-01-25
fortpaynealpasture1,34.3824,-85.6428,405,1.054,2021-01-25
fortpaynealpasture2,34.3824,-85.6447,403,1.054,2021-01-25
gcesapelo,31.4440444,-81.283528,0,0.136,2021-01-25
gilberttract,38.0015,-121.6691,6,-2.092,2021-01-25
glees,41.3644,-106.2394,3150,-1.372,2021-01-25
glennorganicrice,39.6805,-122.0026,2,-2.146,2021-01-25
glennrice,39.5944,-122.0253,36,-2.241,2021-01-25
goodnow,43.96018,-74.20994,820,-1.921,2021-01-25
goodwater,39.22848,-92.11936,264,0.032,2021-01-25
goodwaterbau,39.23115,-92.15216,274,-0.029,2021-01-25
grandteton,43.915017,-110.578036,2054,-0.442,2021-01-25
grca1pj,36.0241,-112.2211,1978,-2.285,2021-01-25
greenridge1,39.6905,-78.4067,285,-0.247,2021-01-25
harvard,42.5378,-72.1715,340,-0.712,2021-01-25
harvardbarn,42.53532,-72.1899,350,-0.731,2021-01-25
harvardbarn2,42.53532,-72.1899,350,-0.731,2021-01-25
harvardems2,42.5378,-72.1715,340,-0.712,2021-01-25
harvardfarmnorth,42.520465,-72.182242,355,-0.731,2021-01-25
harvardfarmsouth,42.522466,-72.182339,355,-0.731,2021-01-25
harvardgarden,42.5291,-72.1863,335,-0.731,2021-01-25
harvardhemlock,42.539,-72.18,355,-0.731,2021-01-25
harvardhemlock2,42.539407,-72.177976,355,-0.712,2021-01-25
harvardlph,42.542,-72.185,380,-0.731,2021-01-25
hawbeckereddy,40.6608,-77.848849,310,-0.122,2021-01-25
hobcawclearcutlongleaf,33.3486,-79.232,4,0.775,2021-01-25
hobcawmaturelongleaf,33.3242,-79.2439,8,0.775,2021-01-25
homesteadsprings,37.2009,-92.9937,452,0.864,2021-01-25
howland1,45.2041,-68.7403,80,-0.102,2021-01-25
howland2,45.2128,-68.7418,79,-0.102,2021-01-25
hubbardbrook,43.9438,-71.701,253,-0.347,2021-01-25
humnokericea,34.585192,-91.751684,61,0.802,2021-01-25
humnokericec,34.588853,-91.7516729,70,0.802,2021-01-25
huyckpreserveny,42.5266,-74.1587,478,-0.156,2021-01-25
hwmo1,20.0212,-155.7331,585,-9999.0,2021-01-25
hwmo2,19.9766,-155.8298,12,-9999.0,2021-01-25
hwmo5,20.1117,-155.8151,635,-9999.0,2021-01-25
ibp,32.589,-106.847,1325,-0.895,2021-01-25
imcrkfen,68.60583,-149.31101,900,-9999.0,2021-01-25
imcrkridge0,68.60681,-149.2958,951,-9999.0,2021-01-25
imcrkridge1,68.60681,-149.2958,951,-9999.0,2021-01-25
imcrktussock,68.60633,-149.30408,918,-9999.0,2021-01-25
jasperridge,37.402028,-122.22104,197,-1.779,2021-01-25
jerbajada,32.57992,-106.633793,1402,-1.116,2021-01-25
jergrassland,32.5833,-106.8333,1331,-0.895,2021-01-25
jernort,32.619,-106.788,1328,-0.683,2021-01-25
jernovel,32.6335,-106.8334,1324,-0.645,2021-01-25
jernwern,32.6271,-106.7387,1325,-0.932,2021-01-25
jersand,32.515,-106.798,1363,-1.074,2021-01-25
jershrubland,32.6502,-106.8334,1328,-0.563,2021-01-25
junipersavannah,34.4254,-105.8615,1931,-1.036,2021-01-25
kamuela,20.015008,-155.661326,850,-9999.0,2021-01-25
kamuela2,20.014959,-155.661139,830,-9999.0,2021-01-25
kansas,39.0561,-95.1907,333,-0.313,2021-01-25
kelloggcorn,42.437536,-85.3225472,288,0.106,2021-01-25
kempnrs,45.83992,-89.67755,539,0.361,2021-01-25
kendall,31.73652,-109.94185,1529,-1.76,2021-01-25
konza,39.0824,-96.5603,443,-0.319,2021-01-25
laupahoehoe,19.9322,-155.2912,1145,-9999.0,2021-01-25
ldeocam,41.0039,-73.9053,121,-0.494,2021-01-25
lostcreek,46.0827,-89.9792,480,0.511,2021-01-25
luckyhills,31.743896,-110.052023,1366,-1.698,2021-01-25
macleish,42.4484,-72.6804,251,-0.503,2021-01-25
macordway,44.8106,-93.0272,264,-0.099,2021-01-25
mandanh5,46.775423,-100.95109,593,-2.459,2021-01-25
mandani2,46.7614,-100.9257,590,-2.506,2021-01-25
manilacotton,35.8872,-90.1371,73,-0.215,2021-01-25
marena,36.06434,-97.21271,327,-0.341,2021-01-25
mead1,41.1651,-96.4766,361,-2.34,2021-01-25
mead2,41.1649,-96.4701,362,-2.34,2021-01-25
mead3,41.1797,-96.4397,363,-2.308,2021-01-25
meadpasture,41.1447,-96.4616,356,-2.359,2021-01-25
meadpasturese,41.1447,-96.4616,356,-2.359,2021-01-25
meadpasturesw,41.1447,-96.4616,356,-2.359,2021-01-25
missouriozarks,38.7441,-92.2,219,0.094,2021-01-25
morganmonroe,39.3231,-86.4131,275,-0.687,2021-01-25
morganmonroe2,39.3231,-86.4131,275,-0.687,2021-01-25
nahuku,19.415187,-155.238383,1202,-9999.0,2021-01-25
nationalelkrefuge,43.488931,-110.737824,1899,-0.509,2021-01-25
ncssm,36.018446,-78.92075,175,1.543,2021-01-25
NEON.D01.BART.DP1.00033,44.063869,-71.287375,285,-0.331,2021-01-25
NEON.D01.HARV.DP1.00033,42.536911,-72.17265,359,-0.712,2021-01-25
NEON.D01.HOPB.DP1.20002,42.471786,-72.329627,203,-1.237,2021-01-25
NEON.D02.BLAN.DP1.00033,39.033698,-78.041788,162,0.208,2021-01-25
NEON.D02.LEWI.DP1.20002,39.09564,-77.98322,152,0.244,2021-01-25
NEON.D02.POSE.DP1.20002,38.89332,-78.14678,293,0.456,2021-01-25
NEON.D02.SCBI.DP1.00033,38.892925,-78.139494,364,0.163,2021-01-25
NEON.D02.SERC.DP1.00033,38.89008,-76.56001,30,2.201,2021-01-25
NEON.D03.BARC.DP1.20002,29.676473,-82.009089,35,0.142,2021-01-25
NEON.D03.DSNY.DP1.00033,28.12505,-81.43619,22,0.416,2021-01-25
NEON.D03.FLNT.DP1.20002,31.185424,-84.437403,27,0.678,2021-01-25
NEON.D03.JERC.DP1.00033,31.194839,-84.468623,58,0.701,2021-01-25
NEON.D03.OSBS.DP1.00033,29.689282,-81.993431,56,-0.071,2021-01-25
NEON.D03.SUGG.DP1.20002,29.687054,-82.016171,28,-0.071,2021-01-25
NEON.D04.CUPE.DP1.20002,18.11352,-66.98676,164,-9999.0,2021-01-25
NEON.D04.GUAN.DP1.00033,17.96955,-66.8687,136,-9999.0,2021-01-25
NEON.D04.GUIL.DP1.20002,18.1741,-66.79851,564,-9999.0,2021-01-25
NEON.D04.LAJA.DP1.00033,18.021261,-67.076889,22,-9999.0,2021-01-25
NEON.D05.CRAM.DP1.20002,46.21111,-89.47825,518,0.675,2021-01-25
NEON.D05.LIRO.DP1.20002,45.998269,-89.704767,495,0.496,2021-01-25
NEON.D05.STEI.DP1.00033,45.50894,-89.58637,476,0.397,2021-01-25
NEON.D05.TREE.DP1.00033,45.49373,-89.58572,474,0.397,2021-01-25
NEON.D05.UNDE.DP1.00033,46.23391,-89.537254,529,0.734,2021-01-25
NEON.D06.KING.DP1.20002,39.10506,-96.60336,339,-0.109,2021-01-25
NEON.D06.KONA.DP1.00033,39.110446,-96.612935,443,-0.109,2021-01-25
NEON.D06.KONZ.DP1.00033,39.10077,-96.56309,415,-0.319,2021-01-25
NEON.D06.MCDI.DP1.20002,38.94428,-96.44197,376,-0.391,2021-01-25
NEON.D06.UKFS.DP1.00033,39.040431,-95.19215,330,-0.313,2021-01-25
NEON.D07.GRSM.DP1.00033,35.68896,-83.50195,589,0.581,2021-01-25
NEON.D07.LECO.DP1.20002,35.69043,-83.50379,578,0.581,2021-01-25
NEON.D07.MLBS.DP1.00033,37.378314,-80.524847,1177,1.81,2021-01-25
NEON.D07.ORNL.DP1.00033,35.964128,-84.282588,351,0.151,2021-01-25
NEON.D07.WALK.DP1.20002,35.95947,-84.28041,274,0.049,2021-01-25
NEON.D08.BLWA.DP1.20002,32.541529,-87.798151,23,0.471,2021-01-25
NEON.D08.DELA.DP1.00033,32.541727,-87.803877,36,0.471,2021-01-25
NEON.D08.LENO.DP1.00033,31.85388,-88.16122,10,0.84,2021-01-25
NEON.D08.MAYF.DP1.20002,32.959657,-87.408128,93,0.974,2021-01-25
NEON.D08.TALL.DP1.00033,32.95047,-87.393259,167,0.974,2021-01-25
NEON.D08.TOMB.DP1.20002,31.853431,-88.158872,10,0.84,2021-01-25
NEON.D09.DCFS.DP1.00033,47.161647,-99.106556,574,-2.255,2021-01-25
NEON.D09.NOGP.DP1.00033,46.76972,-100.91535,589,-2.506,2021-01-25
NEON.D09.PRLA.DP1.20002,47.15909,-99.11388,563,-2.258,2021-01-25
NEON.D09.PRPO.DP1.20002,47.12999,-99.250551,587,-2.277,2021-01-25
NEON.D09.WOOD.DP1.00033,47.1282,-99.241334,585,-2.277,2021-01-25
NEON.D10.ARIK.DP1.20002,39.758246,-102.447103,1188,-2.006,2021-01-25
NEON.D10.CPER.DP1.00033,40.81553,-104.7456,1600,-1.088,2021-01-25
NEON.D10.HQTW.DP1.00033,40.016704,-105.245612,1601,-1.061,2021-01-25
NEON.D10.RMNP.DP1.00033,40.275903,-105.545955,2751,-1.833,2021-01-25
NEON.D10.STER.DP1.00033,40.461894,-103.02929,1366,-1.466,2021-01-25
NEON.D11.BLUE.DP1.20002,34.444218,-96.624201,288,0.184,2021-01-25
NEON.D11.CLBJ.DP1.00033,33.40123,-97.57,279,0.431,2021-01-25
NEON.D11.OAES.DP1.00033,35.41059,-99.05879,520,-0.356,2021-01-25
NEON.D11.PRIN.DP1.20002,33.37859,-97.78226,255,0.582,2021-01-25
NEON.D12.BLDE.DP1.20002,44.95011,-110.58715,2035,-0.268,2021-01-25
NEON.D12.YELL.DP1.00033,44.95348,-110.53914,2130,-0.364,2021-01-25
NEON.D13.COMO.DP1.20002,40.03496,-105.54487,3036,-1.831,2021-01-25
NEON.D13.MOAB.DP1.00033,38.24833,-109.38827,1803,-2.493,2021-01-25
NEON.D13.NIWO.DP1.00033,40.05425,-105.58237,3493,-1.715,2021-01-25
NEON.D13.WLOU.DP1.20002,39.891366,-105.915395,2920,-1.777,2021-01-25
NEON.D14.JORN.DP1.00033,32.59068,-106.84254,1321,-0.895,2021-01-25
NEON.D14.SRER.DP1.00033,31.91068,-110.83549,999,-2.938,2021-01-25
NEON.D14.SYCA.DP1.20002,33.749057,-111.506903,644,-1.901,2021-01-25
NEON.D15.ONAQ.DP1.00033,40.177599,-112.452452,1655,-3.0,2021-01-25
NEON.D15.REDB.DP1.20002,40.783934,-111.797887,1696,-3.0,2021-01-25
NEON.D16.ABBY.DP1.00033,45.76243,-122.33033,390,-0.328,2021-01-25
NEON.D16.MART.DP1.20002,45.791248,-121.931959,354,-0.489,2021-01-25
NEON.D16.MCRA.DP1.20002,44.259598,-122.165554,880,-0.863,2021-01-25
NEON.D16.WREF.DP1.00033,45.82049,-121.95191,368,-0.594,2021-01-25
NEON.D17.BIGC.DP1.20002,37.059719,-119.257549,1133,-1.188,2021-01-25
NEON.D17.SJER.DP1.00033,37.10878,-119.73228,398,-1.118,2021-01-25
NEON.D17.SOAP.DP1.00033,37.03337,-119.26219,1210,-1.252,2021-01-25
NEON.D17.TEAK.DP1.00033,37.00583,-119.00602,2149,-1.244,2021-01-25
NEON.D17.TECR.DP1.20002,36.955931,-119.027363,2053,-1.274,2021-01-25
NEON.D18.BARR.DP1.00033,71.28241,-156.61936,7,-9999.0,2021-01-25
NEON.D18.OKSR.DP1.20002,68.669753,-149.143018,773,-9999.0,2021-01-25
NEON.D18.TOOK.DP1.20002,68.629562,-149.610509,715,-9999.0,2021-01-25
NEON.D18.TOOL.DP1.00033,68.66109,-149.37047,827,-9999.0,2021-01-25
NEON.D19.BONA.DP1.00033,65.15401,-147.50258,233,-9999.0,2021-01-25
NEON.D19.CARI.DP1.20002,65.15306,-147.50246,229,-9999.0,2021-01-25
NEON.D19.DEJU.DP1.00033,63.88112,-145.75136,504,-9999.0,2021-01-25
NEON.D19.HEAL.DP1.00033,63.87569,-149.21334,409,-9999.0,2021-01-25
NEON.D20.PUUM.DP1.00033,19.55309,-155.31731,1683,-9999.0,2021-01-25
nevcansnk3a,39.0099,-114.3095,3063,-2.644,2021-01-25
nevcanspg1a,38.9253,-114.4082,1792,-3.0,2021-01-25
nevcanspg2a,38.8921,-114.3521,2203,-2.79,2021-01-25
nevcanspg3a,38.8898,-114.3314,2820,-2.411,2021-01-25
nevcanspg4a,38.9061,-114.3089,3360,-2.411,2021-01-25
ninemileprairie,40.86801886,-96.82208066,381,-0.988,2021-01-25
nist,39.139,-77.2125,100,0.772,2021-01-25
niwot3,40.03286358,-105.5469702,3050,-1.831,2021-01-25
niwot5,40.03286358,-105.5469702,2993,-1.831,2021-01-25
northattleboroma,41.98369,-71.31056,60,-0.395,2021-01-25
northinletsaltmarsh,33.3455,-79.1957,1,0.516,2021-01-25
oakville,47.899334,-97.316139,268,-0.616,2021-01-25
oregonMP,44.4523,-121.5574,1253,-1.077,2021-01-25
oregonYP,44.32384,-121.605993,977,-0.756,2021-01-25
oregonYPbud,44.3238,-121.606,977,-0.756,2021-01-25
othshardwood,44.934805,-68.6655,41,-0.341,2021-01-25
othssoftwood,44.934527,-68.664888,41,-0.341,2021-01-25
pace,37.9229,-78.2739,100,1.64,2021-01-25
parkschoolbuffalo,42.9637,-78.7834,205,-0.572,2021-01-25
piedmontalpasture2,33.8875,-85.6935,238,0.231,2021-01-25
portal,31.9385,-109.0823,1330,-1.53,2021-01-25
proctor,44.525,-72.866,403,-1.574,2021-01-25
readingma,42.5304,-71.1272,100,-0.718,2021-01-25
robinson,37.4671,-83.1576,483,0.562,2021-01-25
robinson2,37.4671,-83.1576,483,0.562,2021-01-25
rosemountcons,44.6946,-93.0578,283,-0.321,2021-01-25
rosemountconv,44.691,-93.0576,283,-0.321,2021-01-25
rosemountnprs,44.6781,-93.0723,274,-0.219,2021-01-25
russellsage,32.456961,-91.974322,20,0.736,2021-01-25
sagehen,39.4315,-120.2398,1934,-1.113,2021-01-25
sagehen2,39.4307,-120.2407,1937,-1.113,2021-01-25
sagehen3,39.4311,-120.2405,1935,-1.113,2021-01-25
sanford,42.726777,-84.464482,268,0.252,2021-01-25
santacruz1,36.9741,-122.0308,11,-1.418,2021-01-25
santacruz2,36.9741,-122.0308,11,-1.418,2021-01-25
santaluciapreserve1,36.5265,-121.8682,500,-1.337,2021-01-25
santaluciapreserve2,36.5265,-121.8682,500,-1.337,2021-01-25
segaarboretum10,35.16209,-111.73151,2170,-2.207,2021-01-25
segaarboretum2,35.16209,-111.73151,2170,-2.207,2021-01-25
segaarboretum3,35.16209,-111.73151,2170,-2.207,2021-01-25
segaarboretum4,35.16214,-111.73153,2170,-2.207,2021-01-25
segaarboretum6,35.16209,-111.73151,2170,-2.207,2021-01-25
segaarboretum9,35.16222,-111.73158,2170,-2.207,2021-01-25
segaarboretumforest,35.1613,-111.7359,2173,-2.207,2021-01-25
segaarboretummeadow,35.1621,-111.7316,2157,-2.207,2021-01-25
segablackpoint,35.6814,-111.4754,1566,-1.039,2021-01-25
segabluechute,35.5876,-111.9716,1930,-2.451,2021-01-25
segabluechute1,35.58759,-111.97115,1931,-2.451,2021-01-25
segabluechute2,35.58759,-111.97115,1931,-2.451,2021-01-25
segabluechute4,35.58759,-111.9716,1931,-2.451,2021-01-25
segabluechute6,35.58759,-111.97115,1931,-2.451,2021-01-25
segabluechute7,35.58759,-111.97115,1931,-2.451,2021-01-25
segabluechute8,35.58759,-111.97115,1931,-2.451,2021-01-25
segabradshaw,34.9109,-111.9285,1402,-1.841,2021-01-25
segahartprairie,35.3536,-111.7324,2585,-2.318,2021-01-25
segalcr,35.7231,-111.321,1275,-2.093,2021-01-25
segalcr2,35.7069,-111.36,1495,-1.286,2021-01-25
segalittlemountain,36.5865,-112.3634,2276,-2.265,2021-01-25
segasoapcreek,36.751,-111.716,1233,-2.545,2021-01-25
segawhitepockets,36.6081,-112.4082,2057,-2.389,2021-01-25
sevilletagrass,34.360444,-106.700186,1600,-1.066,2021-01-25
sevilletanewgrass,34.358,-106.6799,1603,-1.333,2021-01-25
sevilletashrub,34.334956,-106.744469,1603,-0.975,2021-01-25
sevMRME10L,34.3438,-106.7269,1604,-1.271,2021-01-25
sevMRME11C,34.3438,-106.7268,1604,-1.271,2021-01-25
sevMRME1S,34.3442,-106.7272,1604,-1.271,2021-01-25
sevpjrm12,34.38615,-106.52621,1905,-1.857,2021-01-25
sevpjrm13,34.38631,-106.52791,1914,-1.857,2021-01-25
shalehillsczo,40.6658,-77.9041,310,-0.226,2021-01-25
shenandoah,38.6167,-78.35,1037,-0.028,2021-01-25
silverton,44.9986,-122.6948,347,-0.687,2021-01-25
siwetland,38.0369,-121.7546,-5,-2.183,2021-01-25
slatefloodplain,38.9094,-107.0282,2725,-1.893,2021-01-25
snodgrass1,38.92619636,-106.9714376,3023,-1.963,2021-01-25
snodgrass2,38.92619636,-106.9714376,3023,-1.963,2021-01-25
snodgrass3,38.92839978,-106.9781196,3141,-1.963,2021-01-25
snodgrass4,38.92839978,-106.9781196,3141,-1.963,2021-01-25
snodgrass5,38.92744789,-106.9785209,3152,-1.963,2021-01-25
snodgrass6,38.92744789,-106.9785209,3152,-1.963,2021-01-25
snodgrass7,38.93142134,-106.9852388,3363,-1.927,2021-01-25
snodgrass8,38.93142134,-106.9852388,3363,-1.927,2021-01-25
southerngreatplains,36.6058,-97.4888,314,-0.03,2021-01-25
springfieldma,42.135162,-72.585972,56,-0.474,2021-01-25
spruceA0EMI,47.5049,-93.4541,413,-0.625,2021-01-25
spruceA0EMT,47.5049,-93.4541,418,-0.625,2021-01-25
spruceA0P07,47.50493,-93.45314,413,-0.625,2021-01-25
spruceA0P07SH,47.50493,-93.45314,413,-0.625,2021-01-25
spruceA0P21,47.50625,-93.45275,413,-0.625,2021-01-25
spruceA0P21SH,47.50625,-93.45275,413,-0.625,2021-01-25
srg,31.7894,-110.8276,1281,-2.43,2021-01-25
srm,31.8214,-110.8661,1116,-2.598,2021-01-25
statenrice1,38.1235,-121.549,-5,-1.854,2021-01-25
stjones,39.088222,-75.43725,2,1.636,2021-01-25
sweetbriar,37.57341,-79.08482,242,1.995,2021-01-25
sweetbriarclearcut,37.5753,-79.0872,242,1.995,2021-01-25
sweetbriargrass,37.5605,-79.0884,240,1.995,2021-01-25
sylvania,46.242,-89.348,540,0.893,2021-01-25
templefieldstation1,40.1667,-75.1894,105,0.318,2021-01-25
tfforest,43.1086,-70.9505,23,-0.864,2021-01-25
tidmarshplymouth,41.9157,-70.5754,9,-1.102,2021-01-25
tonzi,38.43091667,-120.9658861,177,-1.165,2021-01-25
townsenddemeadow,39.3917,-75.6281,11,1.622,2021-01-25
tsubiology,36.1671,-86.8295,164,0.428,2021-01-25
tsubiology2,36.1171,-86.8295,100,-0.453,2021-01-25
tuckerprairie,38.9491,-91.9952,274,-0.192,2021-01-25
twodafo,29.1658,-95.829,16,0.545,2021-01-25
tworfaa,31.4777,-96.8882,167,1.015,2021-01-25
tworfpr,31.4802,-96.8826,162,1.045,2021-01-25
tworfta,31.4693,-96.8864,173,1.015,2021-01-25
twosfpr,30.6176,-97.2938,157,-0.755,2021-01-25
ucnrsanzaborrego,33.2401,-116.3886,214,0.553,2021-01-25
ufona,27.3836,-81.950856,25,-0.335,2021-01-25
uiefmaize2,40.0628,-88.1961,224,-0.238,2021-01-25
uiefmiscanthus2,40.0628,-88.1984,221,-0.238,2021-01-25
uiefprairie2,40.0637,-88.1973,224,-0.238,2021-01-25
uiefsorghum,40.0065,-88.2032,224,-0.571,2021-01-25
uiefswitchgrass2,40.0637,-88.1973,224,-0.238,2021-01-25
umichbiological,45.55984,-84.71382,230,1.355,2021-01-25
umichbiological2,45.5625,-84.6976,240,1.262,2021-01-25
unca,35.5951,-82.5515,650,1.108,2021-01-25
usgseros,43.7343,-96.6234,448,-1.881,2021-01-25
usmpj,34.43845,-106.2543606,2126,-1.3,2021-01-25
usof5,35.7297,-90.0406,70,-0.305,2021-01-25
usof6,35.7333,-90.0403,70,-0.305,2021-01-25
uwmfieldsta,43.38709,-88.0229,265,1.002,2021-01-25
vaira,38.41328056,-120.9506361,129,-1.165,2021-01-25
vallesburnedconifer,35.8884,-106.5321,3043,-2.145,2021-01-25
vallesmixedconifer,35.9192,-106.6142,2752,-2.128,2021-01-25
vallesponderosapine,35.864,-106.5964,2501,-2.121,2021-01-25
waahila,21.3017,-157.8152,55,-9999.0,2021-01-25
warrenwilson,35.6069,-82.4421,2198,1.181,2021-01-25
willamettepoplar,44.1368,-123.1823,112,-1.002,2021-01-25
willowcreek,45.805986,-90.07912,521,0.533,2021-01-25
windriver,45.8212833,-121.9520833,371,-0.594,2021-01-25
windriverunderstory,45.8212833,-121.9520833,371,-0.594,2021-01-25
wolfesneckfarm,43.8305,-70.0715,16,-0.57,2021-01-25
worcester,42.2697,-71.8428,185,-0.127,2021-01-25
alligatorriver,35.7879,-75.9038,1,1.197,2021-02-01
arbutuslake,43.98207,-74.23322,535,-2.093,2021-02-01
arbutuslakeinlet,43.99336,-74.24527,527,-2.093,2021-02-01
archboldavir,27.176064,-81.21958,8,1.723,2021-02-01
archboldavirx,27.166627,-81.219828,8,1.723,2021-02-01
archboldbahia,27.1656,-81.216112,8,1.723,2021-02-01
archboldpnot,27.187948,-81.200345,9,1.723,2021-02-01
archboldpnotx,27.180677,-81.20068,9,1.723,2021-02-01
arkansascornsoy,34.416,-91.6723,61,1.195,2021-02-01
arsbrooks10,41.9749,-93.6905,312,-1.218,2021-02-01
arsbrooks11,41.9744,-93.6937,313,-1.218,2021-02-01
arscolesnorth,42.4884,-93.5225,356,-1.047,2021-02-01
arscolessouth,42.4816,-93.5235,352,-1.047,2021-02-01
arsgacp1,31.5109,-83.6179,96,0.505,2021-02-01
arsgacp3,31.7563,-83.7516,139,0.408,2021-02-01
arsgacp4,31.7093,-83.7287,127,0.245,2021-02-01
arsgreatbasinltar098,43.1675,-116.7132,1426,0.101,2021-02-01
arsgreatbasinltar117,43.1432,-116.7357,1625,-0.63,2021-02-01
arsgreatbasinltar177,43.0645,-116.7484,2114,-1.018,2021-02-01
arsltarmdcr,39.0587,-75.8513,17,2.188,2021-02-01
arsltarmdcrnatw,39.0575,-75.7531,16,1.949,2021-02-01
arsltarmdcrprcw,39.0667,-75.7609,17,1.949,2021-02-01
arsltarmdcrresw,39.0549,-75.7532,16,1.949,2021-02-01
arsltarucbec1,40.7537,-78.0057,400,-0.416,2021-02-01
arsltarucbec2,40.7558,-77.9999,396,-0.416,2021-02-01
arsmnswanlake1,45.684508,-95.799703,370,-1.816,2021-02-01
arsmorris1,45.6167,-96.1269,341,-2.463,2021-02-01
arsmorris2,45.627,-96.127,338,-2.463,2021-02-01
arsmorris3,45.6091,-96.1265,342,-2.463,2021-02-01
arsope3ltar,39.0309,-76.8442,41,1.754,2021-02-01
ashburnham,42.6029,-71.926,292,-0.408,2021-02-01
asuhighlands,36.2076,-81.7032,1016,1.404,2021-02-01
austincary,29.738,-82.2188,44,-0.221,2021-02-01
barrow,71.28007453,-156.6091492,5,-9999.0,2021-02-01
bartlettir,44.0646,-71.2881,268,-0.486,2021-02-01
bigtraillake,64.9194,-147.822,190,-9999.0,2021-02-01
bitterbrush001,48.154,-119.9456,667,-0.436,2021-02-01
blackrockforest,41.3974,-74.0239,427,-1.142,2021-02-01
bnzblackspruce,64.6963,-148.3235,102,-9999.0,2021-02-01
bnzrichfen,64.70134,-148.31195,97,-9999.0,2021-02-01
bnzthermokarstbog,64.6955,-148.3208,104,-9999.0,2021-02-01
boglakepeatland,47.5051,-93.4893,416,-0.548,2021-02-01
bostoncommon,42.355912,-71.064145,10,-0.906,2021-02-01
bostonu,42.35041,-71.10438,10,-0.886,2021-02-01
bouldinalfalfa,38.0985,-121.4993,-5,-1.181,2021-02-01
bouldincorn,38.109,-121.535,-5,-1.221,2021-02-01
bozeman,45.783056,-110.777778,2332,-1.662,2021-02-01
brackishimpoundment,33.2015,-79.2973,1,0.659,2021-02-01
bullshoals,36.562833,-93.06663,260,1.455,2021-02-01
burnssagebrush,43.4712,-119.6909,1398,-0.537,2021-02-01
butte,45.95304,-112.47964,1682,-0.407,2021-02-01
butterice,39.5793,-121.858,33,-1.78,2021-02-01
cafboydnorthltar01,46.755104,-117.126052,795,-0.576,2021-02-01
cafboydsouthltar01,46.751809,-117.128502,795,-0.576,2021-02-01
cafcookeastltar01,46.78152,-117.0821,794,-0.488,2021-02-01
cafcookwestltar01,46.784037,-117.09083,807,-0.488,2021-02-01
caryinstitute,41.7839,-73.7341,127,-0.753,2021-02-01
centralredwoods1,38.632272,-123.301511,200,-1.702,2021-02-01
centralredwoods2,38.632272,-123.301511,200,-1.702,2021-02-01
cperagm,40.8402,-104.7672,1644,-1.071,2021-02-01
cperheavy,40.8153,-104.7386,1652,-1.07,2021-02-01
cpertgm,40.833,-104.76,1644,-1.046,2021-02-01
cperuvb,40.8055764,-104.7558542,1641,-1.046,2021-02-01
cuny,40.8162,-73.9507,42,-0.069,2021-02-01
doverdesaltmarsh,39.0888,-75.4368,0,1.59,2021-02-01
downerwoods,43.07938,-87.88076,213,1.209,2021-02-01
dukehw,35.973583,-79.100371,400,1.584,2021-02-01
ecb1,41.5348,-84.8068,275,-1.546,2021-02-01
ecb2,41.5321,-84.808,275,-1.546,2021-02-01
ecb4,41.1796,-83.0604,240,-0.358,2021-02-01
elverde,18.320654,-65.8199,312,-9999.0,2021-02-01
flagstaff,35.17961521,-111.6049032,6983,-1.781,2021-02-01
flagstaff2,35.179225,-111.604506,6983,-1.781,2021-02-01
flagstaffchimneysprings,35.257296,-111.678542,2250,-1.859,2021-02-01
forbes,39.232,-121.2972,360,-1.075,2021-02-01
fortpaynealpasture1,34.3824,-85.6428,405,1.146,2021-02-01
fortpaynealpasture2,34.3824,-85.6447,403,1.146,2021-02-01
gcesapelo,31.4440444,-81.283528,0,0.095,2021-02-01
gilberttract,38.0015,-121.6691,6,-1.424,2021-02-01
glees,41.3644,-106.2394,3150,-1.224,2021-02-01
glennorganicrice,39.6805,-122.0026,2,-1.714,2021-02-01
glennrice,39.5944,-122.0253,36,-1.844,2021-02-01
goodnow,43.96018,-74.20994,820,-2.07,2021-02-01
goodwater,39.22848,-92.11936,264,0.058,2021-02-01
goodwaterbau,39.23115,-92.15216,274,-0.002,2021-02-01
grandteton,43.915017,-110.578036,2054,-0.333,2021-02-01
grca1pj,36.0241,-112.2211,1978,-1.812,2021-02-01
greenridge1,39.6905,-78.4067,285,-0.306,2021-02-01
harvard,42.5378,-72.1715,340,-0.757,2021-02-01
harvardbarn,42.53532,-72.1899,350,-0.77,2021-02-01
harvardbarn2,42.53532,-72.1899,350,-0.77,2021-02-01
harvardems2,42.5378,-72.1715,340,-0.757,2021-02-01
harvardfarmnorth,42.520465,-72.182242,355,-0.77,2021-02-01
harvardfarmsouth,42.522466,-72.182339,355,-0.77,2021-02-01
harvardgarden,42.5291,-72.1863,335,-0.77,2021-02-01
harvardhemlock,42.539,-72.18,355,-0.77,2021-02-01
harvardhemlock2,42.539407,-72.177976,355,-0.757,2021-02-01
harvardlph,42.542,-72.185,380,-0.77,2021-02-01
hawbeckereddy,40.6608,-77.848849,310,-0.205,2021-02-01
hobcawclearcutlongleaf,33.3486,-79.232,4,0.727,2021-02-01
hobcawmaturelongleaf,33.3242,-79.2439,8,0.727,2021-02-01
homesteadsprings,37.2009,-92.9937,452,1.035,2021-02-01
howland1,45.2041,-68.7403,80,-0.205,2021-02-01
howland2,45.2128,-68.7418,79,-0.205,2021-02-01
hubbardbrook,43.9438,-71.701,253,-0.535,2021-02-01
humnokericea,34.585192,-91.751684,61,0.92,2021-02-01
humnokericec,34.588853,-91.7516729,70,0.92,2021-02-01
huyckpreserveny,42.5266,-74.1587,478,-0.232,2021-02-01
hwmo1,20.0212,-155.7331,585,-9999.0,2021-02-01
hwmo2,19.9766,-155.8298,12,-9999.0,2021-02-01
hwmo5,20.1117,-155.8151,635,-9999.0,2021-02-01
ibp,32.589,-106.847,1325,-0.803,2021-02-01
imcrkfen,68.60583,-149.31101,900,-9999.0,2021-02-01
imcrkridge0,68.60681,-149.2958,951,-9999.0,2021-02-01
imcrkridge1,68.60681,-149.2958,951,-9999.0,2021-02-01
imcrktussock,68.60633,-149.30408,918,-9999.0,2021-02-01
jasperridge,37.402028,-122.22104,197,-1.138,2021-02-01
jerbajada,32.57992,-106.633793,1402,-0.993,2021-02-01
jergrassland,32.5833,-106.8333,1331,-0.803,2021-02-01
jernort,32.619,-106.788,1328,-0.606,2021-02-01
jernovel,32.6335,-106.8334,1324,-0.568,2021-02-01
jernwern,32.6271,-106.7387,1325,-0.843,2021-02-01
jersand,32.515,-106.798,1363,-0.97,2021-02-01
jershrubland,32.6502,-106.8334,1328,-0.493,2021-02-01
junipersavannah,34.4254,-105.8615,1931,-1.05,2021-02-01
kamuela,20.015008,-155.661326,850,-9999.0,2021-02-01
kamuela2,20.014959,-155.661139,830,-9999.0,2021-02-01
kansas,39.0561,-95.1907,333,-0.235,2021-02-01
kelloggcorn,42.437536,-85.3225472,288,0.103,2021-02-01
kempnrs,45.83992,-89.67755,539,0.4,2021-02-01
kendall,31.73652,-109.94185,1529,-1.657,2021-02-01
konza,39.0824,-96.5603,443,-0.209,2021-02-01
laupahoehoe,19.9322,-155.2912,1145,-9999.0,2021-02-01
ldeocam,41.0039,-73.9053,121,-0.573,2021-02-01
lostcreek,46.0827,-89.9792,480,0.542,2021-02-01
luckyhills,31.743896,-110.052023,1366,-1.568,2021-02-01
macleish,42.4484,-72.6804,251,-0.594,2021-02-01
macordway,44.8106,-93.0272,264,-0.024,2021-02-01
mandanh5,46.775423,-100.95109,593,-2.448,2021-02-01
mandani2,46.7614,-100.9257,590,-2.496,2021-02-01
manilacotton,35.8872,-90.1371,73,0.038,2021-02-01
marena,36.06434,-97.21271,327,-0.233,2021-02-01
mead1,41.1651,-96.4766,361,-2.193,2021-02-01
mead2,41.1649,-96.4701,362,-2.193,2021-02-01
mead3,41.1797,-96.4397,363,-2.151,2021-02-01
meadpasture,41.1447,-96.4616,356,-2.223,2021-02-01
meadpasturese,41.1447,-96.4616,356,-2.223,2021-02-01
meadpasturesw,41.1447,-96.4616,356,-2.223,2021-02-01
missouriozarks,38.7441,-92.2,219,0.105,2021-02-01
morganmonroe,39.3231,-86.4131,275,-0.68,2021-02-01
morganmonroe2,39.3231,-86.4131,275,-0.68,2021-02-01
nahuku,19.415187,-155.238383,1202,-9999.0,2021-02-01
nationalelkrefuge,43.488931,-110.737824,1899,-0.345,2021-02-01
ncssm,36.018446,-78.92075,175,1.659,2021-02-01
NEON.D01.BART.DP1.00033,44.063869,-71.287375,285,-0.486,2021-02-01
NEON.D01.HARV.DP1.00033,42.536911,-72.17265,359,-0.757,2021-02-01
NEON.D01.HOPB.DP1.20002,42.471786,-72.329627,203,-1.262,2021-02-01
NEON.D02.BLAN.DP1.00033,39.033698,-78.041788,162,0.133,2021-02-01
NEON.D02.LEWI.DP1.20002,39.09564,-77.98322,152,0.175,2021-02-01
NEON.D02.POSE.DP1.20002,38.89332,-78.14678,293,0.389,2021-02-01
NEON.D02.SCBI.DP1.00033,38.892925,-78.139494,364,0.088,2021-02-01
NEON.D02.SERC.DP1.00033,38.89008,-76.56001,30,2.177,2021-02-01
NEON.D03.BARC.DP1.20002,29.676473,-82.009089,35,0.059,2021-02-01
NEON.D03.DSNY.DP1.00033,28.12505,-81.43619,22,0.347,2021-02-01
NEON.D03.FLNT.DP1.20002,31.185424,-84.437403,27,0.757,2021-02-01
NEON.D03.JERC.DP1.00033,31.194839,-84.468623,58,0.785,2021-02-01
NEON.D03.OSBS.DP1.00033,29.689282,-81.993431,56,-0.16,2021-02-01
NEON.D03.SUGG.DP1.20002,29.687054,-82.016171,28,-0.16,2021-02-01
NEON.D04.CUPE.DP1.20002,18.11352,-66.98676,164,-9999.0,2021-02-01
NEON.D04.GUAN.DP1.00033,17.96955,-66.8687,136,-9999.0,2021-02-01
NEON.D04.GUIL.DP1.20002,18.1741,-66.79851,564,-9999.0,2021-02-01
NEON.D04.LAJA.DP1.00033,18.021261,-67.076889,22,-9999.0,2021-02-01
NEON.D05.CRAM.DP1.20002,46.21111,-89.47825,518,0.704,2021-02-01
NEON.D05.LIRO.DP1.20002,45.998269,-89.704767,495,0.537,2021-02-01
NEON.D05.STEI.DP1.00033,45.50894,-89.58637,476,0.445,2021-02-01
NEON.D05.TREE.DP1.00033,45.49373,-89.58572,474,0.445,2021-02-01
NEON.D05.UNDE.DP1.00033,46.23391,-89.537254,529,0.763,2021-02-01
NEON.D06.KING.DP1.20002,39.10506,-96.60336,339,-0.008,2021-02-01
NEON.D06.KONA.DP1.00033,39.110446,-96.612935,443,-0.008,2021-02-01
NEON.D06.KONZ.DP1.00033,39.10077,-96.56309,415,-0.209,2021-02-01
NEON.D06.MCDI.DP1.20002,38.94428,-96.44197,376,-0.303,2021-02-01
NEON.D06.UKFS.DP1.00033,39.040431,-95.19215,330,-0.235,2021-02-01
NEON.D07.GRSM.DP1.00033,35.68896,-83.50195,589,0.715,2021-02-01
NEON.D07.LECO.DP1.20002,35.69043,-83.50379,578,0.715,2021-02-01
NEON.D07.MLBS.DP1.00033,37.378314,-80.524847,1177,2.009,2021-02-01
NEON.D07.ORNL.DP1.00033,35.964128,-84.282588,351,0.204,2021-02-01
NEON.D07.WALK.DP1.20002,35.95947,-84.28041,274,0.079,2021-02-01
NEON.D08.BLWA.DP1.20002,32.541529,-87.798151,23,0.511,2021-02-01
NEON.D08.DELA.DP1.00033,32.541727,-87.803877,36,0.511,2021-02-01
NEON.D08.LENO.DP1.00033,31.85388,-88.16122,10,0.89,2021-02-01
NEON.D08.MAYF.DP1.20002,32.959657,-87.408128,93,1.094,2021-02-01
NEON.D08.TALL.DP1.00033,32.95047,-87.393259,167,1.094,2021-02-01
NEON.D08.TOMB.DP1.20002,31.853431,-88.158872,10,0.89,2021-02-01
NEON.D09.DCFS.DP1.00033,47.161647,-99.106556,574,-2.24,2021-02-01
NEON.D09.NOGP.DP1.00033,46.76972,-100.91535,589,-2.496,2021-02-01
NEON.D09.PRLA.DP1.20002,47.15909,-99.11388,563,-2.239,2021-02-01
NEON.D09.PRPO.DP1.20002,47.12999,-99.250551,587,-2.258,2021-02-01
NEON.D09.WOOD.DP1.00033,47.1282,-99.241334,585,-2.258,2021-02-01
NEON.D10.ARIK.DP1.20002,39.758246,-102.447103,1188,-1.926,2021-02-01
NEON.D10.CPER.DP1.00033,40.81553,-104.7456,1600,-1.046,2021-02-01
NEON.D10.HQTW.DP1.00033,40.016704,-105.245612,1601,-1.005,2021-02-01
NEON.D10.RMNP.DP1.00033,40.275903,-105.545955,2751,-1.783,2021-02-01
NEON.D10.STER.DP1.00033,40.461894,-103.02929,1366,-1.47,2021-02-01
NEON.D11.BLUE.DP1.20002,34.444218,-96.624201,288,0.276,2021-02-01
NEON.D11.CLBJ.DP1.00033,33.40123,-97.57,279,0.533,2021-02-01
NEON.D11.OAES.DP1.00033,35.41059,-99.05879,520,-0.217,2021-02-01
NEON.D11.PRIN.DP1.20002,33.37859,-97.78226,255,0.696,2021-02-01
NEON.D12.BLDE.DP1.20002,44.95011,-110.58715,2035,-0.19,2021-02-01
NEON.D12.YELL.DP1.00033,44.95348,-110.53914,2130,-0.282,2021-02-01
NEON.D13.COMO.DP1.20002,40.03496,-105.54487,3036,-1.83,2021-02-01
NEON.D13.MOAB.DP1.00033,38.24833,-109.38827,1803,-2.329,2021-02-01
NEON.D13.NIWO.DP1.00033,40.05425,-105.58237,3493,-1.744,2021-02-01
NEON.D13.WLOU.DP1.20002,39.891366,-105.915395,2920,-1.723,2021-02-01
NEON.D14.JORN.DP1.00033,32.59068,-106.84254,1321,-0.803,2021-02-01
NEON.D14.SRER.DP1.00033,31.91068,-110.83549,999,-2.659,2021-02-01
NEON.D14.SYCA.DP1.20002,33.749057,-111.506903,644,-1.912,2021-02-01
NEON.D15.ONAQ.DP1.00033,40.177599,-112.452452,1655,-3.0,2021-02-01
NEON.D15.REDB.DP1.20002,40.783934,-111.797887,1696,-3.0,2021-02-01
NEON.D16.ABBY.DP1.00033,45.76243,-122.33033,390,-0.277,2021-02-01
NEON.D16.MART.DP1.20002,45.791248,-121.931959,354,-0.423,2021-02-01
NEON.D16.MCRA.DP1.20002,44.259598,-122.165554,880,-0.816,2021-02-01
NEON.D16.WREF.DP1.00033,45.82049,-121.95191,368,-0.536,2021-02-01
NEON.D17.BIGC.DP1.20002,37.059719,-119.257549,1133,-0.555,2021-02-01
NEON.D17.SJER.DP1.00033,37.10878,-119.73228,398,-0.187,2021-02-01
NEON.D17.SOAP.DP1.00033,37.03337,-119.26219,1210,-0.61,2021-02-01
NEON.D17.TEAK.DP1.00033,37.00583,-119.00602,2149,-0.629,2021-02-01
NEON.D17.TECR.DP1.20002,36.955931,-119.027363,2053,-0.66,2021-02-01
NEON.D18.BARR.DP1.00033,71.28241,-156.61936,7,-9999.0,2021-02-01
NEON.D18.OKSR.DP1.20002,68.669753,-149.143018,773,-9999.0,2021-02-01
NEON.D18.TOOK.DP1.20002,68.629562,-149.610509,715,-9999.0,2021-02-01
NEON.D18.TOOL.DP1.00033,68.66109,-149.37047,827,-9999.0,2021-02-01
NEON.D19.BONA.DP1.00033,65.15401,-147.50258,233,-9999.0,2021-02-01
NEON.D19.CARI.DP1.20002,65.15306,-147.50246,229,-9999.0,2021-02-01
NEON.D19.DEJU.DP1.00033,63.88112,-145.75136,504,-9999.0,2021-02-01
NEON.D19.HEAL.DP1.00033,63.87569,-149.21334,409,-9999.0,2021-02-01
NEON.D20.PUUM.DP1.00033,19.55309,-155.31731,1683,-9999.0,2021-02-01
nevcansnk3a,39.0099,-114.3095,3063,-2.303,2021-02-01
nevcanspg1a,38.9253,-114.4082,1792,-2.659,2021-02-01
nevcanspg2a,38.8921,-114.3521,2203,-2.457,2021-02-01
nevcanspg3a,38.8898,-114.3314,2820,-2.107,2021-02-01
nevcanspg4a,38.9061,-114.3089,3360,-2.107,2021-02-01
ninemileprairie,40.86801886,-96.82208066,381,-0.685,2021-02-01
nist,39.139,-77.2125,100,0.686,2021-02-01
niwot3,40.03286358,-105.5469702,3050,-1.83,2021-02-01
niwot5,40.03286358,-105.5469702,2993,-1.83,2021-02-01
northattleboroma,41.98369,-71.31056,60,-0.469,2021-02-01
northinletsaltmarsh,33.3455,-79.1957,1,0.465,2021-02-01
oakville,47.899334,-97.316139,268,-0.59,2021-02-01
oregonMP,44.4523,-121.5574,1253,-0.951,2021-02-01
oregonYP,44.32384,-121.605993,977,-0.613,2021-02-01
oregonYPbud,44.3238,-121.606,977,-0.613,2021-02-01
othshardwood,44.934805,-68.6655,41,-0.415,2021-02-01
othssoftwood,44.934527,-68.664888,41,-0.415,2021-02-01
pace,37.9229,-78.2739,100,1.691,2021-02-01
parkschoolbuffalo,42.9637,-78.7834,205,-0.664,2021-02-01
piedmontalpasture2,33.8875,-85.6935,238,0.393,2021-02-01
portal,31.9385,-109.0823,1330,-1.343,2021-02-01
proctor,44.525,-72.866,403,-1.832,2021-02-01
readingma,42.5304,-71.1272,100,-0.84,2021-02-01
robinson,37.4671,-83.1576,483,0.78,2021-02-01
robinson2,37.4671,-83.1576,483,0.78,2021-02-01
rosemountcons,44.6946,-93.0578,283,-0.239,2021-02-01
rosemountconv,44.691,-93.0576,283,-0.239,2021-02-01
rosemountnprs,44.6781,-93.0723,274,-0.139,2021-02-01
russellsage,32.456961,-91.974322,20,0.78,2021-02-01
sagehen,39.4315,-120.2398,1934,-0.649,2021-02-01
sagehen2,39.4307,-120.2407,1937,-0.649,2021-02-01
sagehen3,39.4311,-120.2405,1935,-0.649,2021-02-01
sanford,42.726777,-84.464482,268,0.272,2021-02-01
santacruz1,36.9741,-122.0308,11,-0.604,2021-02-01
santacruz2,36.9741,-122.0308,11,-0.604,2021-02-01
santaluciapreserve1,36.5265,-121.8682,500,-0.159,2021-02-01
