site,lat,lon,elev,values,date
alligatorriver,35.7879,-75.9038,1,0.421,2024-01-01
arbutuslake,43.98207,-74.23322,535,1.488,2024-01-01
arbutuslakeinlet,43.99336,-74.24527,527,1.488,2024-01-01
archboldavir,27.176064,-81.21958,8,1.486,2024-01-01
archboldavirx,27.166627,-81.219828,8,1.486,2024-01-01
archboldbahia,27.1656,-81.216112,8,1.486,2024-01-01
archboldpnot,27.187948,-81.200345,9,1.486,2024-01-01
archboldpnotx,27.180677,-81.20068,9,1.486,2024-01-01
arkansascornsoy,34.416,-91.6723,61,-1.165,2024-01-01
arsbrooks10,41.9749,-93.6905,312,0.087,2024-01-01
arsbrooks11,41.9744,-93.6937,313,0.087,2024-01-01
arscolesnorth,42.4884,-93.5225,356,0.081,2024-01-01
arscolessouth,42.4816,-93.5235,352,0.081,2024-01-01
arsgacp1,31.5109,-83.6179,96,1.33,2024-01-01
arsgacp3,31.7563,-83.7516,139,0.779,2024-01-01
arsgacp4,31.7093,-83.7287,127,0.748,2024-01-01
arsgreatbasinltar098,43.1675,-116.7132,1426,1.373,2024-01-01
arsgreatbasinltar117,43.1432,-116.7357,1625,0.538,2024-01-01
arsgreatbasinltar177,43.0645,-116.7484,2114,0.848,2024-01-01
arsltarmdcr,39.0587,-75.8513,17,2.203,2024-01-01
arsltarmdcrnatw,39.0575,-75.7531,16,2.263,2024-01-01
arsltarmdcrprcw,39.0667,-75.7609,17,2.263,2024-01-01
arsltarmdcrresw,39.0549,-75.7532,16,2.263,2024-01-01
arsltarucbec1,40.7537,-78.0057,400,0.65,2024-01-01
arsltarucbec2,40.7558,-77.9999,396,0.65,2024-01-01
arsmnswanlake1,45.684508,-95.799703,370,2.346,2024-01-01
arsmorris1,45.6167,-96.1269,341,2.226,2024-01-01
arsmorris2,45.627,-96.127,338,2.226,2024-01-01
arsmorris3,45.6091,-96.1265,342,2.226,2024-01-01
arsope3ltar,39.0309,-76.8442,41,2.034,2024-01-01
ashburnham,42.6029,-71.926,292,1.648,2024-01-01
asuhighlands,36.2076,-81.7032,1016,1.839,2024-01-01
austincary,29.738,-82.2188,44,1.595,2024-01-01
barrow,71.28007453,-156.6091492,5,-9999.0,2024-01-01
bartlettir,44.0646,-71.2881,268,2.046,2024-01-01
bigtraillake,64.9194,-147.822,190,-9999.0,2024-01-01
bitterbrush001,48.154,-119.9456,667,-0.542,2024-01-01
blackrockforest,41.3974,-74.0239,427,1.973,2024-01-01
bnzblackspruce,64.6963,-148.3235,102,-9999.0,2024-01-01
bnzrichfen,64.70134,-148.31195,97,-9999.0,2024-01-01
bnzthermokarstbog,64.6955,-148.3208,104,-9999.0,2024-01-01
boglakepeatland,47.5051,-93.4893,416,1.331,2024-01-01
bostoncommon,42.355912,-71.064145,10,1.705,2024-01-01
bostonu,42.35041,-71.10438,10,1.723,2024-01-01
bouldinalfalfa,38.0985,-121.4993,-5,-0.325,2024-01-01
bouldincorn,38.109,-121.535,-5,-0.225,2024-01-01
bozeman,45.783056,-110.777778,2332,-1.399,2024-01-01
brackishimpoundment,33.2015,-79.2973,1,2.689,2024-01-01
bullshoals,36.562833,-93.06663,260,-1.201,2024-01-01
burnssagebrush,43.4712,-119.6909,1398,-0.151,2024-01-01
butte,45.95304,-112.47964,1682,-1.117,2024-01-01
butterice,39.5793,-121.858,33,-0.432,2024-01-01
cafboydnorthltar01,46.755104,-117.126052,795,0.676,2024-01-01
cafboydsouthltar01,46.751809,-117.128502,795,0.676,2024-01-01
cafcookeastltar01,46.78152,-117.0821,794,0.428,2024-01-01
cafcookwestltar01,46.784037,-117.09083,807,0.428,2024-01-01
caryinstitute,41.7839,-73.7341,127,1.937,2024-01-01
centralredwoods1,38.632272,-123.301511,200,0.418,2024-01-01
centralredwoods2,38.632272,-123.301511,200,0.418,2024-01-01
cperagm,40.8402,-104.7672,1644,-1.895,2024-01-01
cperheavy,40.8153,-104.7386,1652,-1.853,2024-01-01
cpertgm,40.833,-104.76,1644,-1.851,2024-01-01
cperuvb,40.8055764,-104.7558542,1641,-1.851,2024-01-01
cuny,40.8162,-73.9507,42,1.674,2024-01-01
doverdesaltmarsh,39.0888,-75.4368,0,2.62,2024-01-01
downerwoods,43.07938,-87.88076,213,0.114,2024-01-01
dukehw,35.973583,-79.100371,400,1.968,2024-01-01
ecb1,41.5348,-84.8068,275,-1.089,2024-01-01
ecb2,41.5321,-84.808,275,-1.089,2024-01-01
ecb4,41.1796,-83.0604,240,-0.777,2024-01-01
elverde,18.320654,-65.8199,312,-9999.0,2024-01-01
flagstaff,35.17961521,-111.6049032,6983,-0.384,2024-01-01
flagstaff2,35.179225,-111.604506,6983,-0.384,2024-01-01
flagstaffchimneysprings,35.257296,-111.678542,2250,-0.482,2024-01-01
forbes,39.232,-121.2972,360,-0.683,2024-01-01
fortpaynealpasture1,34.3824,-85.6428,405,0.329,2024-01-01
fortpaynealpasture2,34.3824,-85.6447,403,0.329,2024-01-01
gcesapelo,31.4440444,-81.283528,0,1.18,2024-01-01
gilberttract,38.0015,-121.6691,6,-0.093,2024-01-01
glees,41.3644,-106.2394,3150,-0.237,2024-01-01
glennorganicrice,39.6805,-122.0026,2,-0.04,2024-01-01
glennrice,39.5944,-122.0253,36,0.147,2024-01-01
goodnow,43.96018,-74.20994,820,1.611,2024-01-01
goodwater,39.22848,-92.11936,264,-0.019,2024-01-01
goodwaterbau,39.23115,-92.15216,274,-0.036,2024-01-01
grandteton,43.915017,-110.578036,2054,-0.784,2024-01-01
grca1pj,36.0241,-112.2211,1978,-0.2,2024-01-01
greenridge1,39.6905,-78.4067,285,0.872,2024-01-01
harvard,42.5378,-72.1715,340,1.732,2024-01-01
harvardbarn,42.53532,-72.1899,350,1.624,2024-01-01
harvardbarn2,42.53532,-72.1899,350,1.624,2024-01-01
harvardems2,42.5378,-72.1715,340,1.732,2024-01-01
harvardfarmnorth,42.520465,-72.182242,355,1.624,2024-01-01
harvardfarmsouth,42.522466,-72.182339,355,1.624,2024-01-01
harvardgarden,42.5291,-72.1863,335,1.624,2024-01-01
harvardhemlock,42.539,-72.18,355,1.624,2024-01-01
harvardhemlock2,42.539407,-72.177976,355,1.732,2024-01-01
harvardlph,42.542,-72.185,380,1.624,2024-01-01
hawbeckereddy,40.6608,-77.848849,310,1.068,2024-01-01
hobcawclearcutlongleaf,33.3486,-79.232,4,2.497,2024-01-01
hobcawmaturelongleaf,33.3242,-79.2439,8,2.497,2024-01-01
homesteadsprings,37.2009,-92.9937,452,-1.041,2024-01-01
howland1,45.2041,-68.7403,80,1.502,2024-01-01
howland2,45.2128,-68.7418,79,1.502,2024-01-01
hubbardbrook,43.9438,-71.701,253,1.832,2024-01-01
humnokericea,34.585192,-91.751684,61,-1.073,2024-01-01
humnokericec,34.588853,-91.7516729,70,-1.073,2024-01-01
huyckpreserveny,42.5266,-74.1587,478,1.559,2024-01-01
hwmo1,20.0212,-155.7331,585,-9999.0,2024-01-01
hwmo2,19.9766,-155.8298,12,-9999.0,2024-01-01
hwmo5,20.1117,-155.8151,635,-9999.0,2024-01-01
ibp,32.589,-106.847,1325,1.301,2024-01-01
imcrkfen,68.60583,-149.31101,900,-9999.0,2024-01-01
imcrkridge0,68.60681,-149.2958,951,-9999.0,2024-01-01
imcrkridge1,68.60681,-149.2958,951,-9999.0,2024-01-01
imcrktussock,68.60633,-149.30408,918,-9999.0,2024-01-01
jasperridge,37.402028,-122.22104,197,-0.144,2024-01-01
jerbajada,32.57992,-106.633793,1402,0.979,2024-01-01
jergrassland,32.5833,-106.8333,1331,1.301,2024-01-01
jernort,32.619,-106.788,1328,1.275,2024-01-01
jernovel,32.6335,-106.8334,1324,1.254,2024-01-01
jernwern,32.6271,-106.7387,1325,1.257,2024-01-01
jersand,32.515,-106.798,1363,1.112,2024-01-01
jershrubland,32.6502,-106.8334,1328,1.237,2024-01-01
junipersavannah,34.4254,-105.8615,1931,1.396,2024-01-01
kamuela,20.015008,-155.661326,850,-9999.0,2024-01-01
kamuela2,20.014959,-155.661139,830,-9999.0,2024-01-01
kansas,39.0561,-95.1907,333,0.527,2024-01-01
kelloggcorn,42.437536,-85.3225472,288,-0.589,2024-01-01
kempnrs,45.83992,-89.67755,539,-1.199,2024-01-01
kendall,31.73652,-109.94185,1529,0.596,2024-01-01
konza,39.0824,-96.5603,443,0.665,2024-01-01
laupahoehoe,19.9322,-155.2912,1145,-9999.0,2024-01-01
ldeocam,41.0039,-73.9053,121,2.051,2024-01-01
lostcreek,46.0827,-89.9792,480,-0.548,2024-01-01
luckyhills,31.743896,-110.052023,1366,0.613,2024-01-01
macleish,42.4484,-72.6804,251,1.664,2024-01-01
macordway,44.8106,-93.0272,264,0.731,2024-01-01
mandanh5,46.775423,-100.95109,593,-0.481,2024-01-01
mandani2,46.7614,-100.9257,590,-0.485,2024-01-01
manilacotton,35.8872,-90.1371,73,-1.442,2024-01-01
marena,36.06434,-97.21271,327,0.867,2024-01-01
mead1,41.1651,-96.4766,361,0.324,2024-01-01
mead2,41.1649,-96.4701,362,0.324,2024-01-01
mead3,41.1797,-96.4397,363,0.152,2024-01-01
meadpasture,41.1447,-96.4616,356,0.262,2024-01-01
meadpasturese,41.1447,-96.4616,356,0.262,2024-01-01
meadpasturesw,41.1447,-96.4616,356,0.262,2024-01-01
missouriozarks,38.7441,-92.2,219,-0.329,2024-01-01
morganmonroe,39.3231,-86.4131,275,-1.341,2024-01-01
morganmonroe2,39.3231,-86.4131,275,-1.341,2024-01-01
nahuku,19.415187,-155.238383,1202,-9999.0,2024-01-01
nationalelkrefuge,43.488931,-110.737824,1899,-0.5,2024-01-01
ncssm,36.018446,-78.92075,175,1.997,2024-01-01
NEON.D01.BART.DP1.00033,44.063869,-71.287375,285,2.046,2024-01-01
NEON.D01.HARV.DP1.00033,42.536911,-72.17265,359,1.732,2024-01-01
NEON.D01.HOPB.DP1.20002,42.471786,-72.329627,203,1.462,2024-01-01
NEON.D02.BLAN.DP1.00033,39.033698,-78.041788,162,1.341,2024-01-01
NEON.D02.LEWI.DP1.20002,39.09564,-77.98322,152,1.272,2024-01-01
NEON.D02.POSE.DP1.20002,38.89332,-78.14678,293,1.282,2024-01-01
NEON.D02.SCBI.DP1.00033,38.892925,-78.139494,364,1.366,2024-01-01
NEON.D02.SERC.DP1.00033,38.89008,-76.56001,30,2.326,2024-01-01
NEON.D03.BARC.DP1.20002,29.676473,-82.009089,35,1.109,2024-01-01
NEON.D03.DSNY.DP1.00033,28.12505,-81.43619,22,0.591,2024-01-01
NEON.D03.FLNT.DP1.20002,31.185424,-84.437403,27,1.554,2024-01-01
NEON.D03.JERC.DP1.00033,31.194839,-84.468623,58,1.505,2024-01-01
NEON.D03.OSBS.DP1.00033,29.689282,-81.993431,56,1.033,2024-01-01
NEON.D03.SUGG.DP1.20002,29.687054,-82.016171,28,1.033,2024-01-01
NEON.D04.CUPE.DP1.20002,18.11352,-66.98676,164,-9999.0,2024-01-01
NEON.D04.GUAN.DP1.00033,17.96955,-66.8687,136,-9999.0,2024-01-01
NEON.D04.GUIL.DP1.20002,18.1741,-66.79851,564,-9999.0,2024-01-01
NEON.D04.LAJA.DP1.00033,18.021261,-67.076889,22,-9999.0,2024-01-01
NEON.D05.CRAM.DP1.20002,46.21111,-89.47825,518,-0.857,2024-01-01
NEON.D05.LIRO.DP1.20002,45.998269,-89.704767,495,-0.987,2024-01-01
NEON.D05.STEI.DP1.00033,45.50894,-89.58637,476,-1.349,2024-01-01
NEON.D05.TREE.DP1.00033,45.49373,-89.58572,474,-1.349,2024-01-01
NEON.D05.UNDE.DP1.00033,46.23391,-89.537254,529,-0.913,2024-01-01
NEON.D06.KING.DP1.20002,39.10506,-96.60336,339,0.686,2024-01-01
NEON.D06.KONA.DP1.00033,39.110446,-96.612935,443,0.686,2024-01-01
NEON.D06.KONZ.DP1.00033,39.10077,-96.56309,415,0.665,2024-01-01
NEON.D06.MCDI.DP1.20002,38.94428,-96.44197,376,0.423,2024-01-01
NEON.D06.UKFS.DP1.00033,39.040431,-95.19215,330,0.527,2024-01-01
NEON.D07.GRSM.DP1.00033,35.68896,-83.50195,589,0.329,2024-01-01
NEON.D07.LECO.DP1.20002,35.69043,-83.50379,578,0.329,2024-01-01
NEON.D07.MLBS.DP1.00033,37.378314,-80.524847,1177,1.383,2024-01-01
NEON.D07.ORNL.DP1.00033,35.964128,-84.282588,351,0.446,2024-01-01
NEON.D07.WALK.DP1.20002,35.95947,-84.28041,274,0.824,2024-01-01
NEON.D08.BLWA.DP1.20002,32.541529,-87.798151,23,-0.974,2024-01-01
NEON.D08.DELA.DP1.00033,32.541727,-87.803877,36,-0.974,2024-01-01
NEON.D08.LENO.DP1.00033,31.85388,-88.16122,10,-1.052,2024-01-01
NEON.D08.MAYF.DP1.20002,32.959657,-87.408128,93,-0.755,2024-01-01
NEON.D08.TALL.DP1.00033,32.95047,-87.393259,167,-0.755,2024-01-01
NEON.D08.TOMB.DP1.20002,31.853431,-88.158872,10,-1.052,2024-01-01
NEON.D09.DCFS.DP1.00033,47.161647,-99.106556,574,-0.271,2024-01-01
NEON.D09.NOGP.DP1.00033,46.76972,-100.91535,589,-0.485,2024-01-01
NEON.D09.PRLA.DP1.20002,47.15909,-99.11388,563,-0.276,2024-01-01
NEON.D09.PRPO.DP1.20002,47.12999,-99.250551,587,-0.306,2024-01-01
NEON.D09.WOOD.DP1.00033,47.1282,-99.241334,585,-0.306,2024-01-01
NEON.D10.ARIK.DP1.20002,39.758246,-102.447103,1188,0.339,2024-01-01
NEON.D10.CPER.DP1.00033,40.81553,-104.7456,1600,-1.851,2024-01-01
NEON.D10.HQTW.DP1.00033,40.016704,-105.245612,1601,0.354,2024-01-01
NEON.D10.RMNP.DP1.00033,40.275903,-105.545955,2751,-0.104,2024-01-01
NEON.D10.STER.DP1.00033,40.461894,-103.02929,1366,-0.978,2024-01-01
NEON.D11.BLUE.DP1.20002,34.444218,-96.624201,288,0.226,2024-01-01
NEON.D11.CLBJ.DP1.00033,33.40123,-97.57,279,0.699,2024-01-01
NEON.D11.OAES.DP1.00033,35.41059,-99.05879,520,1.254,2024-01-01
NEON.D11.PRIN.DP1.20002,33.37859,-97.78226,255,0.167,2024-01-01
NEON.D12.BLDE.DP1.20002,44.95011,-110.58715,2035,-1.308,2024-01-01
NEON.D12.YELL.DP1.00033,44.95348,-110.53914,2130,-1.564,2024-01-01
NEON.D13.COMO.DP1.20002,40.03496,-105.54487,3036,1.281,2024-01-01
NEON.D13.MOAB.DP1.00033,38.24833,-109.38827,1803,-0.202,2024-01-01
NEON.D13.NIWO.DP1.00033,40.05425,-105.58237,3493,0.98,2024-01-01
NEON.D13.WLOU.DP1.20002,39.891366,-105.915395,2920,0.181,2024-01-01
NEON.D14.JORN.DP1.00033,32.59068,-106.84254,1321,1.301,2024-01-01
NEON.D14.SRER.DP1.00033,31.91068,-110.83549,999,0.634,2024-01-01
NEON.D14.SYCA.DP1.20002,33.749057,-111.506903,644,0.064,2024-01-01
NEON.D15.ONAQ.DP1.00033,40.177599,-112.452452,1655,-0.854,2024-01-01
NEON.D15.REDB.DP1.20002,40.783934,-111.797887,1696,-0.158,2024-01-01
NEON.D16.ABBY.DP1.00033,45.76243,-122.33033,390,0.666,2024-01-01
NEON.D16.MART.DP1.20002,45.791248,-121.931959,354,0.573,2024-01-01
NEON.D16.MCRA.DP1.20002,44.259598,-122.165554,880,0.082,2024-01-01
NEON.D16.WREF.DP1.00033,45.82049,-121.95191,368,0.76,2024-01-01
NEON.D17.BIGC.DP1.20002,37.059719,-119.257549,1133,-0.934,2024-01-01
NEON.D17.SJER.DP1.00033,37.10878,-119.73228,398,-1.123,2024-01-01
NEON.D17.SOAP.DP1.00033,37.03337,-119.26219,1210,-0.991,2024-01-01
NEON.D17.TEAK.DP1.00033,37.00583,-119.00602,2149,-0.83,2024-01-01
NEON.D17.TECR.DP1.20002,36.955931,-119.027363,2053,-0.91,2024-01-01
NEON.D18.BARR.DP1.00033,71.28241,-156.61936,7,-9999.0,2024-01-01
NEON.D18.OKSR.DP1.20002,68.669753,-149.143018,773,-9999.0,2024-01-01
NEON.D18.TOOK.DP1.20002,68.629562,-149.610509,715,-9999.0,2024-01-01
NEON.D18.TOOL.DP1.00033,68.66109,-149.37047,827,-9999.0,2024-01-01
NEON.D19.BONA.DP1.00033,65.15401,-147.50258,233,-9999.0,2024-01-01
NEON.D19.CARI.DP1.20002,65.15306,-147.50246,229,-9999.0,2024-01-01
NEON.D19.DEJU.DP1.00033,63.88112,-145.75136,504,-9999.0,2024-01-01
NEON.D19.HEAL.DP1.00033,63.87569,-149.21334,409,-9999.0,2024-01-01
NEON.D20.PUUM.DP1.00033,19.55309,-155.31731,1683,-9999.0,2024-01-01
nevcansnk3a,39.0099,-114.3095,3063,-0.964,2024-01-01
nevcanspg1a,38.9253,-114.4082,1792,-0.497,2024-01-01
nevcanspg2a,38.8921,-114.3521,2203,-0.668,2024-01-01
nevcanspg3a,38.8898,-114.3314,2820,-0.889,2024-01-01
nevcanspg4a,38.9061,-114.3089,3360,-0.889,2024-01-01
ninemileprairie,40.86801886,-96.82208066,381,0.436,2024-01-01
nist,39.139,-77.2125,100,1.938,2024-01-01
niwot3,40.03286358,-105.5469702,3050,1.281,2024-01-01
niwot5,40.03286358,-105.5469702,2993,1.281,2024-01-01
northattleboroma,41.98369,-71.31056,60,1.91,2024-01-01
northinletsaltmarsh,33.3455,-79.1957,1,2.394,2024-01-01
oakville,47.899334,-97.316139,268,0.328,2024-01-01
oregonMP,44.4523,-121.5574,1253,-0.103,2024-01-01
oregonYP,44.32384,-121.605993,977,0.181,2024-01-01
oregonYPbud,44.3238,-121.606,977,0.181,2024-01-01
othshardwood,44.934805,-68.6655,41,1.422,2024-01-01
othssoftwood,44.934527,-68.664888,41,1.422,2024-01-01
pace,37.9229,-78.2739,100,1.137,2024-01-01
parkschoolbuffalo,42.9637,-78.7834,205,0.133,2024-01-01
piedmontalpasture2,33.8875,-85.6935,238,0.001,2024-01-01
portal,31.9385,-109.0823,1330,0.236,2024-01-01
proctor,44.525,-72.866,403,1.796,2024-01-01
readingma,42.5304,-71.1272,100,1.923,2024-01-01
robinson,37.4671,-83.1576,483,-1.011,2024-01-01
robinson2,37.4671,-83.1576,483,-1.011,2024-01-01
rosemountcons,44.6946,-93.0578,283,0.637,2024-01-01
rosemountconv,44.691,-93.0576,283,0.637,2024-01-01
rosemountnprs,44.6781,-93.0723,274,0.651,2024-01-01
russellsage,32.456961,-91.974322,20,-1.268,2024-01-01
sagehen,39.4315,-120.2398,1934,-0.616,2024-01-01
sagehen2,39.4307,-120.2407,1937,-0.616,2024-01-01
sagehen3,39.4311,-120.2405,1935,-0.616,2024-01-01
sanford,42.726777,-84.464482,268,-0.17,2024-01-01
santacruz1,36.9741,-122.0308,11,-0.03,2024-01-01
santacruz2,36.9741,-122.0308,11,-0.03,2024-01-01
santaluciapreserve1,36.5265,-121.8682,500,0.334,2024-01-01
santaluciapreserve2,36.5265,-121.8682,500,0.334,2024-01-01
segaarboretum10,35.16209,-111.73151,2170,-0.47,2024-01-01
segaarboretum2,35.16209,-111.73151,2170,-0.47,2024-01-01
segaarboretum3,35.16209,-111.73151,2170,-0.47,2024-01-01
segaarboretum4,35.16214,-111.73153,2170,-0.47,2024-01-01
segaarboretum6,35.16209,-111.73151,2170,-0.47,2024-01-01
segaarboretum9,35.16222,-111.73158,2170,-0.47,2024-01-01
segaarboretumforest,35.1613,-111.7359,2173,-0.47,2024-01-01
segaarboretummeadow,35.1621,-111.7316,2157,-0.47,2024-01-01
segablackpoint,35.6814,-111.4754,1566,-0.309,2024-01-01
segabluechute,35.5876,-111.9716,1930,-0.176,2024-01-01
segabluechute1,35.58759,-111.97115,1931,-0.176,2024-01-01
segabluechute2,35.58759,-111.97115,1931,-0.176,2024-01-01
segabluechute4,35.58759,-111.9716,1931,-0.176,2024-01-01
segabluechute6,35.58759,-111.97115,1931,-0.176,2024-01-01
segabluechute7,35.58759,-111.97115,1931,-0.176,2024-01-01
segabluechute8,35.58759,-111.97115,1931,-0.176,2024-01-01
segabradshaw,34.9109,-111.9285,1402,-0.378,2024-01-01
segahartprairie,35.3536,-111.7324,2585,-0.714,2024-01-01
segalcr,35.7231,-111.321,1275,-0.171,2024-01-01
segalcr2,35.7069,-111.36,1495,-0.308,2024-01-01
segalittlemountain,36.5865,-112.3634,2276,-0.768,2024-01-01
segasoapcreek,36.751,-111.716,1233,-0.134,2024-01-01
segawhitepockets,36.6081,-112.4082,2057,-0.65,2024-01-01
sevilletagrass,34.360444,-106.700186,1600,1.19,2024-01-01
sevilletanewgrass,34.358,-106.6799,1603,1.088,2024-01-01
sevilletashrub,34.334956,-106.744469,1603,1.186,2024-01-01
sevMRME10L,34.3438,-106.7269,1604,1.192,2024-01-01
sevMRME11C,34.3438,-106.7268,1604,1.192,2024-01-01
sevMRME1S,34.3442,-106.7272,1604,1.192,2024-01-01
sevpjrm12,34.38615,-106.52621,1905,1.121,2024-01-01
sevpjrm13,34.38631,-106.52791,1914,1.121,2024-01-01
shalehillsczo,40.6658,-77.9041,310,1.075,2024-01-01
shenandoah,38.6167,-78.35,1037,0.808,2024-01-01
silverton,44.9986,-122.6948,347,0.257,2024-01-01
siwetland,38.0369,-121.7546,-5,0.084,2024-01-01
slatefloodplain,38.9094,-107.0282,2725,-0.49,2024-01-01
snodgrass1,38.92619636,-106.9714376,3023,-0.284,2024-01-01
snodgrass2,38.92619636,-106.9714376,3023,-0.284,2024-01-01
snodgrass3,38.92839978,-106.9781196,3141,-0.284,2024-01-01
snodgrass4,38.92839978,-106.9781196,3141,-0.284,2024-01-01
snodgrass5,38.92744789,-106.9785209,3152,-0.284,2024-01-01
snodgrass6,38.92744789,-106.9785209,3152,-0.284,2024-01-01
snodgrass7,38.93142134,-106.9852388,3363,-0.39,2024-01-01
snodgrass8,38.93142134,-106.9852388,3363,-0.39,2024-01-01
southerngreatplains,36.6058,-97.4888,314,0.565,2024-01-01
springfieldma,42.135162,-72.585972,56,1.868,2024-01-01
spruceA0EMI,47.5049,-93.4541,413,1.345,2024-01-01
spruceA0EMT,47.5049,-93.4541,418,1.345,2024-01-01
spruceA0P07,47.50493,-93.45314,413,1.345,2024-01-01
spruceA0P07SH,47.50493,-93.45314,413,1.345,2024-01-01
spruceA0P21,47.50625,-93.45275,413,1.345,2024-01-01
spruceA0P21SH,47.50625,-93.45275,413,1.345,2024-01-01
srg,31.7894,-110.8276,1281,0.398,2024-01-01
srm,31.8214,-110.8661,1116,0.667,2024-01-01
statenrice1,38.1235,-121.549,-5,-0.184,2024-01-01
stjones,39.088222,-75.43725,2,2.62,2024-01-01
sweetbriar,37.57341,-79.08482,242,0.942,2024-01-01
sweetbriarclearcut,37.5753,-79.0872,242,0.942,2024-01-01
sweetbriargrass,37.5605,-79.0884,240,0.942,2024-01-01
sylvania,46.242,-89.348,540,-0.881,2024-01-01
templefieldstation1,40.1667,-75.1894,105,2.174,2024-01-01
tfforest,43.1086,-70.9505,23,1.637,2024-01-01
tidmarshplymouth,41.9157,-70.5754,9,0.928,2024-01-01
tonzi,38.43091667,-120.9658861,177,-0.625,2024-01-01
townsenddemeadow,39.3917,-75.6281,11,2.157,2024-01-01
tsubiology,36.1671,-86.8295,164,-1.469,2024-01-01
tsubiology2,36.1171,-86.8295,100,-1.393,2024-01-01
tuckerprairie,38.9491,-91.9952,274,0.146,2024-01-01
twodafo,29.1658,-95.829,16,-0.02,2024-01-01
tworfaa,31.4777,-96.8882,167,0.153,2024-01-01
tworfpr,31.4802,-96.8826,162,0.115,2024-01-01
tworfta,31.4693,-96.8864,173,0.153,2024-01-01
twosfpr,30.6176,-97.2938,157,0.127,2024-01-01
ucnrsanzaborrego,33.2401,-116.3886,214,0.914,2024-01-01
ufona,27.3836,-81.950856,25,0.132,2024-01-01
uiefmaize2,40.0628,-88.1961,224,0.001,2024-01-01
uiefmiscanthus2,40.0628,-88.1984,221,0.001,2024-01-01
uiefprairie2,40.0637,-88.1973,224,0.001,2024-01-01
uiefsorghum,40.0065,-88.2032,224,-0.138,2024-01-01
uiefswitchgrass2,40.0637,-88.1973,224,0.001,2024-01-01
umichbiological,45.55984,-84.71382,230,-0.481,2024-01-01
umichbiological2,45.5625,-84.6976,240,-0.606,2024-01-01
unca,35.5951,-82.5515,650,1.089,2024-01-01
usgseros,43.7343,-96.6234,448,0.788,2024-01-01
usmpj,34.43845,-106.2543606,2126,1.34,2024-01-01
usof5,35.7297,-90.0406,70,-1.65,2024-01-01
usof6,35.7333,-90.0403,70,-1.65,2024-01-01
uwmfieldsta,43.38709,-88.0229,265,-0.342,2024-01-01
vaira,38.41328056,-120.9506361,129,-0.625,2024-01-01
vallesburnedconifer,35.8884,-106.5321,3043,0.563,2024-01-01
vallesmixedconifer,35.9192,-106.6142,2752,0.473,2024-01-01
vallesponderosapine,35.864,-106.5964,2501,0.562,2024-01-01
waahila,21.3017,-157.8152,55,-9999.0,2024-01-01
warrenwilson,35.6069,-82.4421,2198,1.272,2024-01-01
willamettepoplar,44.1368,-123.1823,112,0.177,2024-01-01
willowcreek,45.805986,-90.07912,521,-1.136,2024-01-01
windriver,45.8212833,-121.9520833,371,0.76,2024-01-01
windriverunderstory,45.8212833,-121.9520833,371,0.76,2024-01-01
wolfesneckfarm,43.8305,-70.0715,16,1.635,2024-01-01
worcester,42.2697,-71.8428,185,1.963,2024-01-01
alligatorriver,35.7879,-75.9038,1,0.522,2024-01-08
arbutuslake,43.98207,-74.23322,535,0.911,2024-01-08
arbutuslakeinlet,43.99336,-74.24527,527,0.911,2024-01-08
archboldavir,27.176064,-81.21958,8,1.528,2024-01-08
archboldavirx,27.166627,-81.219828,8,1.528,2024-01-08
archboldbahia,27.1656,-81.216112,8,1.528,2024-01-08
archboldpnot,27.187948,-81.200345,9,1.528,2024-01-08
archboldpnotx,27.180677,-81.20068,9,1.528,2024-01-08
arkansascornsoy,34.416,-91.6723,61,-1.101,2024-01-08
arsbrooks10,41.9749,-93.6905,312,0.127,2024-01-08
arsbrooks11,41.9744,-93.6937,313,0.127,2024-01-08
arscolesnorth,42.4884,-93.5225,356,-0.008,2024-01-08
arscolessouth,42.4816,-93.5235,352,-0.008,2024-01-08
arsgacp1,31.5109,-83.6179,96,0.433,2024-01-08
arsgacp3,31.7563,-83.7516,139,0.032,2024-01-08
arsgacp4,31.7093,-83.7287,127,0.046,2024-01-08
arsgreatbasinltar098,43.1675,-116.7132,1426,-0.095,2024-01-08
arsgreatbasinltar117,43.1432,-116.7357,1625,-0.606,2024-01-08
arsgreatbasinltar177,43.0645,-116.7484,2114,-0.64,2024-01-08
arsltarmdcr,39.0587,-75.8513,17,2.182,2024-01-08
arsltarmdcrnatw,39.0575,-75.7531,16,2.242,2024-01-08
arsltarmdcrprcw,39.0667,-75.7609,17,2.242,2024-01-08
arsltarmdcrresw,39.0549,-75.7532,16,2.242,2024-01-08
arsltarucbec1,40.7537,-78.0057,400,0.414,2024-01-08
arsltarucbec2,40.7558,-77.9999,396,0.414,2024-01-08
arsmnswanlake1,45.684508,-95.799703,370,2.336,2024-01-08
arsmorris1,45.6167,-96.1269,341,2.161,2024-01-08
arsmorris2,45.627,-96.127,338,2.161,2024-01-08
arsmorris3,45.6091,-96.1265,342,2.161,2024-01-08
arsope3ltar,39.0309,-76.8442,41,1.809,2024-01-08
ashburnham,42.6029,-71.926,292,1.335,2024-01-08
asuhighlands,36.2076,-81.7032,1016,1.57,2024-01-08
austincary,29.738,-82.2188,44,1.584,2024-01-08
barrow,71.28007453,-156.6091492,5,-9999.0,2024-01-08
bartlettir,44.0646,-71.2881,268,1.978,2024-01-08
bigtraillake,64.9194,-147.822,190,-9999.0,2024-01-08
bitterbrush001,48.154,-119.9456,667,-1.343,2024-01-08
blackrockforest,41.3974,-74.0239,427,1.951,2024-01-08
bnzblackspruce,64.6963,-148.3235,102,-9999.0,2024-01-08
bnzrichfen,64.70134,-148.31195,97,-9999.0,2024-01-08
bnzthermokarstbog,64.6955,-148.3208,104,-9999.0,2024-01-08
boglakepeatland,47.5051,-93.4893,416,1.747,2024-01-08
bostoncommon,42.355912,-71.064145,10,1.281,2024-01-08
bostonu,42.35041,-71.10438,10,1.322,2024-01-08
bouldinalfalfa,38.0985,-121.4993,-5,-0.126,2024-01-08
bouldincorn,38.109,-121.535,-5,-0.063,2024-01-08
bozeman,45.783056,-110.777778,2332,-1.885,2024-01-08
brackishimpoundment,33.2015,-79.2973,1,2.653,2024-01-08
bullshoals,36.562833,-93.06663,260,-1.003,2024-01-08
burnssagebrush,43.4712,-119.6909,1398,-0.317,2024-01-08
butte,45.95304,-112.47964,1682,-0.773,2024-01-08
butterice,39.5793,-121.858,33,-0.208,2024-01-08
cafboydnorthltar01,46.755104,-117.126052,795,-0.571,2024-01-08
cafboydsouthltar01,46.751809,-117.128502,795,-0.571,2024-01-08
cafcookeastltar01,46.78152,-117.0821,794,-0.721,2024-01-08
cafcookwestltar01,46.784037,-117.09083,807,-0.721,2024-01-08
caryinstitute,41.7839,-73.7341,127,1.697,2024-01-08
centralredwoods1,38.632272,-123.301511,200,0.318,2024-01-08
centralredwoods2,38.632272,-123.301511,200,0.318,2024-01-08
cperagm,40.8402,-104.7672,1644,-1.095,2024-01-08
cperheavy,40.8153,-104.7386,1652,-1.097,2024-01-08
cpertgm,40.833,-104.76,1644,-1.07,2024-01-08
cperuvb,40.8055764,-104.7558542,1641,-1.07,2024-01-08
cuny,40.8162,-73.9507,42,1.598,2024-01-08
doverdesaltmarsh,39.0888,-75.4368,0,2.633,2024-01-08
downerwoods,43.07938,-87.88076,213,-0.682,2024-01-08
dukehw,35.973583,-79.100371,400,1.719,2024-01-08
ecb1,41.5348,-84.8068,275,-1.52,2024-01-08
ecb2,41.5321,-84.808,275,-1.52,2024-01-08
ecb4,41.1796,-83.0604,240,-1.194,2024-01-08
elverde,18.320654,-65.8199,312,-9999.0,2024-01-08
flagstaff,35.17961521,-111.6049032,6983,-0.203,2024-01-08
flagstaff2,35.179225,-111.604506,6983,-0.203,2024-01-08
flagstaffchimneysprings,35.257296,-111.678542,2250,-0.256,2024-01-08
forbes,39.232,-121.2972,360,-0.468,2024-01-08
fortpaynealpasture1,34.3824,-85.6428,405,0.095,2024-01-08
fortpaynealpasture2,34.3824,-85.6447,403,0.095,2024-01-08
gcesapelo,31.4440444,-81.283528,0,1.601,2024-01-08
gilberttract,38.0015,-121.6691,6,0.008,2024-01-08
glees,41.3644,-106.2394,3150,-1.464,2024-01-08
glennorganicrice,39.6805,-122.0026,2,0.159,2024-01-08
glennrice,39.5944,-122.0253,36,0.321,2024-01-08
goodnow,43.96018,-74.20994,820,1.0,2024-01-08
goodwater,39.22848,-92.11936,264,-0.401,2024-01-08
goodwaterbau,39.23115,-92.15216,274,-0.421,2024-01-08
grandteton,43.915017,-110.578036,2054,-1.649,2024-01-08
grca1pj,36.0241,-112.2211,1978,0.048,2024-01-08
greenridge1,39.6905,-78.4067,285,0.839,2024-01-08
harvard,42.5378,-72.1715,340,1.521,2024-01-08
harvardbarn,42.53532,-72.1899,350,1.376,2024-01-08
harvardbarn2,42.53532,-72.1899,350,1.376,2024-01-08
harvardems2,42.5378,-72.1715,340,1.521,2024-01-08
harvardfarmnorth,42.520465,-72.182242,355,1.376,2024-01-08
harvardfarmsouth,42.522466,-72.182339,355,1.376,2024-01-08
harvardgarden,42.5291,-72.1863,335,1.376,2024-01-08
harvardhemlock,42.539,-72.18,355,1.376,2024-01-08
harvardhemlock2,42.539407,-72.177976,355,1.521,2024-01-08
harvardlph,42.542,-72.185,380,1.376,2024-01-08
hawbeckereddy,40.6608,-77.848849,310,0.925,2024-01-08
hobcawclearcutlongleaf,33.3486,-79.232,4,2.475,2024-01-08
hobcawmaturelongleaf,33.3242,-79.2439,8,2.475,2024-01-08
homesteadsprings,37.2009,-92.9937,452,-1.011,2024-01-08
howland1,45.2041,-68.7403,80,1.493,2024-01-08
howland2,45.2128,-68.7418,79,1.493,2024-01-08
hubbardbrook,43.9438,-71.701,253,1.758,2024-01-08
humnokericea,34.585192,-91.751684,61,-1.066,2024-01-08
humnokericec,34.588853,-91.7516729,70,-1.066,2024-01-08
huyckpreserveny,42.5266,-74.1587,478,0.997,2024-01-08
hwmo1,20.0212,-155.7331,585,-9999.0,2024-01-08
hwmo2,19.9766,-155.8298,12,-9999.0,2024-01-08
hwmo5,20.1117,-155.8151,635,-9999.0,2024-01-08
ibp,32.589,-106.847,1325,1.67,2024-01-08
imcrkfen,68.60583,-149.31101,900,-9999.0,2024-01-08
imcrkridge0,68.60681,-149.2958,951,-9999.0,2024-01-08
imcrkridge1,68.60681,-149.2958,951,-9999.0,2024-01-08
imcrktussock,68.60633,-149.30408,918,-9999.0,2024-01-08
jasperridge,37.402028,-122.22104,197,0.042,2024-01-08
jerbajada,32.57992,-106.633793,1402,1.322,2024-01-08
jergrassland,32.5833,-106.8333,1331,1.67,2024-01-08
jernort,32.619,-106.788,1328,1.649,2024-01-08
jernovel,32.6335,-106.8334,1324,1.659,2024-01-08
jernwern,32.6271,-106.7387,1325,1.575,2024-01-08
jersand,32.515,-106.798,1363,1.453,2024-01-08
jershrubland,32.6502,-106.8334,1328,1.606,2024-01-08
junipersavannah,34.4254,-105.8615,1931,1.577,2024-01-08
kamuela,20.015008,-155.661326,850,-9999.0,2024-01-08
kamuela2,20.014959,-155.661139,830,-9999.0,2024-01-08
kansas,39.0561,-95.1907,333,0.818,2024-01-08
kelloggcorn,42.437536,-85.3225472,288,-1.341,2024-01-08
kempnrs,45.83992,-89.67755,539,-1.137,2024-01-08
kendall,31.73652,-109.94185,1529,0.887,2024-01-08
konza,39.0824,-96.5603,443,1.178,2024-01-08
laupahoehoe,19.9322,-155.2912,1145,-9999.0,2024-01-08
ldeocam,41.0039,-73.9053,121,2.005,2024-01-08
lostcreek,46.0827,-89.9792,480,-0.492,2024-01-08
luckyhills,31.743896,-110.052023,1366,0.931,2024-01-08
macleish,42.4484,-72.6804,251,1.483,2024-01-08
macordway,44.8106,-93.0272,264,0.575,2024-01-08
mandanh5,46.775423,-100.95109,593,-0.661,2024-01-08
mandani2,46.7614,-100.9257,590,-0.724,2024-01-08
manilacotton,35.8872,-90.1371,73,-1.436,2024-01-08
marena,36.06434,-97.21271,327,1.263,2024-01-08
mead1,41.1651,-96.4766,361,0.569,2024-01-08
mead2,41.1649,-96.4701,362,0.569,2024-01-08
mead3,41.1797,-96.4397,363,0.38,2024-01-08
meadpasture,41.1447,-96.4616,356,0.489,2024-01-08
meadpasturese,41.1447,-96.4616,356,0.489,2024-01-08
meadpasturesw,41.1447,-96.4616,356,0.489,2024-01-08
missouriozarks,38.7441,-92.2,219,-0.622,2024-01-08
morganmonroe,39.3231,-86.4131,275,-1.546,2024-01-08
morganmonroe2,39.3231,-86.4131,275,-1.546,2024-01-08
nahuku,19.415187,-155.238383,1202,-9999.0,2024-01-08
nationalelkrefuge,43.488931,-110.737824,1899,-1.434,2024-01-08
ncssm,36.018446,-78.92075,175,1.768,2024-01-08
NEON.D01.BART.DP1.00033,44.063869,-71.287375,285,1.978,2024-01-08
NEON.D01.HARV.DP1.00033,42.536911,-72.17265,359,1.521,2024-01-08
NEON.D01.HOPB.DP1.20002,42.471786,-72.329627,203,1.204,2024-01-08
NEON.D02.BLAN.DP1.00033,39.033698,-78.041788,162,0.882,2024-01-08
NEON.D02.LEWI.DP1.20002,39.09564,-77.98322,152,0.815,2024-01-08
NEON.D02.POSE.DP1.20002,38.89332,-78.14678,293,0.713,2024-01-08
NEON.D02.SCBI.DP1.00033,38.892925,-78.139494,364,0.794,2024-01-08
NEON.D02.SERC.DP1.00033,38.89008,-76.56001,30,2.254,2024-01-08
NEON.D03.BARC.DP1.20002,29.676473,-82.009089,35,1.066,2024-01-08
NEON.D03.DSNY.DP1.00033,28.12505,-81.43619,22,0.533,2024-01-08
NEON.D03.FLNT.DP1.20002,31.185424,-84.437403,27,0.209,2024-01-08
NEON.D03.JERC.DP1.00033,31.194839,-84.468623,58,0.198,2024-01-08
NEON.D03.OSBS.DP1.00033,29.689282,-81.993431,56,1.013,2024-01-08
NEON.D03.SUGG.DP1.20002,29.687054,-82.016171,28,1.013,2024-01-08
NEON.D04.CUPE.DP1.20002,18.11352,-66.98676,164,-9999.0,2024-01-08
NEON.D04.GUAN.DP1.00033,17.96955,-66.8687,136,-9999.0,2024-01-08
NEON.D04.GUIL.DP1.20002,18.1741,-66.79851,564,-9999.0,2024-01-08
NEON.D04.LAJA.DP1.00033,18.021261,-67.076889,22,-9999.0,2024-01-08
NEON.D05.CRAM.DP1.20002,46.21111,-89.47825,518,-0.648,2024-01-08
NEON.D05.LIRO.DP1.20002,45.998269,-89.704767,495,-0.887,2024-01-08
NEON.D05.STEI.DP1.00033,45.50894,-89.58637,476,-1.328,2024-01-08
NEON.D05.TREE.DP1.00033,45.49373,-89.58572,474,-1.328,2024-01-08
NEON.D05.UNDE.DP1.00033,46.23391,-89.537254,529,-0.645,2024-01-08
NEON.D06.KING.DP1.20002,39.10506,-96.60336,339,1.203,2024-01-08
NEON.D06.KONA.DP1.00033,39.110446,-96.612935,443,1.203,2024-01-08
NEON.D06.KONZ.DP1.00033,39.10077,-96.56309,415,1.178,2024-01-08
NEON.D06.MCDI.DP1.20002,38.94428,-96.44197,376,0.951,2024-01-08
NEON.D06.UKFS.DP1.00033,39.040431,-95.19215,330,0.818,2024-01-08
NEON.D07.GRSM.DP1.00033,35.68896,-83.50195,589,-0.745,2024-01-08
NEON.D07.LECO.DP1.20002,35.69043,-83.50379,578,-0.745,2024-01-08
NEON.D07.MLBS.DP1.00033,37.378314,-80.524847,1177,0.997,2024-01-08
NEON.D07.ORNL.DP1.00033,35.964128,-84.282588,351,-0.433,2024-01-08
NEON.D07.WALK.DP1.20002,35.95947,-84.28041,274,-0.301,2024-01-08
NEON.D08.BLWA.DP1.20002,32.541529,-87.798151,23,-0.821,2024-01-08
NEON.D08.DELA.DP1.00033,32.541727,-87.803877,36,-0.821,2024-01-08
NEON.D08.LENO.DP1.00033,31.85388,-88.16122,10,-0.782,2024-01-08
NEON.D08.MAYF.DP1.20002,32.959657,-87.408128,93,-0.532,2024-01-08
NEON.D08.TALL.DP1.00033,32.95047,-87.393259,167,-0.532,2024-01-08
NEON.D08.TOMB.DP1.20002,31.853431,-88.158872,10,-0.782,2024-01-08
NEON.D09.DCFS.DP1.00033,47.161647,-99.106556,574,-0.725,2024-01-08
NEON.D09.NOGP.DP1.00033,46.76972,-100.91535,589,-0.724,2024-01-08
NEON.D09.PRLA.DP1.20002,47.15909,-99.11388,563,-0.675,2024-01-08
NEON.D09.PRPO.DP1.20002,47.12999,-99.250551,587,-0.709,2024-01-08
NEON.D09.WOOD.DP1.00033,47.1282,-99.241334,585,-0.709,2024-01-08
NEON.D10.ARIK.DP1.20002,39.758246,-102.447103,1188,0.961,2024-01-08
NEON.D10.CPER.DP1.00033,40.81553,-104.7456,1600,-1.07,2024-01-08
NEON.D10.HQTW.DP1.00033,40.016704,-105.245612,1601,0.331,2024-01-08
NEON.D10.RMNP.DP1.00033,40.275903,-105.545955,2751,-0.944,2024-01-08
NEON.D10.STER.DP1.00033,40.461894,-103.02929,1366,-0.136,2024-01-08
NEON.D11.BLUE.DP1.20002,34.444218,-96.624201,288,0.377,2024-01-08
NEON.D11.CLBJ.DP1.00033,33.40123,-97.57,279,1.145,2024-01-08
NEON.D11.OAES.DP1.00033,35.41059,-99.05879,520,1.925,2024-01-08
NEON.D11.PRIN.DP1.20002,33.37859,-97.78226,255,0.858,2024-01-08
NEON.D12.BLDE.DP1.20002,44.95011,-110.58715,2035,-1.73,2024-01-08
NEON.D12.YELL.DP1.00033,44.95348,-110.53914,2130,-1.906,2024-01-08
NEON.D13.COMO.DP1.20002,40.03496,-105.54487,3036,-0.632,2024-01-08
NEON.D13.MOAB.DP1.00033,38.24833,-109.38827,1803,-0.177,2024-01-08
NEON.D13.NIWO.DP1.00033,40.05425,-105.58237,3493,-0.773,2024-01-08
NEON.D13.WLOU.DP1.20002,39.891366,-105.915395,2920,-0.453,2024-01-08
NEON.D14.JORN.DP1.00033,32.59068,-106.84254,1321,1.67,2024-01-08
NEON.D14.SRER.DP1.00033,31.91068,-110.83549,999,0.897,2024-01-08
NEON.D14.SYCA.DP1.20002,33.749057,-111.506903,644,0.149,2024-01-08
NEON.D15.ONAQ.DP1.00033,40.177599,-112.452452,1655,-0.685,2024-01-08
NEON.D15.REDB.DP1.20002,40.783934,-111.797887,1696,-1.294,2024-01-08
NEON.D16.ABBY.DP1.00033,45.76243,-122.33033,390,-1.394,2024-01-08
NEON.D16.MART.DP1.20002,45.791248,-121.931959,354,-1.386,2024-01-08
NEON.D16.MCRA.DP1.20002,44.259598,-122.165554,880,-1.389,2024-01-08
NEON.D16.WREF.DP1.00033,45.82049,-121.95191,368,-1.324,2024-01-08
NEON.D17.BIGC.DP1.20002,37.059719,-119.257549,1133,-0.624,2024-01-08
NEON.D17.SJER.DP1.00033,37.10878,-119.73228,398,-0.721,2024-01-08
NEON.D17.SOAP.DP1.00033,37.03337,-119.26219,1210,-0.658,2024-01-08
NEON.D17.TEAK.DP1.00033,37.00583,-119.00602,2149,-0.552,2024-01-08
NEON.D17.TECR.DP1.20002,36.955931,-119.027363,2053,-0.591,2024-01-08
NEON.D18.BARR.DP1.00033,71.28241,-156.61936,7,-9999.0,2024-01-08
NEON.D18.OKSR.DP1.20002,68.669753,-149.143018,773,-9999.0,2024-01-08
NEON.D18.TOOK.DP1.20002,68.629562,-149.610509,715,-9999.0,2024-01-08
NEON.D18.TOOL.DP1.00033,68.66109,-149.37047,827,-9999.0,2024-01-08
NEON.D19.BONA.DP1.00033,65.15401,-147.50258,233,-9999.0,2024-01-08
NEON.D19.CARI.DP1.20002,65.15306,-147.50246,229,-9999.0,2024-01-08
NEON.D19.DEJU.DP1.00033,63.88112,-145.75136,504,-9999.0,2024-01-08
NEON.D19.HEAL.DP1.00033,63.87569,-149.21334,409,-9999.0,2024-01-08
NEON.D20.PUUM.DP1.00033,19.55309,-155.31731,1683,-9999.0,2024-01-08
nevcansnk3a,39.0099,-114.3095,3063,-0.809,2024-01-08
nevcanspg1a,38.9253,-114.4082,1792,-0.262,2024-01-08
nevcanspg2a,38.8921,-114.3521,2203,-0.471,2024-01-08
nevcanspg3a,38.8898,-114.3314,2820,-0.726,2024-01-08
nevcanspg4a,38.9061,-114.3089,3360,-0.726,2024-01-08
ninemileprairie,40.86801886,-96.82208066,381,0.473,2024-01-08
nist,39.139,-77.2125,100,1.684,2024-01-08
niwot3,40.03286358,-105.5469702,3050,-0.632,2024-01-08
niwot5,40.03286358,-105.5469702,2993,-0.632,2024-01-08
northattleboroma,41.98369,-71.31056,60,1.715,2024-01-08
northinletsaltmarsh,33.3455,-79.1957,1,2.356,2024-01-08
oakville,47.899334,-97.316139,268,0.003,2024-01-08
oregonMP,44.4523,-121.5574,1253,-1.275,2024-01-08
oregonYP,44.32384,-121.605993,977,-1.263,2024-01-08
oregonYPbud,44.3238,-121.606,977,-1.263,2024-01-08
othshardwood,44.934805,-68.6655,41,1.405,2024-01-08
othssoftwood,44.934527,-68.664888,41,1.405,2024-01-08
pace,37.9229,-78.2739,100,1.121,2024-01-08
parkschoolbuffalo,42.9637,-78.7834,205,-0.665,2024-01-08
piedmontalpasture2,33.8875,-85.6935,238,0.113,2024-01-08
portal,31.9385,-109.0823,1330,0.522,2024-01-08
proctor,44.525,-72.866,403,1.278,2024-01-08
readingma,42.5304,-71.1272,100,1.499,2024-01-08
robinson,37.4671,-83.1576,483,-1.014,2024-01-08
robinson2,37.4671,-83.1576,483,-1.014,2024-01-08
rosemountcons,44.6946,-93.0578,283,0.456,2024-01-08
rosemountconv,44.691,-93.0576,283,0.456,2024-01-08
rosemountnprs,44.6781,-93.0723,274,0.473,2024-01-08
russellsage,32.456961,-91.974322,20,-1.061,2024-01-08
sagehen,39.4315,-120.2398,1934,-0.58,2024-01-08
sagehen2,39.4307,-120.2407,1937,-0.58,2024-01-08
sagehen3,39.4311,-120.2405,1935,-0.58,2024-01-08
sanford,42.726777,-84.464482,268,-0.72,2024-01-08
santacruz1,36.9741,-122.0308,11,0.155,2024-01-08
santacruz2,36.9741,-122.0308,11,0.155,2024-01-08
santaluciapreserve1,36.5265,-121.8682,500,0.727,2024-01-08
santaluciapreserve2,36.5265,-121.8682,500,0.727,2024-01-08
segaarboretum10,35.16209,-111.73151,2170,-0.234,2024-01-08
segaarboretum2,35.16209,-111.73151,2170,-0.234,2024-01-08
segaarboretum3,35.16209,-111.73151,2170,-0.234,2024-01-08
segaarboretum4,35.16214,-111.73153,2170,-0.234,2024-01-08
segaarboretum6,35.16209,-111.73151,2170,-0.234,2024-01-08
segaarboretum9,35.16222,-111.73158,2170,-0.234,2024-01-08
segaarboretumforest,35.1613,-111.7359,2173,-0.234,2024-01-08
segaarboretummeadow,35.1621,-111.7316,2157,-0.234,2024-01-08
segablackpoint,35.6814,-111.4754,1566,-0.108,2024-01-08
segabluechute,35.5876,-111.9716,1930,0.09,2024-01-08
segabluechute1,35.58759,-111.97115,1931,0.09,2024-01-08
segabluechute2,35.58759,-111.97115,1931,0.09,2024-01-08
segabluechute4,35.58759,-111.9716,1931,0.09,2024-01-08
segabluechute6,35.58759,-111.97115,1931,0.09,2024-01-08
segabluechute7,35.58759,-111.97115,1931,0.09,2024-01-08
segabluechute8,35.58759,-111.97115,1931,0.09,2024-01-08
segabradshaw,34.9109,-111.9285,1402,-0.159,2024-01-08
segahartprairie,35.3536,-111.7324,2585,-0.512,2024-01-08
segalcr,35.7231,-111.321,1275,-0.16,2024-01-08
segalcr2,35.7069,-111.36,1495,-0.158,2024-01-08
segalittlemountain,36.5865,-112.3634,2276,-0.587,2024-01-08
segasoapcreek,36.751,-111.716,1233,0.069,2024-01-08
segawhitepockets,36.6081,-112.4082,2057,-0.466,2024-01-08
sevilletagrass,34.360444,-106.700186,1600,1.273,2024-01-08
sevilletanewgrass,34.358,-106.6799,1603,1.186,2024-01-08
sevilletashrub,34.334956,-106.744469,1603,1.27,2024-01-08
sevMRME10L,34.3438,-106.7269,1604,1.303,2024-01-08
sevMRME11C,34.3438,-106.7268,1604,1.303,2024-01-08
sevMRME1S,34.3442,-106.7272,1604,1.303,2024-01-08
sevpjrm12,34.38615,-106.52621,1905,1.324,2024-01-08
sevpjrm13,34.38631,-106.52791,1914,1.324,2024-01-08
shalehillsczo,40.6658,-77.9041,310,0.89,2024-01-08
shenandoah,38.6167,-78.35,1037,0.519,2024-01-08
silverton,44.9986,-122.6948,347,-1.06,2024-01-08
siwetland,38.0369,-121.7546,-5,0.14,2024-01-08
slatefloodplain,38.9094,-107.0282,2725,-1.067,2024-01-08
snodgrass1,38.92619636,-106.9714376,3023,-0.959,2024-01-08
snodgrass2,38.92619636,-106.9714376,3023,-0.959,2024-01-08
snodgrass3,38.92839978,-106.9781196,3141,-0.959,2024-01-08
snodgrass4,38.92839978,-106.9781196,3141,-0.959,2024-01-08
snodgrass5,38.92744789,-106.9785209,3152,-0.959,2024-01-08
snodgrass6,38.92744789,-106.9785209,3152,-0.959,2024-01-08
snodgrass7,38.93142134,-106.9852388,3363,-1.003,2024-01-08
snodgrass8,38.93142134,-106.9852388,3363,-1.003,2024-01-08
southerngreatplains,36.6058,-97.4888,314,1.111,2024-01-08
springfieldma,42.135162,-72.585972,56,1.678,2024-01-08
spruceA0EMI,47.5049,-93.4541,413,1.763,2024-01-08
spruceA0EMT,47.5049,-93.4541,418,1.763,2024-01-08
spruceA0P07,47.50493,-93.45314,413,1.763,2024-01-08
spruceA0P07SH,47.50493,-93.45314,413,1.763,2024-01-08
spruceA0P21,47.50625,-93.45275,413,1.763,2024-01-08
spruceA0P21SH,47.50625,-93.45275,413,1.763,2024-01-08
srg,31.7894,-110.8276,1281,0.716,2024-01-08
srm,31.8214,-110.8661,1116,0.925,2024-01-08
statenrice1,38.1235,-121.549,-5,-0.058,2024-01-08
stjones,39.088222,-75.43725,2,2.633,2024-01-08
sweetbriar,37.57341,-79.08482,242,0.615,2024-01-08
sweetbriarclearcut,37.5753,-79.0872,242,0.615,2024-01-08
sweetbriargrass,37.5605,-79.0884,240,0.615,2024-01-08
sylvania,46.242,-89.348,540,-0.706,2024-01-08
templefieldstation1,40.1667,-75.1894,105,2.165,2024-01-08
tfforest,43.1086,-70.9505,23,1.285,2024-01-08
tidmarshplymouth,41.9157,-70.5754,9,0.392,2024-01-08
tonzi,38.43091667,-120.9658861,177,-0.437,2024-01-08
townsenddemeadow,39.3917,-75.6281,11,2.123,2024-01-08
tsubiology,36.1671,-86.8295,164,-1.341,2024-01-08
tsubiology2,36.1171,-86.8295,100,-1.266,2024-01-08
tuckerprairie,38.9491,-91.9952,274,-0.288,2024-01-08
twodafo,29.1658,-95.829,16,1.46,2024-01-08
tworfaa,31.4777,-96.8882,167,0.767,2024-01-08
tworfpr,31.4802,-96.8826,162,0.738,2024-01-08
tworfta,31.4693,-96.8864,173,0.767,2024-01-08
twosfpr,30.6176,-97.2938,157,0.892,2024-01-08
ucnrsanzaborrego,33.2401,-116.3886,214,0.918,2024-01-08
ufona,27.3836,-81.950856,25,0.152,2024-01-08
uiefmaize2,40.0628,-88.1961,224,-0.377,2024-01-08
uiefmiscanthus2,40.0628,-88.1984,221,-0.377,2024-01-08
uiefprairie2,40.0637,-88.1973,224,-0.377,2024-01-08
uiefsorghum,40.0065,-88.2032,224,-0.505,2024-01-08
uiefswitchgrass2,40.0637,-88.1973,224,-0.377,2024-01-08
umichbiological,45.55984,-84.71382,230,-0.72,2024-01-08
umichbiological2,45.5625,-84.6976,240,-0.726,2024-01-08
unca,35.5951,-82.5515,650,1.032,2024-01-08
usgseros,43.7343,-96.6234,448,0.723,2024-01-08
usmpj,34.43845,-106.2543606,2126,1.53,2024-01-08
usof5,35.7297,-90.0406,70,-1.637,2024-01-08
usof6,35.7333,-90.0403,70,-1.637,2024-01-08
uwmfieldsta,43.38709,-88.0229,265,-0.885,2024-01-08
vaira,38.41328056,-120.9506361,129,-0.437,2024-01-08
vallesburnedconifer,35.8884,-106.5321,3043,0.783,2024-01-08
vallesmixedconifer,35.9192,-106.6142,2752,0.731,2024-01-08
vallesponderosapine,35.864,-106.5964,2501,0.791,2024-01-08
waahila,21.3017,-157.8152,55,-9999.0,2024-01-08
warrenwilson,35.6069,-82.4421,2198,1.16,2024-01-08
willamettepoplar,44.1368,-123.1823,112,-1.124,2024-01-08
willowcreek,45.805986,-90.07912,521,-1.087,2024-01-08
windriver,45.8212833,-121.9520833,371,-1.324,2024-01-08
windriverunderstory,45.8212833,-121.9520833,371,-1.324,2024-01-08
wolfesneckfarm,43.8305,-70.0715,16,1.56,2024-01-08
worcester,42.2697,-71.8428,185,1.655,2024-01-08
alligatorriver,35.7879,-75.9038,1,0.688,2024-01-15
arbutuslake,43.98207,-74.23322,535,1.254,2024-01-15
arbutuslakeinlet,43.99336,-74.24527,527,1.254,2024-01-15
archboldavir,27.176064,-81.21958,8,2.169,2024-01-15
archboldavirx,27.166627,-81.219828,8,2.169,2024-01-15
archboldbahia,27.1656,-81.216112,8,2.169,2024-01-15
archboldpnot,27.187948,-81.200345,9,2.169,2024-01-15
archboldpnotx,27.180677,-81.20068,9,2.169,2024-01-15
arkansascornsoy,34.416,-91.6723,61,-0.276,2024-01-15
arsbrooks10,41.9749,-93.6905,312,1.711,2024-01-15
arsbrooks11,41.9744,-93.6937,313,1.711,2024-01-15
arscolesnorth,42.4884,-93.5225,356,1.057,2024-01-15
arscolessouth,42.4816,-93.5235,352,1.057,2024-01-15
arsgacp1,31.5109,-83.6179,96,0.782,2024-01-15
arsgacp3,31.7563,-83.7516,139,1.031,2024-01-15
arsgacp4,31.7093,-83.7287,127,0.898,2024-01-15
arsgreatbasinltar098,43.1675,-116.7132,1426,1.661,2024-01-15
arsgreatbasinltar117,43.1432,-116.7357,1625,1.029,2024-01-15
arsgreatbasinltar177,43.0645,-116.7484,2114,1.316,2024-01-15
arsltarmdcr,39.0587,-75.8513,17,3.0,2024-01-15
arsltarmdcrnatw,39.0575,-75.7531,16,3.0,2024-01-15
arsltarmdcrprcw,39.0667,-75.7609,17,3.0,2024-01-15
arsltarmdcrresw,39.0549,-75.7532,16,3.0,2024-01-15
arsltarucbec1,40.7537,-78.0057,400,1.757,2024-01-15
arsltarucbec2,40.7558,-77.9999,396,1.757,2024-01-15
arsmnswanlake1,45.684508,-95.799703,370,2.387,2024-01-15
arsmorris1,45.6167,-96.1269,341,2.262,2024-01-15
arsmorris2,45.627,-96.127,338,2.262,2024-01-15
arsmorris3,45.6091,-96.1265,342,2.262,2024-01-15
arsope3ltar,39.0309,-76.8442,41,2.803,2024-01-15
ashburnham,42.6029,-71.926,292,2.285,2024-01-15
asuhighlands,36.2076,-81.7032,1016,2.225,2024-01-15
austincary,29.738,-82.2188,44,2.38,2024-01-15
barrow,71.28007453,-156.6091492,5,-9999.0,2024-01-15
bartlettir,44.0646,-71.2881,268,2.609,2024-01-15
bigtraillake,64.9194,-147.822,190,-9999.0,2024-01-15
bitterbrush001,48.154,-119.9456,667,-1.35,2024-01-15
blackrockforest,41.3974,-74.0239,427,2.808,2024-01-15
bnzblackspruce,64.6963,-148.3235,102,-9999.0,2024-01-15
bnzrichfen,64.70134,-148.31195,97,-9999.0,2024-01-15
bnzthermokarstbog,64.6955,-148.3208,104,-9999.0,2024-01-15
boglakepeatland,47.5051,-93.4893,416,1.685,2024-01-15
bostoncommon,42.355912,-71.064145,10,2.417,2024-01-15
bostonu,42.35041,-71.10438,10,2.442,2024-01-15
bouldinalfalfa,38.0985,-121.4993,-5,0.009,2024-01-15
bouldincorn,38.109,-121.535,-5,0.078,2024-01-15
bozeman,45.783056,-110.777778,2332,-1.404,2024-01-15
brackishimpoundment,33.2015,-79.2973,1,3.0,2024-01-15
bullshoals,36.562833,-93.06663,260,-0.172,2024-01-15
burnssagebrush,43.4712,-119.6909,1398,-0.257,2024-01-15
butte,45.95304,-112.47964,1682,-0.522,2024-01-15
butterice,39.5793,-121.858,33,-0.102,2024-01-15
cafboydnorthltar01,46.755104,-117.126052,795,-0.863,2024-01-15
cafboydsouthltar01,46.751809,-117.128502,795,-0.863,2024-01-15
cafcookeastltar01,46.78152,-117.0821,794,-0.92,2024-01-15
cafcookwestltar01,46.784037,-117.09083,807,-0.92,2024-01-15
caryinstitute,41.7839,-73.7341,127,2.466,2024-01-15
centralredwoods1,38.632272,-123.301511,200,0.447,2024-01-15
centralredwoods2,38.632272,-123.301511,200,0.447,2024-01-15
cperagm,40.8402,-104.7672,1644,-1.233,2024-01-15
cperheavy,40.8153,-104.7386,1652,-1.19,2024-01-15
cpertgm,40.833,-104.76,1644,-1.214,2024-01-15
cperuvb,40.8055764,-104.7558542,1641,-1.214,2024-01-15
cuny,40.8162,-73.9507,42,2.9,2024-01-15
doverdesaltmarsh,39.0888,-75.4368,0,3.0,2024-01-15
downerwoods,43.07938,-87.88076,213,1.265,2024-01-15
dukehw,35.973583,-79.100371,400,2.958,2024-01-15
ecb1,41.5348,-84.8068,275,0.269,2024-01-15
ecb2,41.5321,-84.808,275,0.269,2024-01-15
ecb4,41.1796,-83.0604,240,-0.181,2024-01-15
elverde,18.320654,-65.8199,312,-9999.0,2024-01-15
flagstaff,35.17961521,-111.6049032,6983,0.039,2024-01-15
flagstaff2,35.179225,-111.604506,6983,0.039,2024-01-15
flagstaffchimneysprings,35.257296,-111.678542,2250,-0.059,2024-01-15
forbes,39.232,-121.2972,360,-0.278,2024-01-15
fortpaynealpasture1,34.3824,-85.6428,405,1.264,2024-01-15
fortpaynealpasture2,34.3824,-85.6447,403,1.264,2024-01-15
gcesapelo,31.4440444,-81.283528,0,2.04,2024-01-15
gilberttract,38.0015,-121.6691,6,0.195,2024-01-15
glees,41.3644,-106.2394,3150,-0.847,2024-01-15
glennorganicrice,39.6805,-122.0026,2,0.236,2024-01-15
glennrice,39.5944,-122.0253,36,0.372,2024-01-15
goodnow,43.96018,-74.20994,820,1.37,2024-01-15
goodwater,39.22848,-92.11936,264,0.595,2024-01-15
goodwaterbau,39.23115,-92.15216,274,0.648,2024-01-15
grandteton,43.915017,-110.578036,2054,-1.293,2024-01-15
grca1pj,36.0241,-112.2211,1978,0.16,2024-01-15
greenridge1,39.6905,-78.4067,285,1.924,2024-01-15
harvard,42.5378,-72.1715,340,2.333,2024-01-15
harvardbarn,42.53532,-72.1899,350,2.2,2024-01-15
harvardbarn2,42.53532,-72.1899,350,2.2,2024-01-15
harvardems2,42.5378,-72.1715,340,2.333,2024-01-15
harvardfarmnorth,42.520465,-72.182242,355,2.2,2024-01-15
harvardfarmsouth,42.522466,-72.182339,355,2.2,2024-01-15
harvardgarden,42.5291,-72.1863,335,2.2,2024-01-15
harvardhemlock,42.539,-72.18,355,2.2,2024-01-15
harvardhemlock2,42.539407,-72.177976,355,2.333,2024-01-15
harvardlph,42.542,-72.185,380,2.2,2024-01-15
hawbeckereddy,40.6608,-77.848849,310,1.859,2024-01-15
hobcawclearcutlongleaf,33.3486,-79.232,4,2.857,2024-01-15
hobcawmaturelongleaf,33.3242,-79.2439,8,2.857,2024-01-15
homesteadsprings,37.2009,-92.9937,452,-0.396,2024-01-15
howland1,45.2041,-68.7403,80,0.938,2024-01-15
howland2,45.2128,-68.7418,79,0.938,2024-01-15
hubbardbrook,43.9438,-71.701,253,2.387,2024-01-15
humnokericea,34.585192,-91.751684,61,-0.103,2024-01-15
humnokericec,34.588853,-91.7516729,70,-0.103,2024-01-15
huyckpreserveny,42.5266,-74.1587,478,2.105,2024-01-15
hwmo1,20.0212,-155.7331,585,-9999.0,2024-01-15
hwmo2,19.9766,-155.8298,12,-9999.0,2024-01-15
hwmo5,20.1117,-155.8151,635,-9999.0,2024-01-15
ibp,32.589,-106.847,1325,1.493,2024-01-15
imcrkfen,68.60583,-149.31101,900,-9999.0,2024-01-15
imcrkridge0,68.60681,-149.2958,951,-9999.0,2024-01-15
imcrkridge1,68.60681,-149.2958,951,-9999.0,2024-01-15
imcrktussock,68.60633,-149.30408,918,-9999.0,2024-01-15
jasperridge,37.402028,-122.22104,197,0.294,2024-01-15
jerbajada,32.57992,-106.633793,1402,1.104,2024-01-15
jergrassland,32.5833,-106.8333,1331,1.493,2024-01-15
jernort,32.619,-106.788,1328,1.479,2024-01-15
jernovel,32.6335,-106.8334,1324,1.494,2024-01-15
jernwern,32.6271,-106.7387,1325,1.45,2024-01-15
jersand,32.515,-106.798,1363,1.281,2024-01-15
jershrubland,32.6502,-106.8334,1328,1.494,2024-01-15
junipersavannah,34.4254,-105.8615,1931,1.312,2024-01-15
kamuela,20.015008,-155.661326,850,-9999.0,2024-01-15
kamuela2,20.014959,-155.661139,830,-9999.0,2024-01-15
kansas,39.0561,-95.1907,333,1.963,2024-01-15
kelloggcorn,42.437536,-85.3225472,288,0.744,2024-01-15
kempnrs,45.83992,-89.67755,539,-0.884,2024-01-15
kendall,31.73652,-109.94185,1529,1.254,2024-01-15
konza,39.0824,-96.5603,443,2.49,2024-01-15
laupahoehoe,19.9322,-155.2912,1145,-9999.0,2024-01-15
ldeocam,41.0039,-73.9053,121,3.0,2024-01-15
lostcreek,46.0827,-89.9792,480,-0.235,2024-01-15
luckyhills,31.743896,-110.052023,1366,1.324,2024-01-15
macleish,42.4484,-72.6804,251,2.661,2024-01-15
macordway,44.8106,-93.0272,264,0.807,2024-01-15
mandanh5,46.775423,-100.95109,593,-0.38,2024-01-15
mandani2,46.7614,-100.9257,590,-0.451,2024-01-15
manilacotton,35.8872,-90.1371,73,0.887,2024-01-15
marena,36.06434,-97.21271,327,1.388,2024-01-15
mead1,41.1651,-96.4766,361,1.722,2024-01-15
mead2,41.1649,-96.4701,362,1.722,2024-01-15
mead3,41.1797,-96.4397,363,1.605,2024-01-15
meadpasture,41.1447,-96.4616,356,1.681,2024-01-15
meadpasturese,41.1447,-96.4616,356,1.681,2024-01-15
meadpasturesw,41.1447,-96.4616,356,1.681,2024-01-15
missouriozarks,38.7441,-92.2,219,0.431,2024-01-15
morganmonroe,39.3231,-86.4131,275,0.024,2024-01-15
morganmonroe2,39.3231,-86.4131,275,0.024,2024-01-15
nahuku,19.415187,-155.238383,1202,-9999.0,2024-01-15
nationalelkrefuge,43.488931,-110.737824,1899,-0.868,2024-01-15
ncssm,36.018446,-78.92075,175,3.0,2024-01-15
NEON.D01.BART.DP1.00033,44.063869,-71.287375,285,2.609,2024-01-15
NEON.D01.HARV.DP1.00033,42.536911,-72.17265,359,2.333,2024-01-15
NEON.D01.HOPB.DP1.20002,42.471786,-72.329627,203,2.228,2024-01-15
NEON.D02.BLAN.DP1.00033,39.033698,-78.041788,162,2.183,2024-01-15
NEON.D02.LEWI.DP1.20002,39.09564,-77.98322,152,2.043,2024-01-15
NEON.D02.POSE.DP1.20002,38.89332,-78.14678,293,2.041,2024-01-15
NEON.D02.SCBI.DP1.00033,38.892925,-78.139494,364,2.159,2024-01-15
NEON.D02.SERC.DP1.00033,38.89008,-76.56001,30,3.0,2024-01-15
NEON.D03.BARC.DP1.20002,29.676473,-82.009089,35,2.006,2024-01-15
NEON.D03.DSNY.DP1.00033,28.12505,-81.43619,22,1.773,2024-01-15
NEON.D03.FLNT.DP1.20002,31.185424,-84.437403,27,0.857,2024-01-15
NEON.D03.JERC.DP1.00033,31.194839,-84.468623,58,0.869,2024-01-15
NEON.D03.OSBS.DP1.00033,29.689282,-81.993431,56,1.932,2024-01-15
NEON.D03.SUGG.DP1.20002,29.687054,-82.016171,28,1.932,2024-01-15
NEON.D04.CUPE.DP1.20002,18.11352,-66.98676,164,-9999.0,2024-01-15
NEON.D04.GUAN.DP1.00033,17.96955,-66.8687,136,-9999.0,2024-01-15
NEON.D04.GUIL.DP1.20002,18.1741,-66.79851,564,-9999.0,2024-01-15
NEON.D04.LAJA.DP1.00033,18.021261,-67.076889,22,-9999.0,2024-01-15
NEON.D05.CRAM.DP1.20002,46.21111,-89.47825,518,-0.709,2024-01-15
NEON.D05.LIRO.DP1.20002,45.998269,-89.704767,495,-0.646,2024-01-15
NEON.D05.STEI.DP1.00033,45.50894,-89.58637,476,-1.0,2024-01-15
NEON.D05.TREE.DP1.00033,45.49373,-89.58572,474,-1.0,2024-01-15
NEON.D05.UNDE.DP1.00033,46.23391,-89.537254,529,-0.713,2024-01-15
NEON.D06.KING.DP1.20002,39.10506,-96.60336,339,2.453,2024-01-15
NEON.D06.KONA.DP1.00033,39.110446,-96.612935,443,2.453,2024-01-15
NEON.D06.KONZ.DP1.00033,39.10077,-96.56309,415,2.49,2024-01-15
NEON.D06.MCDI.DP1.20002,38.94428,-96.44197,376,2.411,2024-01-15
NEON.D06.UKFS.DP1.00033,39.040431,-95.19215,330,1.963,2024-01-15
NEON.D07.GRSM.DP1.00033,35.68896,-83.50195,589,0.089,2024-01-15
NEON.D07.LECO.DP1.20002,35.69043,-83.50379,578,0.089,2024-01-15
NEON.D07.MLBS.DP1.00033,37.378314,-80.524847,1177,2.096,2024-01-15
NEON.D07.ORNL.DP1.00033,35.964128,-84.282588,351,0.029,2024-01-15
NEON.D07.WALK.DP1.20002,35.95947,-84.28041,274,0.213,2024-01-15
NEON.D08.BLWA.DP1.20002,32.541529,-87.798151,23,0.277,2024-01-15
NEON.D08.DELA.DP1.00033,32.541727,-87.803877,36,0.277,2024-01-15
NEON.D08.LENO.DP1.00033,31.85388,-88.16122,10,0.045,2024-01-15
NEON.D08.MAYF.DP1.20002,32.959657,-87.408128,93,0.577,2024-01-15
NEON.D08.TALL.DP1.00033,32.95047,-87.393259,167,0.577,2024-01-15
NEON.D08.TOMB.DP1.20002,31.853431,-88.158872,10,0.045,2024-01-15
NEON.D09.DCFS.DP1.00033,47.161647,-99.106556,574,-0.836,2024-01-15
NEON.D09.NOGP.DP1.00033,46.76972,-100.91535,589,-0.451,2024-01-15
NEON.D09.PRLA.DP1.20002,47.15909,-99.11388,563,-0.848,2024-01-15
NEON.D09.PRPO.DP1.20002,47.12999,-99.250551,587,-0.854,2024-01-15
NEON.D09.WOOD.DP1.00033,47.1282,-99.241334,585,-0.854,2024-01-15
NEON.D10.ARIK.DP1.20002,39.758246,-102.447103,1188,0.989,2024-01-15
NEON.D10.CPER.DP1.00033,40.81553,-104.7456,1600,-1.214,2024-01-15
NEON.D10.HQTW.DP1.00033,40.016704,-105.245612,1601,0.171,2024-01-15
NEON.D10.RMNP.DP1.00033,40.275903,-105.545955,2751,-0.821,2024-01-15
NEON.D10.STER.DP1.00033,40.461894,-103.02929,1366,-0.152,2024-01-15
NEON.D11.BLUE.DP1.20002,34.444218,-96.624201,288,0.6,2024-01-15
NEON.D11.CLBJ.DP1.00033,33.40123,-97.57,279,1.134,2024-01-15
NEON.D11.OAES.DP1.00033,35.41059,-99.05879,520,1.339,2024-01-15
NEON.D11.PRIN.DP1.20002,33.37859,-97.78226,255,0.89,2024-01-15
NEON.D12.BLDE.DP1.20002,44.95011,-110.58715,2035,-1.147,2024-01-15
NEON.D12.YELL.DP1.00033,44.95348,-110.53914,2130,-1.338,2024-01-15
NEON.D13.COMO.DP1.20002,40.03496,-105.54487,3036,-0.479,2024-01-15
NEON.D13.MOAB.DP1.00033,38.24833,-109.38827,1803,0.065,2024-01-15
NEON.D13.NIWO.DP1.00033,40.05425,-105.58237,3493,-0.825,2024-01-15
NEON.D13.WLOU.DP1.20002,39.891366,-105.915395,2920,0.383,2024-01-15
NEON.D14.JORN.DP1.00033,32.59068,-106.84254,1321,1.493,2024-01-15
NEON.D14.SRER.DP1.00033,31.91068,-110.83549,999,1.452,2024-01-15
NEON.D14.SYCA.DP1.20002,33.749057,-111.506903,644,0.58,2024-01-15
NEON.D15.ONAQ.DP1.00033,40.177599,-112.452452,1655,0.118,2024-01-15
NEON.D15.REDB.DP1.20002,40.783934,-111.797887,1696,-0.858,2024-01-15
NEON.D16.ABBY.DP1.00033,45.76243,-122.33033,390,-0.585,2024-01-15
NEON.D16.MART.DP1.20002,45.791248,-121.931959,354,-0.524,2024-01-15
NEON.D16.MCRA.DP1.20002,44.259598,-122.165554,880,-0.585,2024-01-15
NEON.D16.WREF.DP1.00033,45.82049,-121.95191,368,-0.457,2024-01-15
NEON.D17.BIGC.DP1.20002,37.059719,-119.257549,1133,-0.364,2024-01-15
NEON.D17.SJER.DP1.00033,37.10878,-119.73228,398,-0.389,2024-01-15
NEON.D17.SOAP.DP1.00033,37.03337,-119.26219,1210,-0.393,2024-01-15
NEON.D17.TEAK.DP1.00033,37.00583,-119.00602,2149,-0.258,2024-01-15
NEON.D17.TECR.DP1.20002,36.955931,-119.027363,2053,-0.311,2024-01-15
NEON.D18.BARR.DP1.00033,71.28241,-156.61936,7,-9999.0,2024-01-15
NEON.D18.OKSR.DP1.20002,68.669753,-149.143018,773,-9999.0,2024-01-15
NEON.D18.TOOK.DP1.20002,68.629562,-149.610509,715,-9999.0,2024-01-15
NEON.D18.TOOL.DP1.00033,68.66109,-149.37047,827,-9999.0,2024-01-15
NEON.D19.BONA.DP1.00033,65.15401,-147.50258,233,-9999.0,2024-01-15
NEON.D19.CARI.DP1.20002,65.15306,-147.50246,229,-9999.0,2024-01-15
NEON.D19.DEJU.DP1.00033,63.88112,-145.75136,504,-9999.0,2024-01-15
NEON.D19.HEAL.DP1.00033,63.87569,-149.21334,409,-9999.0,2024-01-15
NEON.D20.PUUM.DP1.00033,19.55309,-155.31731,1683,-9999.0,2024-01-15
nevcansnk3a,39.0099,-114.3095,3063,-0.616,2024-01-15
nevcanspg1a,38.9253,-114.4082,1792,-0.093,2024-01-15
nevcanspg2a,38.8921,-114.3521,2203,-0.289,2024-01-15
nevcanspg3a,38.8898,-114.3314,2820,-0.542,2024-01-15
nevcanspg4a,38.9061,-114.3089,3360,-0.542,2024-01-15
ninemileprairie,40.86801886,-96.82208066,381,1.318,2024-01-15
nist,39.139,-77.2125,100,2.443,2024-01-15
niwot3,40.03286358,-105.5469702,3050,-0.479,2024-01-15
niwot5,40.03286358,-105.5469702,2993,-0.479,2024-01-15
northattleboroma,41.98369,-71.31056,60,3.0,2024-01-15
northinletsaltmarsh,33.3455,-79.1957,1,2.748,2024-01-15
oakville,47.899334,-97.316139,268,0.089,2024-01-15
oregonMP,44.4523,-121.5574,1253,-0.712,2024-01-15
oregonYP,44.32384,-121.605993,977,-0.616,2024-01-15
oregonYPbud,44.3238,-121.606,977,-0.616,2024-01-15
othshardwood,44.934805,-68.6655,41,0.893,2024-01-15
othssoftwood,44.934527,-68.664888,41,0.893,2024-01-15
pace,37.9229,-78.2739,100,2.795,2024-01-15
parkschoolbuffalo,42.9637,-78.7834,205,0.107,2024-01-15
piedmontalpasture2,33.8875,-85.6935,238,1.493,2024-01-15
portal,31.9385,-109.0823,1330,0.881,2024-01-15
proctor,44.525,-72.866,403,1.166,2024-01-15
readingma,42.5304,-71.1272,100,2.441,2024-01-15
robinson,37.4671,-83.1576,483,-0.327,2024-01-15
robinson2,37.4671,-83.1576,483,-0.327,2024-01-15
rosemountcons,44.6946,-93.0578,283,0.71,2024-01-15
rosemountconv,44.691,-93.0576,283,0.71,2024-01-15
rosemountnprs,44.6781,-93.0723,274,0.784,2024-01-15
russellsage,32.456961,-91.974322,20,-0.453,2024-01-15
sagehen,39.4315,-120.2398,1934,-0.28,2024-01-15
sagehen2,39.4307,-120.2407,1937,-0.28,2024-01-15
sagehen3,39.4311,-120.2405,1935,-0.28,2024-01-15
sanford,42.726777,-84.464482,268,1.03,2024-01-15
santacruz1,36.9741,-122.0308,11,0.33,2024-01-15
santacruz2,36.9741,-122.0308,11,0.33,2024-01-15
santaluciapreserve1,36.5265,-121.8682,500,1.001,2024-01-15
santaluciapreserve2,36.5265,-121.8682,500,1.001,2024-01-15
segaarboretum10,35.16209,-111.73151,2170,-0.004,2024-01-15
segaarboretum2,35.16209,-111.73151,2170,-0.004,2024-01-15
segaarboretum3,35.16209,-111.73151,2170,-0.004,2024-01-15
segaarboretum4,35.16214,-111.73153,2170,-0.004,2024-01-15
segaarboretum6,35.16209,-111.73151,2170,-0.004,2024-01-15
segaarboretum9,35.16222,-111.73158,2170,-0.004,2024-01-15
segaarboretumforest,35.1613,-111.7359,2173,-0.004,2024-01-15
segaarboretummeadow,35.1621,-111.7316,2157,-0.004,2024-01-15
segablackpoint,35.6814,-111.4754,1566,0.104,2024-01-15
segabluechute,35.5876,-111.9716,1930,0.228,2024-01-15
segabluechute1,35.58759,-111.97115,1931,0.228,2024-01-15
segabluechute2,35.58759,-111.97115,1931,0.228,2024-01-15
segabluechute4,35.58759,-111.9716,1931,0.228,2024-01-15
segabluechute6,35.58759,-111.97115,1931,0.228,2024-01-15
segabluechute7,35.58759,-111.97115,1931,0.228,2024-01-15
segabluechute8,35.58759,-111.97115,1931,0.228,2024-01-15
segabradshaw,34.9109,-111.9285,1402,-0.01,2024-01-15
segahartprairie,35.3536,-111.7324,2585,-0.209,2024-01-15
segalcr,35.7231,-111.321,1275,0.07,2024-01-15
segalcr2,35.7069,-111.36,1495,0.064,2024-01-15
segalittlemountain,36.5865,-112.3634,2276,-0.43,2024-01-15
segasoapcreek,36.751,-111.716,1233,-0.011,2024-01-15
segawhitepockets,36.6081,-112.4082,2057,-0.317,2024-01-15
sevilletagrass,34.360444,-106.700186,1600,0.839,2024-01-15
sevilletanewgrass,34.358,-106.6799,1603,0.793,2024-01-15
sevilletashrub,34.334956,-106.744469,1603,0.848,2024-01-15
sevMRME10L,34.3438,-106.7269,1604,0.85,2024-01-15
sevMRME11C,34.3438,-106.7268,1604,0.85,2024-01-15
sevMRME1S,34.3442,-106.7272,1604,0.85,2024-01-15
sevpjrm12,34.38615,-106.52621,1905,0.919,2024-01-15
sevpjrm13,34.38631,-106.52791,1914,0.919,2024-01-15
shalehillsczo,40.6658,-77.9041,310,1.883,2024-01-15
shenandoah,38.6167,-78.35,1037,1.905,2024-01-15
silverton,44.9986,-122.6948,347,-0.369,2024-01-15
siwetland,38.0369,-121.7546,-5,0.324,2024-01-15
slatefloodplain,38.9094,-107.0282,2725,-0.668,2024-01-15
snodgrass1,38.92619636,-106.9714376,3023,-0.578,2024-01-15
snodgrass2,38.92619636,-106.9714376,3023,-0.578,2024-01-15
snodgrass3,38.92839978,-106.9781196,3141,-0.578,2024-01-15
snodgrass4,38.92839978,-106.9781196,3141,-0.578,2024-01-15
snodgrass5,38.92744789,-106.9785209,3152,-0.578,2024-01-15
snodgrass6,38.92744789,-106.9785209,3152,-0.578,2024-01-15
snodgrass7,38.93142134,-106.9852388,3363,-0.599,2024-01-15
snodgrass8,38.93142134,-106.9852388,3363,-0.599,2024-01-15
southerngreatplains,36.6058,-97.4888,314,1.317,2024-01-15
springfieldma,42.135162,-72.585972,56,2.957,2024-01-15
spruceA0EMI,47.5049,-93.4541,413,1.691,2024-01-15
spruceA0EMT,47.5049,-93.4541,418,1.691,2024-01-15
spruceA0P07,47.50493,-93.45314,413,1.691,2024-01-15
spruceA0P07SH,47.50493,-93.45314,413,1.691,2024-01-15
spruceA0P21,47.50625,-93.45275,413,1.691,2024-01-15
spruceA0P21SH,47.50625,-93.45275,413,1.691,2024-01-15
srg,31.7894,-110.8276,1281,1.277,2024-01-15
srm,31.8214,-110.8661,1116,1.497,2024-01-15
statenrice1,38.1235,-121.549,-5,0.075,2024-01-15
stjones,39.088222,-75.43725,2,3.0,2024-01-15
sweetbriar,37.57341,-79.08482,242,1.915,2024-01-15
sweetbriarclearcut,37.5753,-79.0872,242,1.915,2024-01-15
sweetbriargrass,37.5605,-79.0884,240,1.915,2024-01-15
sylvania,46.242,-89.348,540,-0.754,2024-01-15
templefieldstation1,40.1667,-75.1894,105,3.0,2024-01-15
tfforest,43.1086,-70.9505,23,2.275,2024-01-15
tidmarshplymouth,41.9157,-70.5754,9,2.208,2024-01-15
tonzi,38.43091667,-120.9658861,177,-0.253,2024-01-15
townsenddemeadow,39.3917,-75.6281,11,3.0,2024-01-15
tsubiology,36.1671,-86.8295,164,-0.298,2024-01-15
tsubiology2,36.1171,-86.8295,100,-0.191,2024-01-15
tuckerprairie,38.9491,-91.9952,274,0.662,2024-01-15
twodafo,29.1658,-95.829,16,1.271,2024-01-15
tworfaa,31.4777,-96.8882,167,1.013,2024-01-15
tworfpr,31.4802,-96.8826,162,0.934,2024-01-15
tworfta,31.4693,-96.8864,173,1.013,2024-01-15
twosfpr,30.6176,-97.2938,157,0.999,2024-01-15
ucnrsanzaborrego,33.2401,-116.3886,214,0.77,2024-01-15
ufona,27.3836,-81.950856,25,1.758,2024-01-15
uiefmaize2,40.0628,-88.1961,224,1.198,2024-01-15
uiefmiscanthus2,40.0628,-88.1984,221,1.198,2024-01-15
uiefprairie2,40.0637,-88.1973,224,1.198,2024-01-15
uiefsorghum,40.0065,-88.2032,224,1.017,2024-01-15
uiefswitchgrass2,40.0637,-88.1973,224,1.198,2024-01-15
umichbiological,45.55984,-84.71382,230,-0.34,2024-01-15
umichbiological2,45.5625,-84.6976,240,-0.313,2024-01-15
unca,35.5951,-82.5515,650,2.084,2024-01-15
usgseros,43.7343,-96.6234,448,1.855,2024-01-15
usmpj,34.43845,-106.2543606,2126,1.1,2024-01-15
usof5,35.7297,-90.0406,70,0.227,2024-01-15
usof6,35.7333,-90.0403,70,0.227,2024-01-15
uwmfieldsta,43.38709,-88.0229,265,1.124,2024-01-15
vaira,38.41328056,-120.9506361,129,-0.253,2024-01-15
vallesburnedconifer,35.8884,-106.5321,3043,1.018,2024-01-15
vallesmixedconifer,35.9192,-106.6142,2752,1.17,2024-01-15
vallesponderosapine,35.864,-106.5964,2501,1.175,2024-01-15
waahila,21.3017,-157.8152,55,-9999.0,2024-01-15
warrenwilson,35.6069,-82.4421,2198,1.718,2024-01-15
willamettepoplar,44.1368,-123.1823,112,-0.604,2024-01-15
willowcreek,45.805986,-90.07912,521,-0.727,2024-01-15
windriver,45.8212833,-121.9520833,371,-0.457,2024-01-15
windriverunderstory,45.8212833,-121.9520833,371,-0.457,2024-01-15
wolfesneckfarm,43.8305,-70.0715,16,1.762,2024-01-15
worcester,42.2697,-71.8428,185,2.746,2024-01-15
alligatorriver,35.7879,-75.9038,1,-0.688,2024-01-22
arbutuslake,43.98207,-74.23322,535,0.245,2024-01-22
arbutuslakeinlet,43.99336,-74.24527,527,0.245,2024-01-22
archboldavir,27.176064,-81.21958,8,2.448,2024-01-22
archboldavirx,27.166627,-81.219828,8,2.448,2024-01-22
archboldbahia,27.1656,-81.216112,8,2.448,2024-01-22
archboldpnot,27.187948,-81.200345,9,2.448,2024-01-22
archboldpnotx,27.180677,-81.20068,9,2.448,2024-01-22
arkansascornsoy,34.416,-91.6723,61,-0.069,2024-01-22
arsbrooks10,41.9749,-93.6905,312,2.599,2024-01-22
arsbrooks11,41.9744,-93.6937,313,2.599,2024-01-22
arscolesnorth,42.4884,-93.5225,356,1.796,2024-01-22
arscolessouth,42.4816,-93.5235,352,1.796,2024-01-22
arsgacp1,31.5109,-83.6179,96,0.1,2024-01-22
arsgacp3,31.7563,-83.7516,139,0.408,2024-01-22
arsgacp4,31.7093,-83.7287,127,0.289,2024-01-22
arsgreatbasinltar098,43.1675,-116.7132,1426,2.611,2024-01-22
arsgreatbasinltar117,43.1432,-116.7357,1625,2.018,2024-01-22
arsgreatbasinltar177,43.0645,-116.7484,2114,2.295,2024-01-22
arsltarmdcr,39.0587,-75.8513,17,2.788,2024-01-22
arsltarmdcrnatw,39.0575,-75.7531,16,2.792,2024-01-22
arsltarmdcrprcw,39.0667,-75.7609,17,2.792,2024-01-22
arsltarmdcrresw,39.0549,-75.7532,16,2.792,2024-01-22
arsltarucbec1,40.7537,-78.0057,400,1.872,2024-01-22
arsltarucbec2,40.7558,-77.9999,396,1.872,2024-01-22
arsmnswanlake1,45.684508,-95.799703,370,2.184,2024-01-22
arsmorris1,45.6167,-96.1269,341,2.081,2024-01-22
arsmorris2,45.627,-96.127,338,2.081,2024-01-22
arsmorris3,45.6091,-96.1265,342,2.081,2024-01-22
arsope3ltar,39.0309,-76.8442,41,2.554,2024-01-22
ashburnham,42.6029,-71.926,292,1.425,2024-01-22
asuhighlands,36.2076,-81.7032,1016,1.987,2024-01-22
austincary,29.738,-82.2188,44,1.158,2024-01-22
barrow,71.28007453,-156.6091492,5,-9999.0,2024-01-22
bartlettir,44.0646,-71.2881,268,1.376,2024-01-22
bigtraillake,64.9194,-147.822,190,-9999.0,2024-01-22
bitterbrush001,48.154,-119.9456,667,-1.291,2024-01-22
blackrockforest,41.3974,-74.0239,427,1.804,2024-01-22
bnzblackspruce,64.6963,-148.3235,102,-9999.0,2024-01-22
bnzrichfen,64.70134,-148.31195,97,-9999.0,2024-01-22
bnzthermokarstbog,64.6955,-148.3208,104,-9999.0,2024-01-22
boglakepeatland,47.5051,-93.4893,416,1.665,2024-01-22
bostoncommon,42.355912,-71.064145,10,1.913,2024-01-22
bostonu,42.35041,-71.10438,10,1.892,2024-01-22
bouldinalfalfa,38.0985,-121.4993,-5,-0.14,2024-01-22
bouldincorn,38.109,-121.535,-5,-0.085,2024-01-22
bozeman,45.783056,-110.777778,2332,-0.855,2024-01-22
brackishimpoundment,33.2015,-79.2973,1,-0.371,2024-01-22
bullshoals,36.562833,-93.06663,260,-0.074,2024-01-22
burnssagebrush,43.4712,-119.6909,1398,0.918,2024-01-22
butte,45.95304,-112.47964,1682,0.36,2024-01-22
butterice,39.5793,-121.858,33,-0.125,2024-01-22
cafboydnorthltar01,46.755104,-117.126052,795,-0.514,2024-01-22
cafboydsouthltar01,46.751809,-117.128502,795,-0.514,2024-01-22
cafcookeastltar01,46.78152,-117.0821,794,-0.562,2024-01-22
cafcookwestltar01,46.784037,-117.09083,807,-0.562,2024-01-22
caryinstitute,41.7839,-73.7341,127,1.412,2024-01-22
centralredwoods1,38.632272,-123.301511,200,0.145,2024-01-22
centralredwoods2,38.632272,-123.301511,200,0.145,2024-01-22
cperagm,40.8402,-104.7672,1644,0.12,2024-01-22
cperheavy,40.8153,-104.7386,1652,0.052,2024-01-22
cpertgm,40.833,-104.76,1644,0.036,2024-01-22
cperuvb,40.8055764,-104.7558542,1641,0.036,2024-01-22
cuny,40.8162,-73.9507,42,2.122,2024-01-22
doverdesaltmarsh,39.0888,-75.4368,0,2.52,2024-01-22
downerwoods,43.07938,-87.88076,213,1.813,2024-01-22
dukehw,35.973583,-79.100371,400,2.286,2024-01-22
ecb1,41.5348,-84.8068,275,0.335,2024-01-22
ecb2,41.5321,-84.808,275,0.335,2024-01-22
ecb4,41.1796,-83.0604,240,-0.006,2024-01-22
elverde,18.320654,-65.8199,312,-9999.0,2024-01-22
flagstaff,35.17961521,-111.6049032,6983,0.031,2024-01-22
flagstaff2,35.179225,-111.604506,6983,0.031,2024-01-22
flagstaffchimneysprings,35.257296,-111.678542,2250,-0.119,2024-01-22
forbes,39.232,-121.2972,360,-0.371,2024-01-22
fortpaynealpasture1,34.3824,-85.6428,405,1.277,2024-01-22
fortpaynealpasture2,34.3824,-85.6447,403,1.277,2024-01-22
gcesapelo,31.4440444,-81.283528,0,0.809,2024-01-22
gilberttract,38.0015,-121.6691,6,0.015,2024-01-22
glees,41.3644,-106.2394,3150,1.181,2024-01-22
glennorganicrice,39.6805,-122.0026,2,0.132,2024-01-22
glennrice,39.5944,-122.0253,36,0.211,2024-01-22
goodnow,43.96018,-74.20994,820,0.421,2024-01-22
goodwater,39.22848,-92.11936,264,0.472,2024-01-22
goodwaterbau,39.23115,-92.15216,274,0.499,2024-01-22
grandteton,43.915017,-110.578036,2054,-0.714,2024-01-22
grca1pj,36.0241,-112.2211,1978,0.187,2024-01-22
greenridge1,39.6905,-78.4067,285,1.722,2024-01-22
harvard,42.5378,-72.1715,340,1.196,2024-01-22
harvardbarn,42.53532,-72.1899,350,1.08,2024-01-22
harvardbarn2,42.53532,-72.1899,350,1.08,2024-01-22
harvardems2,42.5378,-72.1715,340,1.196,2024-01-22
harvardfarmnorth,42.520465,-72.182242,355,1.08,2024-01-22
harvardfarmsouth,42.522466,-72.182339,355,1.08,2024-01-22
harvardgarden,42.5291,-72.1863,335,1.08,2024-01-22
harvardhemlock,42.539,-72.18,355,1.08,2024-01-22
harvardhemlock2,42.539407,-72.177976,355,1.196,2024-01-22
harvardlph,42.542,-72.185,380,1.08,2024-01-22
hawbeckereddy,40.6608,-77.848849,310,1.798,2024-01-22
hobcawclearcutlongleaf,33.3486,-79.232,4,-0.339,2024-01-22
hobcawmaturelongleaf,33.3242,-79.2439,8,-0.339,2024-01-22
homesteadsprings,37.2009,-92.9937,452,-0.298,2024-01-22
howland1,45.2041,-68.7403,80,0.249,2024-01-22
howland2,45.2128,-68.7418,79,0.249,2024-01-22
hubbardbrook,43.9438,-71.701,253,1.487,2024-01-22
humnokericea,34.585192,-91.751684,61,0.137,2024-01-22
humnokericec,34.588853,-91.7516729,70,0.137,2024-01-22
huyckpreserveny,42.5266,-74.1587,478,1.303,2024-01-22
hwmo1,20.0212,-155.7331,585,-9999.0,2024-01-22
hwmo2,19.9766,-155.8298,12,-9999.0,2024-01-22
hwmo5,20.1117,-155.8151,635,-9999.0,2024-01-22
ibp,32.589,-106.847,1325,0.863,2024-01-22
imcrkfen,68.60583,-149.31101,900,-9999.0,2024-01-22
imcrkridge0,68.60681,-149.2958,951,-9999.0,2024-01-22
imcrkridge1,68.60681,-149.2958,951,-9999.0,2024-01-22
imcrktussock,68.60633,-149.30408,918,-9999.0,2024-01-22
jasperridge,37.402028,-122.22104,197,-0.019,2024-01-22
jerbajada,32.57992,-106.633793,1402,0.599,2024-01-22
jergrassland,32.5833,-106.8333,1331,0.863,2024-01-22
jernort,32.619,-106.788,1328,0.875,2024-01-22
jernovel,32.6335,-106.8334,1324,0.87,2024-01-22
jernwern,32.6271,-106.7387,1325,0.829,2024-01-22
jersand,32.515,-106.798,1363,0.691,2024-01-22
jershrubland,32.6502,-106.8334,1328,0.883,2024-01-22
junipersavannah,34.4254,-105.8615,1931,0.965,2024-01-22
kamuela,20.015008,-155.661326,850,-9999.0,2024-01-22
kamuela2,20.014959,-155.661139,830,-9999.0,2024-01-22
kansas,39.0561,-95.1907,333,1.968,2024-01-22
kelloggcorn,42.437536,-85.3225472,288,0.927,2024-01-22
kempnrs,45.83992,-89.67755,539,-0.596,2024-01-22
kendall,31.73652,-109.94185,1529,0.873,2024-01-22
konza,39.0824,-96.5603,443,2.531,2024-01-22
laupahoehoe,19.9322,-155.2912,1145,-9999.0,2024-01-22
ldeocam,41.0039,-73.9053,121,2.365,2024-01-22
lostcreek,46.0827,-89.9792,480,-0.259,2024-01-22
luckyhills,31.743896,-110.052023,1366,1.029,2024-01-22
macleish,42.4484,-72.6804,251,1.411,2024-01-22
macordway,44.8106,-93.0272,264,0.702,2024-01-22
mandanh5,46.775423,-100.95109,593,-0.036,2024-01-22
mandani2,46.7614,-100.9257,590,-0.036,2024-01-22
manilacotton,35.8872,-90.1371,73,1.154,2024-01-22
marena,36.06434,-97.21271,327,1.475,2024-01-22
mead1,41.1651,-96.4766,361,2.216,2024-01-22
mead2,41.1649,-96.4701,362,2.216,2024-01-22
mead3,41.1797,-96.4397,363,2.132,2024-01-22
meadpasture,41.1447,-96.4616,356,2.177,2024-01-22
meadpasturese,41.1447,-96.4616,356,2.177,2024-01-22
meadpasturesw,41.1447,-96.4616,356,2.177,2024-01-22
missouriozarks,38.7441,-92.2,219,0.408,2024-01-22
morganmonroe,39.3231,-86.4131,275,0.178,2024-01-22
morganmonroe2,39.3231,-86.4131,275,0.178,2024-01-22
nahuku,19.415187,-155.238383,1202,-9999.0,2024-01-22
nationalelkrefuge,43.488931,-110.737824,1899,-0.014,2024-01-22
ncssm,36.018446,-78.92075,175,2.462,2024-01-22
NEON.D01.BART.DP1.00033,44.063869,-71.287375,285,1.376,2024-01-22
NEON.D01.HARV.DP1.00033,42.536911,-72.17265,359,1.196,2024-01-22
NEON.D01.HOPB.DP1.20002,42.471786,-72.329627,203,1.053,2024-01-22
NEON.D02.BLAN.DP1.00033,39.033698,-78.041788,162,1.842,2024-01-22
NEON.D02.LEWI.DP1.20002,39.09564,-77.98322,152,1.646,2024-01-22
NEON.D02.POSE.DP1.20002,38.89332,-78.14678,293,1.809,2024-01-22
NEON.D02.SCBI.DP1.00033,38.892925,-78.139494,364,1.919,2024-01-22
NEON.D02.SERC.DP1.00033,38.89008,-76.56001,30,2.701,2024-01-22
NEON.D03.BARC.DP1.20002,29.676473,-82.009089,35,1.23,2024-01-22
NEON.D03.DSNY.DP1.00033,28.12505,-81.43619,22,1.631,2024-01-22
NEON.D03.FLNT.DP1.20002,31.185424,-84.437403,27,0.345,2024-01-22
NEON.D03.JERC.DP1.00033,31.194839,-84.468623,58,0.384,2024-01-22
NEON.D03.OSBS.DP1.00033,29.689282,-81.993431,56,1.114,2024-01-22
NEON.D03.SUGG.DP1.20002,29.687054,-82.016171,28,1.114,2024-01-22
NEON.D04.CUPE.DP1.20002,18.11352,-66.98676,164,-9999.0,2024-01-22
NEON.D04.GUAN.DP1.00033,17.96955,-66.8687,136,-9999.0,2024-01-22
NEON.D04.GUIL.DP1.20002,18.1741,-66.79851,564,-9999.0,2024-01-22
NEON.D04.LAJA.DP1.00033,18.021261,-67.076889,22,-9999.0,2024-01-22
NEON.D05.CRAM.DP1.20002,46.21111,-89.47825,518,-0.584,2024-01-22
NEON.D05.LIRO.DP1.20002,45.998269,-89.704767,495,-0.527,2024-01-22
NEON.D05.STEI.DP1.00033,45.50894,-89.58637,476,-0.641,2024-01-22
NEON.D05.TREE.DP1.00033,45.49373,-89.58572,474,-0.641,2024-01-22
NEON.D05.UNDE.DP1.00033,46.23391,-89.537254,529,-0.588,2024-01-22
NEON.D06.KING.DP1.20002,39.10506,-96.60336,339,2.511,2024-01-22
NEON.D06.KONA.DP1.00033,39.110446,-96.612935,443,2.511,2024-01-22
NEON.D06.KONZ.DP1.00033,39.10077,-96.56309,415,2.531,2024-01-22
NEON.D06.MCDI.DP1.20002,38.94428,-96.44197,376,2.397,2024-01-22
NEON.D06.UKFS.DP1.00033,39.040431,-95.19215,330,1.968,2024-01-22
NEON.D07.GRSM.DP1.00033,35.68896,-83.50195,589,0.665,2024-01-22
NEON.D07.LECO.DP1.20002,35.69043,-83.50379,578,0.665,2024-01-22
NEON.D07.MLBS.DP1.00033,37.378314,-80.524847,1177,1.882,2024-01-22
NEON.D07.ORNL.DP1.00033,35.964128,-84.282588,351,0.474,2024-01-22
NEON.D07.WALK.DP1.20002,35.95947,-84.28041,274,0.628,2024-01-22
NEON.D08.BLWA.DP1.20002,32.541529,-87.798151,23,0.457,2024-01-22
NEON.D08.DELA.DP1.00033,32.541727,-87.803877,36,0.457,2024-01-22
NEON.D08.LENO.DP1.00033,31.85388,-88.16122,10,0.308,2024-01-22
NEON.D08.MAYF.DP1.20002,32.959657,-87.408128,93,0.682,2024-01-22
NEON.D08.TALL.DP1.00033,32.95047,-87.393259,167,0.682,2024-01-22
NEON.D08.TOMB.DP1.20002,31.853431,-88.158872,10,0.308,2024-01-22
NEON.D09.DCFS.DP1.00033,47.161647,-99.106556,574,-0.351,2024-01-22
NEON.D09.NOGP.DP1.00033,46.76972,-100.91535,589,-0.036,2024-01-22
NEON.D09.PRLA.DP1.20002,47.15909,-99.11388,563,-0.296,2024-01-22
NEON.D09.PRPO.DP1.20002,47.12999,-99.250551,587,-0.315,2024-01-22
NEON.D09.WOOD.DP1.00033,47.1282,-99.241334,585,-0.315,2024-01-22
NEON.D10.ARIK.DP1.20002,39.758246,-102.447103,1188,1.777,2024-01-22
NEON.D10.CPER.DP1.00033,40.81553,-104.7456,1600,0.036,2024-01-22
NEON.D10.HQTW.DP1.00033,40.016704,-105.245612,1601,1.245,2024-01-22
NEON.D10.RMNP.DP1.00033,40.275903,-105.545955,2751,0.977,2024-01-22
NEON.D10.STER.DP1.00033,40.461894,-103.02929,1366,1.031,2024-01-22
NEON.D11.BLUE.DP1.20002,34.444218,-96.624201,288,0.431,2024-01-22
NEON.D11.CLBJ.DP1.00033,33.40123,-97.57,279,0.819,2024-01-22
NEON.D11.OAES.DP1.00033,35.41059,-99.05879,520,1.424,2024-01-22
NEON.D11.PRIN.DP1.20002,33.37859,-97.78226,255,0.674,2024-01-22
NEON.D12.BLDE.DP1.20002,44.95011,-110.58715,2035,-0.4,2024-01-22
NEON.D12.YELL.DP1.00033,44.95348,-110.53914,2130,-0.747,2024-01-22
NEON.D13.COMO.DP1.20002,40.03496,-105.54487,3036,1.858,2024-01-22
NEON.D13.MOAB.DP1.00033,38.24833,-109.38827,1803,-0.195,2024-01-22
NEON.D13.NIWO.DP1.00033,40.05425,-105.58237,3493,1.35,2024-01-22
NEON.D13.WLOU.DP1.20002,39.891366,-105.915395,2920,2.507,2024-01-22
NEON.D14.JORN.DP1.00033,32.59068,-106.84254,1321,0.863,2024-01-22
NEON.D14.SRER.DP1.00033,31.91068,-110.83549,999,1.008,2024-01-22
NEON.D14.SYCA.DP1.20002,33.749057,-111.506903,644,0.501,2024-01-22
NEON.D15.ONAQ.DP1.00033,40.177599,-112.452452,1655,0.306,2024-01-22
NEON.D15.REDB.DP1.20002,40.783934,-111.797887,1696,0.187,2024-01-22
NEON.D16.ABBY.DP1.00033,45.76243,-122.33033,390,-0.11,2024-01-22
NEON.D16.MART.DP1.20002,45.791248,-121.931959,354,-0.071,2024-01-22
NEON.D16.MCRA.DP1.20002,44.259598,-122.165554,880,0.549,2024-01-22
NEON.D16.WREF.DP1.00033,45.82049,-121.95191,368,0.009,2024-01-22
NEON.D17.BIGC.DP1.20002,37.059719,-119.257549,1133,-0.615,2024-01-22
NEON.D17.SJER.DP1.00033,37.10878,-119.73228,398,-0.544,2024-01-22
NEON.D17.SOAP.DP1.00033,37.03337,-119.26219,1210,-0.638,2024-01-22
NEON.D17.TEAK.DP1.00033,37.00583,-119.00602,2149,-0.532,2024-01-22
NEON.D17.TECR.DP1.20002,36.955931,-119.027363,2053,-0.551,2024-01-22
NEON.D18.BARR.DP1.00033,71.28241,-156.61936,7,-9999.0,2024-01-22
NEON.D18.OKSR.DP1.20002,68.669753,-149.143018,773,-9999.0,2024-01-22
NEON.D18.TOOK.DP1.20002,68.629562,-149.610509,715,-9999.0,2024-01-22
NEON.D18.TOOL.DP1.00033,68.66109,-149.37047,827,-9999.0,2024-01-22
NEON.D19.BONA.DP1.00033,65.15401,-147.50258,233,-9999.0,2024-01-22
NEON.D19.CARI.DP1.20002,65.15306,-147.50246,229,-9999.0,2024-01-22
NEON.D19.DEJU.DP1.00033,63.88112,-145.75136,504,-9999.0,2024-01-22
NEON.D19.HEAL.DP1.00033,63.87569,-149.21334,409,-9999.0,2024-01-22
NEON.D20.PUUM.DP1.00033,19.55309,-155.31731,1683,-9999.0,2024-01-22
nevcansnk3a,39.0099,-114.3095,3063,-0.156,2024-01-22
nevcanspg1a,38.9253,-114.4082,1792,0.557,2024-01-22
nevcanspg2a,38.8921,-114.3521,2203,0.28,2024-01-22
nevcanspg3a,38.8898,-114.3314,2820,-0.106,2024-01-22
nevcanspg4a,38.9061,-114.3089,3360,-0.106,2024-01-22
ninemileprairie,40.86801886,-96.82208066,381,1.777,2024-01-22
nist,39.139,-77.2125,100,2.223,2024-01-22
niwot3,40.03286358,-105.5469702,3050,1.858,2024-01-22
niwot5,40.03286358,-105.5469702,2993,1.858,2024-01-22
northattleboroma,41.98369,-71.31056,60,2.244,2024-01-22
northinletsaltmarsh,33.3455,-79.1957,1,-0.349,2024-01-22
oakville,47.899334,-97.316139,268,0.441,2024-01-22
oregonMP,44.4523,-121.5574,1253,0.314,2024-01-22
oregonYP,44.32384,-121.605993,977,0.467,2024-01-22
oregonYPbud,44.3238,-121.606,977,0.467,2024-01-22
othshardwood,44.934805,-68.6655,41,0.172,2024-01-22
othssoftwood,44.934527,-68.664888,41,0.172,2024-01-22
pace,37.9229,-78.2739,100,2.354,2024-01-22
parkschoolbuffalo,42.9637,-78.7834,205,0.549,2024-01-22
piedmontalpasture2,33.8875,-85.6935,238,1.354,2024-01-22
portal,31.9385,-109.0823,1330,0.249,2024-01-22
proctor,44.525,-72.866,403,0.362,2024-01-22
readingma,42.5304,-71.1272,100,1.643,2024-01-22
robinson,37.4671,-83.1576,483,0.404,2024-01-22
robinson2,37.4671,-83.1576,483,0.404,2024-01-22
rosemountcons,44.6946,-93.0578,283,0.543,2024-01-22
rosemountconv,44.691,-93.0576,283,0.543,2024-01-22
rosemountnprs,44.6781,-93.0723,274,0.712,2024-01-22
russellsage,32.456961,-91.974322,20,-0.538,2024-01-22
sagehen,39.4315,-120.2398,1934,-0.553,2024-01-22
sagehen2,39.4307,-120.2407,1937,-0.553,2024-01-22
sagehen3,39.4311,-120.2405,1935,-0.553,2024-01-22
sanford,42.726777,-84.464482,268,0.857,2024-01-22
santacruz1,36.9741,-122.0308,11,0.109,2024-01-22
santacruz2,36.9741,-122.0308,11,0.109,2024-01-22
santaluciapreserve1,36.5265,-121.8682,500,0.517,2024-01-22
santaluciapreserve2,36.5265,-121.8682,500,0.517,2024-01-22
segaarboretum10,35.16209,-111.73151,2170,-0.049,2024-01-22
segaarboretum2,35.16209,-111.73151,2170,-0.049,2024-01-22
segaarboretum3,35.16209,-111.73151,2170,-0.049,2024-01-22
segaarboretum4,35.16214,-111.73153,2170,-0.049,2024-01-22
segaarboretum6,35.16209,-111.73151,2170,-0.049,2024-01-22
segaarboretum9,35.16222,-111.73158,2170,-0.049,2024-01-22
segaarboretumforest,35.1613,-111.7359,2173,-0.049,2024-01-22
segaarboretummeadow,35.1621,-111.7316,2157,-0.049,2024-01-22
segablackpoint,35.6814,-111.4754,1566,0.095,2024-01-22
segabluechute,35.5876,-111.9716,1930,0.323,2024-01-22
segabluechute1,35.58759,-111.97115,1931,0.323,2024-01-22
segabluechute2,35.58759,-111.97115,1931,0.323,2024-01-22
segabluechute4,35.58759,-111.9716,1931,0.323,2024-01-22
segabluechute6,35.58759,-111.97115,1931,0.323,2024-01-22
segabluechute7,35.58759,-111.97115,1931,0.323,2024-01-22
segabluechute8,35.58759,-111.97115,1931,0.323,2024-01-22
segabradshaw,34.9109,-111.9285,1402,0.081,2024-01-22
segahartprairie,35.3536,-111.7324,2585,-0.26,2024-01-22
segalcr,35.7231,-111.321,1275,0.077,2024-01-22
segalcr2,35.7069,-111.36,1495,0.019,2024-01-22
segalittlemountain,36.5865,-112.3634,2276,-0.295,2024-01-22
segasoapcreek,36.751,-111.716,1233,0.01,2024-01-22
segawhitepockets,36.6081,-112.4082,2057,-0.19,2024-01-22
sevilletagrass,34.360444,-106.700186,1600,0.387,2024-01-22
sevilletanewgrass,34.358,-106.6799,1603,0.323,2024-01-22
sevilletashrub,34.334956,-106.744469,1603,0.367,2024-01-22
sevMRME10L,34.3438,-106.7269,1604,0.348,2024-01-22
sevMRME11C,34.3438,-106.7268,1604,0.348,2024-01-22
sevMRME1S,34.3442,-106.7272,1604,0.348,2024-01-22
sevpjrm12,34.38615,-106.52621,1905,0.367,2024-01-22
sevpjrm13,34.38631,-106.52791,1914,0.367,2024-01-22
shalehillsczo,40.6658,-77.9041,310,1.884,2024-01-22
shenandoah,38.6167,-78.35,1037,1.546,2024-01-22
silverton,44.9986,-122.6948,347,0.266,2024-01-22
siwetland,38.0369,-121.7546,-5,0.04,2024-01-22
slatefloodplain,38.9094,-107.0282,2725,0.408,2024-01-22
snodgrass1,38.92619636,-106.9714376,3023,0.584,2024-01-22
snodgrass2,38.92619636,-106.9714376,3023,0.584,2024-01-22
snodgrass3,38.92839978,-106.9781196,3141,0.584,2024-01-22
snodgrass4,38.92839978,-106.9781196,3141,0.584,2024-01-22
snodgrass5,38.92744789,-106.9785209,3152,0.584,2024-01-22
snodgrass6,38.92744789,-106.9785209,3152,0.584,2024-01-22
snodgrass7,38.93142134,-106.9852388,3363,0.494,2024-01-22
snodgrass8,38.93142134,-106.9852388,3363,0.494,2024-01-22
southerngreatplains,36.6058,-97.4888,314,1.376,2024-01-22
springfieldma,42.135162,-72.585972,56,1.852,2024-01-22
spruceA0EMI,47.5049,-93.4541,413,1.67,2024-01-22
spruceA0EMT,47.5049,-93.4541,418,1.67,2024-01-22
spruceA0P07,47.50493,-93.45314,413,1.67,2024-01-22
spruceA0P07SH,47.50493,-93.45314,413,1.67,2024-01-22
spruceA0P21,47.50625,-93.45275,413,1.67,2024-01-22
spruceA0P21SH,47.50625,-93.45275,413,1.67,2024-01-22
srg,31.7894,-110.8276,1281,0.749,2024-01-22
srm,31.8214,-110.8661,1116,1.029,2024-01-22
statenrice1,38.1235,-121.549,-5,-0.109,2024-01-22
stjones,39.088222,-75.43725,2,2.52,2024-01-22
sweetbriar,37.57341,-79.08482,242,1.579,2024-01-22
sweetbriarclearcut,37.5753,-79.0872,242,1.579,2024-01-22
sweetbriargrass,37.5605,-79.0884,240,1.579,2024-01-22
sylvania,46.242,-89.348,540,-0.67,2024-01-22
templefieldstation1,40.1667,-75.1894,105,2.571,2024-01-22
tfforest,43.1086,-70.9505,23,1.828,2024-01-22
tidmarshplymouth,41.9157,-70.5754,9,1.742,2024-01-22
tonzi,38.43091667,-120.9658861,177,-0.277,2024-01-22
townsenddemeadow,39.3917,-75.6281,11,2.772,2024-01-22
tsubiology,36.1671,-86.8295,164,0.238,2024-01-22
tsubiology2,36.1171,-86.8295,100,0.496,2024-01-22
tuckerprairie,38.9491,-91.9952,274,0.67,2024-01-22
twodafo,29.1658,-95.829,16,1.571,2024-01-22
tworfaa,31.4777,-96.8882,167,0.754,2024-01-22
tworfpr,31.4802,-96.8826,162,0.661,2024-01-22
tworfta,31.4693,-96.8864,173,0.754,2024-01-22
twosfpr,30.6176,-97.2938,157,0.781,2024-01-22
ucnrsanzaborrego,33.2401,-116.3886,214,0.556,2024-01-22
ufona,27.3836,-81.950856,25,2.497,2024-01-22
uiefmaize2,40.0628,-88.1961,224,0.876,2024-01-22
uiefmiscanthus2,40.0628,-88.1984,221,0.876,2024-01-22
uiefprairie2,40.0637,-88.1973,224,0.876,2024-01-22
uiefsorghum,40.0065,-88.2032,224,0.72,2024-01-22
uiefswitchgrass2,40.0637,-88.1973,224,0.876,2024-01-22
umichbiological,45.55984,-84.71382,230,0.332,2024-01-22
umichbiological2,45.5625,-84.6976,240,0.309,2024-01-22
unca,35.5951,-82.5515,650,1.836,2024-01-22
usgseros,43.7343,-96.6234,448,2.302,2024-01-22
usmpj,34.43845,-106.2543606,2126,0.787,2024-01-22
usof5,35.7297,-90.0406,70,0.625,2024-01-22
usof6,35.7333,-90.0403,70,0.625,2024-01-22
uwmfieldsta,43.38709,-88.0229,265,2.001,2024-01-22
vaira,38.41328056,-120.9506361,129,-0.277,2024-01-22
vallesburnedconifer,35.8884,-106.5321,3043,0.97,2024-01-22
vallesmixedconifer,35.9192,-106.6142,2752,1.277,2024-01-22
vallesponderosapine,35.864,-106.5964,2501,1.296,2024-01-22
waahila,21.3017,-157.8152,55,-9999.0,2024-01-22
warrenwilson,35.6069,-82.4421,2198,1.434,2024-01-22
willamettepoplar,44.1368,-123.1823,112,0.307,2024-01-22
willowcreek,45.805986,-90.07912,521,-0.423,2024-01-22
windriver,45.8212833,-121.9520833,371,0.009,2024-01-22
windriverunderstory,45.8212833,-121.9520833,371,0.009,2024-01-22
wolfesneckfarm,43.8305,-70.0715,16,1.183,2024-01-22
worcester,42.2697,-71.8428,185,1.944,2024-01-22
alligatorriver,35.7879,-75.9038,1,-1.438,2024-01-29
arbutuslake,43.98207,-74.23322,535,0.888,2024-01-29
arbutuslakeinlet,43.99336,-74.24527,527,0.888,2024-01-29
archboldavir,27.176064,-81.21958,8,1.518,2024-01-29
archboldavirx,27.166627,-81.219828,8,1.518,2024-01-29
archboldbahia,27.1656,-81.216112,8,1.518,2024-01-29
archboldpnot,27.187948,-81.200345,9,1.518,2024-01-29
archboldpnotx,27.180677,-81.20068,9,1.518,2024-01-29
arkansascornsoy,34.416,-91.6723,61,1.657,2024-01-29
arsbrooks10,41.9749,-93.6905,312,1.813,2024-01-29
arsbrooks11,41.9744,-93.6937,313,1.813,2024-01-29
arscolesnorth,42.4884,-93.5225,356,0.792,2024-01-29
arscolessouth,42.4816,-93.5235,352,0.792,2024-01-29
arsgacp1,31.5109,-83.6179,96,0.275,2024-01-29
arsgacp3,31.7563,-83.7516,139,0.541,2024-01-29
arsgacp4,31.7093,-83.7287,127,0.441,2024-01-29
arsgreatbasinltar098,43.1675,-116.7132,1426,2.857,2024-01-29
arsgreatbasinltar117,43.1432,-116.7357,1625,2.257,2024-01-29
arsgreatbasinltar177,43.0645,-116.7484,2114,2.397,2024-01-29
arsltarmdcr,39.0587,-75.8513,17,2.213,2024-01-29
arsltarmdcrnatw,39.0575,-75.7531,16,2.224,2024-01-29
arsltarmdcrprcw,39.0667,-75.7609,17,2.224,2024-01-29
arsltarmdcrresw,39.0549,-75.7532,16,2.224,2024-01-29
arsltarucbec1,40.7537,-78.0057,400,1.56,2024-01-29
arsltarucbec2,40.7558,-77.9999,396,1.56,2024-01-29
arsmnswanlake1,45.684508,-95.799703,370,-0.461,2024-01-29
arsmorris1,45.6167,-96.1269,341,-0.548,2024-01-29
arsmorris2,45.627,-96.127,338,-0.548,2024-01-29
arsmorris3,45.6091,-96.1265,342,-0.548,2024-01-29
arsope3ltar,39.0309,-76.8442,41,1.794,2024-01-29
ashburnham,42.6029,-71.926,292,1.602,2024-01-29
asuhighlands,36.2076,-81.7032,1016,1.268,2024-01-29
austincary,29.738,-82.2188,44,1.389,2024-01-29
barrow,71.28007453,-156.6091492,5,-9999.0,2024-01-29
bartlettir,44.0646,-71.2881,268,1.368,2024-01-29
bigtraillake,64.9194,-147.822,190,-9999.0,2024-01-29
bitterbrush001,48.154,-119.9456,667,-0.732,2024-01-29
blackrockforest,41.3974,-74.0239,427,1.171,2024-01-29
bnzblackspruce,64.6963,-148.3235,102,-9999.0,2024-01-29
bnzrichfen,64.70134,-148.31195,97,-9999.0,2024-01-29
bnzthermokarstbog,64.6955,-148.3208,104,-9999.0,2024-01-29
boglakepeatland,47.5051,-93.4893,416,-0.397,2024-01-29
bostoncommon,42.355912,-71.064145,10,1.937,2024-01-29
bostonu,42.35041,-71.10438,10,1.924,2024-01-29
bouldinalfalfa,38.0985,-121.4993,-5,0.279,2024-01-29
bouldincorn,38.109,-121.535,-5,0.299,2024-01-29
bozeman,45.783056,-110.777778,2332,-0.815,2024-01-29
brackishimpoundment,33.2015,-79.2973,1,-0.734,2024-01-29
bullshoals,36.562833,-93.06663,260,1.288,2024-01-29
burnssagebrush,43.4712,-119.6909,1398,1.61,2024-01-29
butte,45.95304,-112.47964,1682,0.25,2024-01-29
butterice,39.5793,-121.858,33,0.38,2024-01-29
cafboydnorthltar01,46.755104,-117.126052,795,0.254,2024-01-29
cafboydsouthltar01,46.751809,-117.128502,795,0.254,2024-01-29
cafcookeastltar01,46.78152,-117.0821,794,0.241,2024-01-29
cafcookwestltar01,46.784037,-117.09083,807,0.241,2024-01-29
caryinstitute,41.7839,-73.7341,127,1.461,2024-01-29
centralredwoods1,38.632272,-123.301511,200,0.355,2024-01-29
centralredwoods2,38.632272,-123.301511,200,0.355,2024-01-29
cperagm,40.8402,-104.7672,1644,0.422,2024-01-29
cperheavy,40.8153,-104.7386,1652,0.452,2024-01-29
cpertgm,40.833,-104.76,1644,0.422,2024-01-29
cperuvb,40.8055764,-104.7558542,1641,0.422,2024-01-29
cuny,40.8162,-73.9507,42,1.238,2024-01-29
doverdesaltmarsh,39.0888,-75.4368,0,1.931,2024-01-29
downerwoods,43.07938,-87.88076,213,1.734,2024-01-29
dukehw,35.973583,-79.100371,400,1.58,2024-01-29
ecb1,41.5348,-84.8068,275,1.399,2024-01-29
ecb2,41.5321,-84.808,275,1.399,2024-01-29
ecb4,41.1796,-83.0604,240,0.651,2024-01-29
elverde,18.320654,-65.8199,312,-9999.0,2024-01-29
flagstaff,35.17961521,-111.6049032,6983,0.332,2024-01-29
flagstaff2,35.179225,-111.604506,6983,0.332,2024-01-29
flagstaffchimneysprings,35.257296,-111.678542,2250,0.159,2024-01-29
forbes,39.232,-121.2972,360,0.301,2024-01-29
fortpaynealpasture1,34.3824,-85.6428,405,1.553,2024-01-29
fortpaynealpasture2,34.3824,-85.6447,403,1.553,2024-01-29
gcesapelo,31.4440444,-81.283528,0,0.654,2024-01-29
gilberttract,38.0015,-121.6691,6,0.42,2024-01-29
glees,41.3644,-106.2394,3150,1.124,2024-01-29
glennorganicrice,39.6805,-122.0026,2,0.402,2024-01-29
glennrice,39.5944,-122.0253,36,0.443,2024-01-29
goodnow,43.96018,-74.20994,820,1.021,2024-01-29
goodwater,39.22848,-92.11936,264,0.912,2024-01-29
goodwaterbau,39.23115,-92.15216,274,0.93,2024-01-29
grandteton,43.915017,-110.578036,2054,-0.52,2024-01-29
grca1pj,36.0241,-112.2211,1978,0.542,2024-01-29
greenridge1,39.6905,-78.4067,285,1.12,2024-01-29
harvard,42.5378,-72.1715,340,1.41,2024-01-29
harvardbarn,42.53532,-72.1899,350,1.352,2024-01-29
harvardbarn2,42.53532,-72.1899,350,1.352,2024-01-29
harvardems2,42.5378,-72.1715,340,1.41,2024-01-29
harvardfarmnorth,42.520465,-72.182242,355,1.352,2024-01-29
harvardfarmsouth,42.522466,-72.182339,355,1.352,2024-01-29
harvardgarden,42.5291,-72.1863,335,1.352,2024-01-29
harvardhemlock,42.539,-72.18,355,1.352,2024-01-29
harvardhemlock2,42.539407,-72.177976,355,1.41,2024-01-29
harvardlph,42.542,-72.185,380,1.352,2024-01-29
hawbeckereddy,40.6608,-77.848849,310,1.471,2024-01-29
hobcawclearcutlongleaf,33.3486,-79.232,4,-0.566,2024-01-29
hobcawmaturelongleaf,33.3242,-79.2439,8,-0.566,2024-01-29
homesteadsprings,37.2009,-92.9937,452,0.677,2024-01-29
howland1,45.2041,-68.7403,80,0.333,2024-01-29
howland2,45.2128,-68.7418,79,0.333,2024-01-29
hubbardbrook,43.9438,-71.701,253,1.558,2024-01-29
humnokericea,34.585192,-91.751684,61,1.77,2024-01-29
humnokericec,34.588853,-91.7516729,70,1.77,2024-01-29
huyckpreserveny,42.5266,-74.1587,478,1.592,2024-01-29
hwmo1,20.0212,-155.7331,585,-9999.0,2024-01-29
hwmo2,19.9766,-155.8298,12,-9999.0,2024-01-29
hwmo5,20.1117,-155.8151,635,-9999.0,2024-01-29
ibp,32.589,-106.847,1325,0.781,2024-01-29
imcrkfen,68.60583,-149.31101,900,-9999.0,2024-01-29
imcrkridge0,68.60681,-149.2958,951,-9999.0,2024-01-29
imcrkridge1,68.60681,-149.2958,951,-9999.0,2024-01-29
imcrktussock,68.60633,-149.30408,918,-9999.0,2024-01-29
jasperridge,37.402028,-122.22104,197,0.54,2024-01-29
jerbajada,32.57992,-106.633793,1402,0.775,2024-01-29
jergrassland,32.5833,-106.8333,1331,0.781,2024-01-29
jernort,32.619,-106.788,1328,0.835,2024-01-29
jernovel,32.6335,-106.8334,1324,0.781,2024-01-29
jernwern,32.6271,-106.7387,1325,0.817,2024-01-29
jersand,32.515,-106.798,1363,0.779,2024-01-29
jershrubland,32.6502,-106.8334,1328,0.761,2024-01-29
junipersavannah,34.4254,-105.8615,1931,1.042,2024-01-29
kamuela,20.015008,-155.661326,850,-9999.0,2024-01-29
kamuela2,20.014959,-155.661139,830,-9999.0,2024-01-29
kansas,39.0561,-95.1907,333,1.989,2024-01-29
kelloggcorn,42.437536,-85.3225472,288,1.533,2024-01-29
kempnrs,45.83992,-89.67755,539,-0.691,2024-01-29
kendall,31.73652,-109.94185,1529,1.246,2024-01-29
konza,39.0824,-96.5603,443,2.193,2024-01-29
laupahoehoe,19.9322,-155.2912,1145,-9999.0,2024-01-29
ldeocam,41.0039,-73.9053,121,1.329,2024-01-29
lostcreek,46.0827,-89.9792,480,-0.692,2024-01-29
luckyhills,31.743896,-110.052023,1366,1.261,2024-01-29
macleish,42.4484,-72.6804,251,1.684,2024-01-29
macordway,44.8106,-93.0272,264,-0.776,2024-01-29
mandanh5,46.775423,-100.95109,593,0.003,2024-01-29
mandani2,46.7614,-100.9257,590,-0.082,2024-01-29
manilacotton,35.8872,-90.1371,73,2.148,2024-01-29
marena,36.06434,-97.21271,327,1.382,2024-01-29
mead1,41.1651,-96.4766,361,1.608,2024-01-29
mead2,41.1649,-96.4701,362,1.608,2024-01-29
mead3,41.1797,-96.4397,363,1.534,2024-01-29
meadpasture,41.1447,-96.4616,356,1.651,2024-01-29
meadpasturese,41.1447,-96.4616,356,1.651,2024-01-29
meadpasturesw,41.1447,-96.4616,356,1.651,2024-01-29
missouriozarks,38.7441,-92.2,219,1.199,2024-01-29
morganmonroe,39.3231,-86.4131,275,0.939,2024-01-29
morganmonroe2,39.3231,-86.4131,275,0.939,2024-01-29
nahuku,19.415187,-155.238383,1202,-9999.0,2024-01-29
nationalelkrefuge,43.488931,-110.737824,1899,0.256,2024-01-29
ncssm,36.018446,-78.92075,175,1.844,2024-01-29
NEON.D01.BART.DP1.00033,44.063869,-71.287375,285,1.368,2024-01-29
NEON.D01.HARV.DP1.00033,42.536911,-72.17265,359,1.41,2024-01-29
NEON.D01.HOPB.DP1.20002,42.471786,-72.329627,203,1.247,2024-01-29
NEON.D02.BLAN.DP1.00033,39.033698,-78.041788,162,1.317,2024-01-29
NEON.D02.LEWI.DP1.20002,39.09564,-77.98322,152,1.161,2024-01-29
NEON.D02.POSE.DP1.20002,38.89332,-78.14678,293,1.19,2024-01-29
NEON.D02.SCBI.DP1.00033,38.892925,-78.139494,364,1.335,2024-01-29
NEON.D02.SERC.DP1.00033,38.89008,-76.56001,30,1.867,2024-01-29
NEON.D03.BARC.DP1.20002,29.676473,-82.009089,35,1.192,2024-01-29
NEON.D03.DSNY.DP1.00033,28.12505,-81.43619,22,1.219,2024-01-29
NEON.D03.FLNT.DP1.20002,31.185424,-84.437403,27,0.388,2024-01-29
NEON.D03.JERC.DP1.00033,31.194839,-84.468623,58,0.46,2024-01-29
NEON.D03.OSBS.DP1.00033,29.689282,-81.993431,56,1.072,2024-01-29
NEON.D03.SUGG.DP1.20002,29.687054,-82.016171,28,1.072,2024-01-29
NEON.D04.CUPE.DP1.20002,18.11352,-66.98676,164,-9999.0,2024-01-29
NEON.D04.GUAN.DP1.00033,17.96955,-66.8687,136,-9999.0,2024-01-29
NEON.D04.GUIL.DP1.20002,18.1741,-66.79851,564,-9999.0,2024-01-29
NEON.D04.LAJA.DP1.00033,18.021261,-67.076889,22,-9999.0,2024-01-29
NEON.D05.CRAM.DP1.20002,46.21111,-89.47825,518,-0.736,2024-01-29
NEON.D05.LIRO.DP1.20002,45.998269,-89.704767,495,-0.691,2024-01-29
NEON.D05.STEI.DP1.00033,45.50894,-89.58637,476,-0.66,2024-01-29
NEON.D05.TREE.DP1.00033,45.49373,-89.58572,474,-0.66,2024-01-29
NEON.D05.UNDE.DP1.00033,46.23391,-89.537254,529,-0.7,2024-01-29
NEON.D06.KING.DP1.20002,39.10506,-96.60336,339,2.159,2024-01-29
NEON.D06.KONA.DP1.00033,39.110446,-96.612935,443,2.159,2024-01-29
NEON.D06.KONZ.DP1.00033,39.10077,-96.56309,415,2.193,2024-01-29
NEON.D06.MCDI.DP1.20002,38.94428,-96.44197,376,2.093,2024-01-29
NEON.D06.UKFS.DP1.00033,39.040431,-95.19215,330,1.989,2024-01-29
NEON.D07.GRSM.DP1.00033,35.68896,-83.50195,589,1.049,2024-01-29
NEON.D07.LECO.DP1.20002,35.69043,-83.50379,578,1.049,2024-01-29
NEON.D07.MLBS.DP1.00033,37.378314,-80.524847,1177,0.85,2024-01-29
NEON.D07.ORNL.DP1.00033,35.964128,-84.282588,351,0.604,2024-01-29
NEON.D07.WALK.DP1.20002,35.95947,-84.28041,274,0.601,2024-01-29
NEON.D08.BLWA.DP1.20002,32.541529,-87.798151,23,1.191,2024-01-29
NEON.D08.DELA.DP1.00033,32.541727,-87.803877,36,1.191,2024-01-29
NEON.D08.LENO.DP1.00033,31.85388,-88.16122,10,1.116,2024-01-29
NEON.D08.MAYF.DP1.20002,32.959657,-87.408128,93,1.754,2024-01-29
NEON.D08.TALL.DP1.00033,32.95047,-87.393259,167,1.754,2024-01-29
NEON.D08.TOMB.DP1.20002,31.853431,-88.158872,10,1.116,2024-01-29
NEON.D09.DCFS.DP1.00033,47.161647,-99.106556,574,-0.442,2024-01-29
NEON.D09.NOGP.DP1.00033,46.76972,-100.91535,589,-0.082,2024-01-29
NEON.D09.PRLA.DP1.20002,47.15909,-99.11388,563,-0.409,2024-01-29
NEON.D09.PRPO.DP1.20002,47.12999,-99.250551,587,-0.447,2024-01-29
NEON.D09.WOOD.DP1.00033,47.1282,-99.241334,585,-0.447,2024-01-29
NEON.D10.ARIK.DP1.20002,39.758246,-102.447103,1188,1.374,2024-01-29
NEON.D10.CPER.DP1.00033,40.81553,-104.7456,1600,0.422,2024-01-29
NEON.D10.HQTW.DP1.00033,40.016704,-105.245612,1601,1.424,2024-01-29
NEON.D10.RMNP.DP1.00033,40.275903,-105.545955,2751,0.789,2024-01-29
NEON.D10.STER.DP1.00033,40.461894,-103.02929,1366,0.992,2024-01-29
NEON.D11.BLUE.DP1.20002,34.444218,-96.624201,288,0.372,2024-01-29
NEON.D11.CLBJ.DP1.00033,33.40123,-97.57,279,0.708,2024-01-29
NEON.D11.OAES.DP1.00033,35.41059,-99.05879,520,1.368,2024-01-29
NEON.D11.PRIN.DP1.20002,33.37859,-97.78226,255,0.964,2024-01-29
NEON.D12.BLDE.DP1.20002,44.95011,-110.58715,2035,-0.646,2024-01-29
NEON.D12.YELL.DP1.00033,44.95348,-110.53914,2130,-0.819,2024-01-29
NEON.D13.COMO.DP1.20002,40.03496,-105.54487,3036,1.597,2024-01-29
NEON.D13.MOAB.DP1.00033,38.24833,-109.38827,1803,-0.116,2024-01-29
NEON.D13.NIWO.DP1.00033,40.05425,-105.58237,3493,1.213,2024-01-29
NEON.D13.WLOU.DP1.20002,39.891366,-105.915395,2920,2.089,2024-01-29
NEON.D14.JORN.DP1.00033,32.59068,-106.84254,1321,0.781,2024-01-29
NEON.D14.SRER.DP1.00033,31.91068,-110.83549,999,1.749,2024-01-29
NEON.D14.SYCA.DP1.20002,33.749057,-111.506903,644,0.933,2024-01-29
NEON.D15.ONAQ.DP1.00033,40.177599,-112.452452,1655,0.081,2024-01-29
NEON.D15.REDB.DP1.20002,40.783934,-111.797887,1696,0.258,2024-01-29
NEON.D16.ABBY.DP1.00033,45.76243,-122.33033,390,1.121,2024-01-29
NEON.D16.MART.DP1.20002,45.791248,-121.931959,354,1.284,2024-01-29
NEON.D16.MCRA.DP1.20002,44.259598,-122.165554,880,1.446,2024-01-29
NEON.D16.WREF.DP1.00033,45.82049,-121.95191,368,1.259,2024-01-29
NEON.D17.BIGC.DP1.20002,37.059719,-119.257549,1133,-0.25,2024-01-29
NEON.D17.SJER.DP1.00033,37.10878,-119.73228,398,-0.149,2024-01-29
NEON.D17.SOAP.DP1.00033,37.03337,-119.26219,1210,-0.289,2024-01-29
NEON.D17.TEAK.DP1.00033,37.00583,-119.00602,2149,-0.104,2024-01-29
NEON.D17.TECR.DP1.20002,36.955931,-119.027363,2053,-0.22,2024-01-29
NEON.D18.BARR.DP1.00033,71.28241,-156.61936,7,-9999.0,2024-01-29
NEON.D18.OKSR.DP1.20002,68.669753,-149.143018,773,-9999.0,2024-01-29
NEON.D18.TOOK.DP1.20002,68.629562,-149.610509,715,-9999.0,2024-01-29
NEON.D18.TOOL.DP1.00033,68.66109,-149.37047,827,-9999.0,2024-01-29
NEON.D19.BONA.DP1.00033,65.15401,-147.50258,233,-9999.0,2024-01-29
NEON.D19.CARI.DP1.20002,65.15306,-147.50246,229,-9999.0,2024-01-29
NEON.D19.DEJU.DP1.00033,63.88112,-145.75136,504,-9999.0,2024-01-29
NEON.D19.HEAL.DP1.00033,63.87569,-149.21334,409,-9999.0,2024-01-29
NEON.D20.PUUM.DP1.00033,19.55309,-155.31731,1683,-9999.0,2024-01-29
nevcansnk3a,39.0099,-114.3095,3063,0.276,2024-01-29
nevcanspg1a,38.9253,-114.4082,1792,1.002,2024-01-29
nevcanspg2a,38.8921,-114.3521,2203,0.788,2024-01-29
nevcanspg3a,38.8898,-114.3314,2820,0.394,2024-01-29
nevcanspg4a,38.9061,-114.3089,3360,0.394,2024-01-29
ninemileprairie,40.86801886,-96.82208066,381,1.177,2024-01-29
nist,39.139,-77.2125,100,1.677,2024-01-29
niwot3,40.03286358,-105.5469702,3050,1.597,2024-01-29
niwot5,40.03286358,-105.5469702,2993,1.597,2024-01-29
northattleboroma,41.98369,-71.31056,60,2.126,2024-01-29
northinletsaltmarsh,33.3455,-79.1957,1,-0.56,2024-01-29
oakville,47.899334,-97.316139,268,-0.493,2024-01-29
oregonMP,44.4523,-121.5574,1253,1.111,2024-01-29
oregonYP,44.32384,-121.605993,977,1.258,2024-01-29
oregonYPbud,44.3238,-121.606,977,1.258,2024-01-29
othshardwood,44.934805,-68.6655,41,0.164,2024-01-29
othssoftwood,44.934527,-68.664888,41,0.164,2024-01-29
pace,37.9229,-78.2739,100,1.742,2024-01-29
parkschoolbuffalo,42.9637,-78.7834,205,1.466,2024-01-29
piedmontalpasture2,33.8875,-85.6935,238,1.526,2024-01-29
portal,31.9385,-109.0823,1330,0.661,2024-01-29
proctor,44.525,-72.866,403,0.667,2024-01-29
readingma,42.5304,-71.1272,100,1.75,2024-01-29
robinson,37.4671,-83.1576,483,0.3,2024-01-29
robinson2,37.4671,-83.1576,483,0.3,2024-01-29
rosemountcons,44.6946,-93.0578,283,-0.855,2024-01-29
rosemountconv,44.691,-93.0576,283,-0.855,2024-01-29
rosemountnprs,44.6781,-93.0723,274,-0.83,2024-01-29
russellsage,32.456961,-91.974322,20,0.948,2024-01-29
sagehen,39.4315,-120.2398,1934,-0.337,2024-01-29
sagehen2,39.4307,-120.2407,1937,-0.337,2024-01-29
sagehen3,39.4311,-120.2405,1935,-0.337,2024-01-29
sanford,42.726777,-84.464482,268,1.604,2024-01-29
santacruz1,36.9741,-122.0308,11,0.56,2024-01-29
santacruz2,36.9741,-122.0308,11,0.56,2024-01-29
santaluciapreserve1,36.5265,-121.8682,500,0.63,2024-01-29
santaluciapreserve2,36.5265,-121.8682,500,0.63,2024-01-29
segaarboretum10,35.16209,-111.73151,2170,0.232,2024-01-29
segaarboretum2,35.16209,-111.73151,2170,0.232,2024-01-29
segaarboretum3,35.16209,-111.73151,2170,0.232,2024-01-29
segaarboretum4,35.16214,-111.73153,2170,0.232,2024-01-29
segaarboretum6,35.16209,-111.73151,2170,0.232,2024-01-29
segaarboretum9,35.16222,-111.73158,2170,0.232,2024-01-29
segaarboretumforest,35.1613,-111.7359,2173,0.232,2024-01-29
segaarboretummeadow,35.1621,-111.7316,2157,0.232,2024-01-29
segablackpoint,35.6814,-111.4754,1566,0.565,2024-01-29
segabluechute,35.5876,-111.9716,1930,0.543,2024-01-29
