site,lat,lon,elev,values,date
alligatorriver,35.7879,-75.9038,1,42.379997,2018-01-01
arbutuslake,43.98207,-74.23322,535,52.84,2018-01-01
arbutuslakeinlet,43.99336,-74.24527,527,60.469997,2018-01-01
archboldavir,27.176064,-81.21958,8,34.88,2018-01-01
archboldavirx,27.166627,-81.219828,8,34.88,2018-01-01
archboldbahia,27.1656,-81.216112,8,34.88,2018-01-01
archboldpnot,27.187948,-81.200345,9,60.55,2018-01-01
archboldpnotx,27.180677,-81.20068,9,60.55,2018-01-01
arkansascornsoy,34.416,-91.6723,61,71.659996,2018-01-01
arsbrooks10,41.9749,-93.6905,312,54.87,2018-01-01
arsbrooks11,41.9744,-93.6937,313,54.87,2018-01-01
arscolesnorth,42.4884,-93.5225,356,43.329998,2018-01-01
arscolessouth,42.4816,-93.5235,352,43.329998,2018-01-01
arsgacp1,31.5109,-83.6179,96,39.26,2018-01-01
arsgacp3,31.7563,-83.7516,139,44.57,2018-01-01
arsgacp4,31.7093,-83.7287,127,57.82,2018-01-01
arsgreatbasinltar098,43.1675,-116.7132,1426,42.03,2018-01-01
arsgreatbasinltar117,43.1432,-116.7357,1625,36.92,2018-01-01
arsgreatbasinltar177,43.0645,-116.7484,2114,50.329998,2018-01-01
arsltarmdcr,39.0587,-75.8513,17,65.99,2018-01-01
arsltarmdcrnatw,39.0575,-75.7531,16,78.47,2018-01-01
arsltarmdcrprcw,39.0667,-75.7609,17,84.27,2018-01-01
arsltarmdcrresw,39.0549,-75.7532,16,78.47,2018-01-01
arsltarucbec1,40.7537,-78.0057,400,55.02,2018-01-01
arsltarucbec2,40.7558,-77.9999,396,55.02,2018-01-01
arsmnswanlake1,45.684508,-95.799703,370,66.39,2018-01-01
arsmorris1,45.6167,-96.1269,341,57.809998,2018-01-01
arsmorris2,45.627,-96.127,338,57.809998,2018-01-01
arsmorris3,45.6091,-96.1265,342,60.629997,2018-01-01
arsope3ltar,39.0309,-76.8442,41,72.79,2018-01-01
ashburnham,42.6029,-71.926,292,61.5,2018-01-01
asuhighlands,36.2076,-81.7032,1016,39.44,2018-01-01
austincary,29.738,-82.2188,44,40.329998,2018-01-01
barrow,71.28007453,-156.6091492,5,-9999.0,2018-01-01
bartlettir,44.0646,-71.2881,268,57.969997,2018-01-01
bigtraillake,64.9194,-147.822,190,-9999.0,2018-01-01
bitterbrush001,48.154,-119.9456,667,28.73,2018-01-01
blackrockforest,41.3974,-74.0239,427,44.829998,2018-01-01
bnzblackspruce,64.6963,-148.3235,102,-9999.0,2018-01-01
bnzrichfen,64.70134,-148.31195,97,-9999.0,2018-01-01
bnzthermokarstbog,64.6955,-148.3208,104,-9999.0,2018-01-01
boglakepeatland,47.5051,-93.4893,416,67.549995,2018-01-01
bostoncommon,42.355912,-71.064145,10,-9999.0,2018-01-01
bostonu,42.35041,-71.10438,10,17.15,2018-01-01
bouldinalfalfa,38.0985,-121.4993,-5,50.329998,2018-01-01
bouldincorn,38.109,-121.535,-5,34.69,2018-01-01
bozeman,45.783056,-110.777778,2332,34.27,2018-01-01
brackishimpoundment,33.2015,-79.2973,1,76.46,2018-01-01
bullshoals,36.562833,-93.06663,260,39.77,2018-01-01
burnssagebrush,43.4712,-119.6909,1398,39.35,2018-01-01
butte,45.95304,-112.47964,1682,39.89,2018-01-01
butterice,39.5793,-121.858,33,73.11,2018-01-01
cafboydnorthltar01,46.755104,-117.126052,795,43.67,2018-01-01
cafboydsouthltar01,46.751809,-117.128502,795,43.67,2018-01-01
cafcookeastltar01,46.78152,-117.0821,794,49.059998,2018-01-01
cafcookwestltar01,46.784037,-117.09083,807,49.059998,2018-01-01
caryinstitute,41.7839,-73.7341,127,53.52,2018-01-01
centralredwoods1,38.632272,-123.301511,200,47.539997,2018-01-01
centralredwoods2,38.632272,-123.301511,200,47.539997,2018-01-01
cperagm,40.8402,-104.7672,1644,39.329998,2018-01-01
cperheavy,40.8153,-104.7386,1652,30.949999,2018-01-01
cpertgm,40.833,-104.76,1644,37.09,2018-01-01
cperuvb,40.8055764,-104.7558542,1641,30.949999,2018-01-01
cuny,40.8162,-73.9507,42,73.52,2018-01-01
doverdesaltmarsh,39.0888,-75.4368,0,59.19,2018-01-01
downerwoods,43.07938,-87.88076,213,50.629997,2018-01-01
dukehw,35.973583,-79.100371,400,78.5,2018-01-01
ecb1,41.5348,-84.8068,275,52.809998,2018-01-01
ecb2,41.5321,-84.808,275,52.809998,2018-01-01
ecb4,41.1796,-83.0604,240,48.43,2018-01-01
elverde,18.320654,-65.8199,312,41.2,2018-01-01
flagstaff,35.17961521,-111.6049032,6983,29.42,2018-01-01
flagstaff2,35.179225,-111.604506,6983,29.42,2018-01-01
flagstaffchimneysprings,35.257296,-111.678542,2250,39.34,2018-01-01
forbes,39.232,-121.2972,360,64.189995,2018-01-01
fortpaynealpasture1,34.3824,-85.6428,405,55.21,2018-01-01
fortpaynealpasture2,34.3824,-85.6447,403,67.67,2018-01-01
gcesapelo,31.4440444,-81.283528,0,37.559998,2018-01-01
gilberttract,38.0015,-121.6691,6,30.099998,2018-01-01
glees,41.3644,-106.2394,3150,66.799995,2018-01-01
glennorganicrice,39.6805,-122.0026,2,54.329998,2018-01-01
glennrice,39.5944,-122.0253,36,57.719997,2018-01-01
goodnow,43.96018,-74.20994,820,71.03,2018-01-01
goodwater,39.22848,-92.11936,264,50.28,2018-01-01
goodwaterbau,39.23115,-92.15216,274,52.66,2018-01-01
grandteton,43.915017,-110.578036,2054,46.98,2018-01-01
grca1pj,36.0241,-112.2211,1978,40.899998,2018-01-01
greenridge1,39.6905,-78.4067,285,59.789997,2018-01-01
harvard,42.5378,-72.1715,340,56.53,2018-01-01
harvardbarn,42.53532,-72.1899,350,45.69,2018-01-01
harvardbarn2,42.53532,-72.1899,350,45.69,2018-01-01
harvardems2,42.5378,-72.1715,340,56.53,2018-01-01
harvardfarmnorth,42.520465,-72.182242,355,45.69,2018-01-01
harvardfarmsouth,42.522466,-72.182339,355,45.69,2018-01-01
harvardgarden,42.5291,-72.1863,335,45.69,2018-01-01
harvardhemlock,42.539,-72.18,355,56.53,2018-01-01
harvardhemlock2,42.539407,-72.177976,355,56.53,2018-01-01
harvardlph,42.542,-72.185,380,45.69,2018-01-01
hawbeckereddy,40.6608,-77.848849,310,48.71,2018-01-01
hobcawclearcutlongleaf,33.3486,-79.232,4,55.55,2018-01-01
hobcawmaturelongleaf,33.3242,-79.2439,8,43.21,2018-01-01
homesteadsprings,37.2009,-92.9937,452,78.85,2018-01-01
howland1,45.2041,-68.7403,80,48.1,2018-01-01
howland2,45.2128,-68.7418,79,48.1,2018-01-01
hubbardbrook,43.9438,-71.701,253,69.26,2018-01-01
humnokericea,34.585192,-91.751684,61,50.27,2018-01-01
humnokericec,34.588853,-91.7516729,70,50.27,2018-01-01
huyckpreserveny,42.5266,-74.1587,478,60.37,2018-01-01
hwmo1,20.0212,-155.7331,585,93.15,2018-01-01
hwmo2,19.9766,-155.8298,12,81.799995,2018-01-01
hwmo5,20.1117,-155.8151,635,100.0,2018-01-01
ibp,32.589,-106.847,1325,27.34,2018-01-01
imcrkfen,68.60583,-149.31101,900,-9999.0,2018-01-01
imcrkridge0,68.60681,-149.2958,951,-9999.0,2018-01-01
imcrkridge1,68.60681,-149.2958,951,-9999.0,2018-01-01
imcrktussock,68.60633,-149.30408,918,-9999.0,2018-01-01
jasperridge,37.402028,-122.22104,197,28.33,2018-01-01
jerbajada,32.57992,-106.633793,1402,38.34,2018-01-01
jergrassland,32.5833,-106.8333,1331,27.34,2018-01-01
jernort,32.619,-106.788,1328,48.39,2018-01-01
jernovel,32.6335,-106.8334,1324,24.55,2018-01-01
jernwern,32.6271,-106.7387,1325,43.809998,2018-01-01
jersand,32.515,-106.798,1363,26.33,2018-01-01
jershrubland,32.6502,-106.8334,1328,24.55,2018-01-01
junipersavannah,34.4254,-105.8615,1931,38.94,2018-01-01
kamuela,20.015008,-155.661326,850,95.95,2018-01-01
kamuela2,20.014959,-155.661139,830,95.95,2018-01-01
kansas,39.0561,-95.1907,333,60.1,2018-01-01
kelloggcorn,42.437536,-85.3225472,288,49.05,2018-01-01
kempnrs,45.83992,-89.67755,539,74.7,2018-01-01
kendall,31.73652,-109.94185,1529,40.149998,2018-01-01
konza,39.0824,-96.5603,443,56.329998,2018-01-01
laupahoehoe,19.9322,-155.2912,1145,92.53,2018-01-01
ldeocam,41.0039,-73.9053,121,47.55,2018-01-01
lostcreek,46.0827,-89.9792,480,73.9,2018-01-01
luckyhills,31.743896,-110.052023,1366,39.37,2018-01-01
macleish,42.4484,-72.6804,251,60.39,2018-01-01
macordway,44.8106,-93.0272,264,78.189995,2018-01-01
mandanh5,46.775423,-100.95109,593,44.37,2018-01-01
mandani2,46.7614,-100.9257,590,42.64,2018-01-01
manilacotton,35.8872,-90.1371,73,67.32,2018-01-01
marena,36.06434,-97.21271,327,30.92,2018-01-01
mead1,41.1651,-96.4766,361,34.51,2018-01-01
mead2,41.1649,-96.4701,362,34.51,2018-01-01
mead3,41.1797,-96.4397,363,49.05,2018-01-01
meadpasture,41.1447,-96.4616,356,50.19,2018-01-01
meadpasturese,41.1447,-96.4616,356,50.19,2018-01-01
meadpasturesw,41.1447,-96.4616,356,50.19,2018-01-01
missouriozarks,38.7441,-92.2,219,70.42,2018-01-01
morganmonroe,39.3231,-86.4131,275,75.84,2018-01-01
morganmonroe2,39.3231,-86.4131,275,75.84,2018-01-01
nahuku,19.415187,-155.238383,1202,72.17,2018-01-01
nationalelkrefuge,43.488931,-110.737824,1899,45.87,2018-01-01
ncssm,36.018446,-78.92075,175,44.129997,2018-01-01
NEON.D01.BART.DP1.00033,44.063869,-71.287375,285,41.12,2018-01-01
NEON.D01.HARV.DP1.00033,42.536911,-72.17265,359,56.53,2018-01-01
NEON.D01.HOPB.DP1.20002,42.471786,-72.329627,203,38.66,2018-01-01
NEON.D02.BLAN.DP1.00033,39.033698,-78.041788,162,52.289997,2018-01-01
NEON.D02.LEWI.DP1.20002,39.09564,-77.98322,152,56.27,2018-01-01
NEON.D02.POSE.DP1.20002,38.89332,-78.14678,293,79.88,2018-01-01
NEON.D02.SCBI.DP1.00033,38.892925,-78.139494,364,79.88,2018-01-01
NEON.D02.SERC.DP1.00033,38.89008,-76.56001,30,55.809998,2018-01-01
NEON.D03.BARC.DP1.20002,29.676473,-82.009089,35,40.36,2018-01-01
NEON.D03.DSNY.DP1.00033,28.12505,-81.43619,22,38.85,2018-01-01
NEON.D03.FLNT.DP1.20002,31.185424,-84.437403,27,64.33,2018-01-01
NEON.D03.JERC.DP1.00033,31.194839,-84.468623,58,64.2,2018-01-01
NEON.D03.OSBS.DP1.00033,29.689282,-81.993431,56,58.69,2018-01-01
NEON.D03.SUGG.DP1.20002,29.687054,-82.016171,28,40.36,2018-01-01
NEON.D04.CUPE.DP1.20002,18.11352,-66.98676,164,62.559998,2018-01-01
NEON.D04.GUAN.DP1.00033,17.96955,-66.8687,136,51.86,2018-01-01
NEON.D04.GUIL.DP1.20002,18.1741,-66.79851,564,60.21,2018-01-01
NEON.D04.LAJA.DP1.00033,18.021261,-67.076889,22,50.25,2018-01-01
NEON.D05.CRAM.DP1.20002,46.21111,-89.47825,518,50.879997,2018-01-01
NEON.D05.LIRO.DP1.20002,45.998269,-89.704767,495,37.21,2018-01-01
NEON.D05.STEI.DP1.00033,45.50894,-89.58637,476,50.64,2018-01-01
NEON.D05.TREE.DP1.00033,45.49373,-89.58572,474,55.89,2018-01-01
NEON.D05.UNDE.DP1.00033,46.23391,-89.537254,529,56.17,2018-01-01
NEON.D06.KING.DP1.20002,39.10506,-96.60336,339,48.0,2018-01-01
NEON.D06.KONA.DP1.00033,39.110446,-96.612935,443,48.0,2018-01-01
NEON.D06.KONZ.DP1.00033,39.10077,-96.56309,415,55.6,2018-01-01
NEON.D06.MCDI.DP1.20002,38.94428,-96.44197,376,30.42,2018-01-01
NEON.D06.UKFS.DP1.00033,39.040431,-95.19215,330,60.1,2018-01-01
NEON.D07.GRSM.DP1.00033,35.68896,-83.50195,589,29.42,2018-01-01
NEON.D07.LECO.DP1.20002,35.69043,-83.50379,578,29.42,2018-01-01
NEON.D07.MLBS.DP1.00033,37.378314,-80.524847,1177,49.94,2018-01-01
NEON.D07.ORNL.DP1.00033,35.964128,-84.282588,351,43.469997,2018-01-01
NEON.D07.WALK.DP1.20002,35.95947,-84.28041,274,52.079998,2018-01-01
NEON.D08.BLWA.DP1.20002,32.541529,-87.798151,23,46.879997,2018-01-01
NEON.D08.DELA.DP1.00033,32.541727,-87.803877,36,46.879997,2018-01-01
NEON.D08.LENO.DP1.00033,31.85388,-88.16122,10,91.479996,2018-01-01
NEON.D08.MAYF.DP1.20002,32.959657,-87.408128,93,47.07,2018-01-01
NEON.D08.TALL.DP1.00033,32.95047,-87.393259,167,49.92,2018-01-01
NEON.D08.TOMB.DP1.20002,31.853431,-88.158872,10,91.479996,2018-01-01
NEON.D09.DCFS.DP1.00033,47.161647,-99.106556,574,35.21,2018-01-01
NEON.D09.NOGP.DP1.00033,46.76972,-100.91535,589,40.51,2018-01-01
NEON.D09.PRLA.DP1.20002,47.15909,-99.11388,563,35.04,2018-01-01
NEON.D09.PRPO.DP1.20002,47.12999,-99.250551,587,40.94,2018-01-01
NEON.D09.WOOD.DP1.00033,47.1282,-99.241334,585,40.94,2018-01-01
NEON.D10.ARIK.DP1.20002,39.758246,-102.447103,1188,29.33,2018-01-01
NEON.D10.CPER.DP1.00033,40.81553,-104.7456,1600,30.949999,2018-01-01
NEON.D10.HQTW.DP1.00033,40.016704,-105.245612,1601,25.97,2018-01-01
NEON.D10.RMNP.DP1.00033,40.275903,-105.545955,2751,46.51,2018-01-01
NEON.D10.STER.DP1.00033,40.461894,-103.02929,1366,38.059998,2018-01-01
NEON.D11.BLUE.DP1.20002,34.444218,-96.624201,288,27.49,2018-01-01
NEON.D11.CLBJ.DP1.00033,33.40123,-97.57,279,40.34,2018-01-01
NEON.D11.OAES.DP1.00033,35.41059,-99.05879,520,40.71,2018-01-01
NEON.D11.PRIN.DP1.20002,33.37859,-97.78226,255,53.719997,2018-01-01
NEON.D12.BLDE.DP1.20002,44.95011,-110.58715,2035,49.53,2018-01-01
NEON.D12.YELL.DP1.00033,44.95348,-110.53914,2130,31.119999,2018-01-01
NEON.D13.COMO.DP1.20002,40.03496,-105.54487,3036,26.46,2018-01-01
NEON.D13.MOAB.DP1.00033,38.24833,-109.38827,1803,46.309998,2018-01-01
NEON.D13.NIWO.DP1.00033,40.05425,-105.58237,3493,51.91,2018-01-01
NEON.D13.WLOU.DP1.20002,39.891366,-105.915395,2920,27.769999,2018-01-01
NEON.D14.JORN.DP1.00033,32.59068,-106.84254,1321,27.34,2018-01-01
NEON.D14.SRER.DP1.00033,31.91068,-110.83549,999,11.92,2018-01-01
NEON.D14.SYCA.DP1.20002,33.749057,-111.506903,644,32.55,2018-01-01
NEON.D15.ONAQ.DP1.00033,40.177599,-112.452452,1655,50.94,2018-01-01
NEON.D15.REDB.DP1.20002,40.783934,-111.797887,1696,44.29,2018-01-01
NEON.D16.ABBY.DP1.00033,45.76243,-122.33033,390,52.36,2018-01-01
NEON.D16.MART.DP1.20002,45.791248,-121.931959,354,26.029999,2018-01-01
NEON.D16.MCRA.DP1.20002,44.259598,-122.165554,880,45.46,2018-01-01
NEON.D16.WREF.DP1.00033,45.82049,-121.95191,368,42.03,2018-01-01
NEON.D17.BIGC.DP1.20002,37.059719,-119.257549,1133,37.73,2018-01-01
NEON.D17.SJER.DP1.00033,37.10878,-119.73228,398,31.449999,2018-01-01
NEON.D17.SOAP.DP1.00033,37.03337,-119.26219,1210,42.93,2018-01-01
NEON.D17.TEAK.DP1.00033,37.00583,-119.00602,2149,43.87,2018-01-01
NEON.D17.TECR.DP1.20002,36.955931,-119.027363,2053,30.58,2018-01-01
NEON.D18.BARR.DP1.00033,71.28241,-156.61936,7,-9999.0,2018-01-01
NEON.D18.OKSR.DP1.20002,68.669753,-149.143018,773,-9999.0,2018-01-01
NEON.D18.TOOK.DP1.20002,68.629562,-149.610509,715,-9999.0,2018-01-01
NEON.D18.TOOL.DP1.00033,68.66109,-149.37047,827,-9999.0,2018-01-01
NEON.D19.BONA.DP1.00033,65.15401,-147.50258,233,-9999.0,2018-01-01
NEON.D19.CARI.DP1.20002,65.15306,-147.50246,229,-9999.0,2018-01-01
NEON.D19.DEJU.DP1.00033,63.88112,-145.75136,504,52.62,2018-01-01
NEON.D19.HEAL.DP1.00033,63.87569,-149.21334,409,31.679998,2018-01-01
NEON.D20.PUUM.DP1.00033,19.55309,-155.31731,1683,62.52,2018-01-01
nevcansnk3a,39.0099,-114.3095,3063,50.5,2018-01-01
nevcanspg1a,38.9253,-114.4082,1792,43.6,2018-01-01
nevcanspg2a,38.8921,-114.3521,2203,42.62,2018-01-01
nevcanspg3a,38.8898,-114.3314,2820,53.829998,2018-01-01
nevcanspg4a,38.9061,-114.3089,3360,53.829998,2018-01-01
ninemileprairie,40.86801886,-96.82208066,381,37.829998,2018-01-01
nist,39.139,-77.2125,100,69.45,2018-01-01
niwot3,40.03286358,-105.5469702,3050,26.46,2018-01-01
niwot5,40.03286358,-105.5469702,2993,26.46,2018-01-01
northattleboroma,41.98369,-71.31056,60,76.159996,2018-01-01
northinletsaltmarsh,33.3455,-79.1957,1,63.55,2018-01-01
oakville,47.899334,-97.316139,268,60.289997,2018-01-01
oregonMP,44.4523,-121.5574,1253,77.61,2018-01-01
oregonYP,44.32384,-121.605993,977,56.85,2018-01-01
oregonYPbud,44.3238,-121.606,977,56.85,2018-01-01
othshardwood,44.934805,-68.6655,41,69.95,2018-01-01
othssoftwood,44.934527,-68.664888,41,69.95,2018-01-01
pace,37.9229,-78.2739,100,69.6,2018-01-01
parkschoolbuffalo,42.9637,-78.7834,205,33.55,2018-01-01
piedmontalpasture2,33.8875,-85.6935,238,41.739998,2018-01-01
portal,31.9385,-109.0823,1330,3.47,2018-01-01
proctor,44.525,-72.866,403,73.619995,2018-01-01
readingma,42.5304,-71.1272,100,33.28,2018-01-01
robinson,37.4671,-83.1576,483,60.469997,2018-01-01
robinson2,37.4671,-83.1576,483,60.469997,2018-01-01
rosemountcons,44.6946,-93.0578,283,53.96,2018-01-01
rosemountconv,44.691,-93.0576,283,53.96,2018-01-01
rosemountnprs,44.6781,-93.0723,274,40.98,2018-01-01
russellsage,32.456961,-91.974322,20,63.309998,2018-01-01
sagehen,39.4315,-120.2398,1934,50.0,2018-01-01
sagehen2,39.4307,-120.2407,1937,48.61,2018-01-01
sagehen3,39.4311,-120.2405,1935,48.61,2018-01-01
sanford,42.726777,-84.464482,268,54.6,2018-01-01
santacruz1,36.9741,-122.0308,11,50.01,2018-01-01
santacruz2,36.9741,-122.0308,11,50.01,2018-01-01
santaluciapreserve1,36.5265,-121.8682,500,56.829998,2018-01-01
santaluciapreserve2,36.5265,-121.8682,500,56.829998,2018-01-01
segaarboretum10,35.16209,-111.73151,2170,45.61,2018-01-01
segaarboretum2,35.16209,-111.73151,2170,45.61,2018-01-01
segaarboretum3,35.16209,-111.73151,2170,45.61,2018-01-01
segaarboretum4,35.16214,-111.73153,2170,45.61,2018-01-01
segaarboretum6,35.16209,-111.73151,2170,45.61,2018-01-01
segaarboretum9,35.16222,-111.73158,2170,45.61,2018-01-01
segaarboretumforest,35.1613,-111.7359,2173,45.61,2018-01-01
segaarboretummeadow,35.1621,-111.7316,2157,45.61,2018-01-01
segablackpoint,35.6814,-111.4754,1566,39.03,2018-01-01
segabluechute,35.5876,-111.9716,1930,22.15,2018-01-01
segabluechute1,35.58759,-111.97115,1931,22.15,2018-01-01
segabluechute2,35.58759,-111.97115,1931,22.15,2018-01-01
segabluechute4,35.58759,-111.9716,1931,22.15,2018-01-01
segabluechute6,35.58759,-111.97115,1931,22.15,2018-01-01
segabluechute7,35.58759,-111.97115,1931,22.15,2018-01-01
segabluechute8,35.58759,-111.97115,1931,22.15,2018-01-01
segabradshaw,34.9109,-111.9285,1402,50.0,2018-01-01
segahartprairie,35.3536,-111.7324,2585,31.099998,2018-01-01
segalcr,35.7231,-111.321,1275,40.77,2018-01-01
segalcr2,35.7069,-111.36,1495,51.43,2018-01-01
segalittlemountain,36.5865,-112.3634,2276,44.69,2018-01-01
segasoapcreek,36.751,-111.716,1233,9.44,2018-01-01
segawhitepockets,36.6081,-112.4082,2057,46.079998,2018-01-01
sevilletagrass,34.360444,-106.700186,1600,48.96,2018-01-01
sevilletanewgrass,34.358,-106.6799,1603,48.96,2018-01-01
sevilletashrub,34.334956,-106.744469,1603,50.0,2018-01-01
sevMRME10L,34.3438,-106.7269,1604,50.0,2018-01-01
sevMRME11C,34.3438,-106.7268,1604,50.0,2018-01-01
sevMRME1S,34.3442,-106.7272,1604,38.91,2018-01-01
sevpjrm12,34.38615,-106.52621,1905,33.11,2018-01-01
sevpjrm13,34.38631,-106.52791,1914,33.11,2018-01-01
shalehillsczo,40.6658,-77.9041,310,55.35,2018-01-01
shenandoah,38.6167,-78.35,1037,64.09,2018-01-01
silverton,44.9986,-122.6948,347,54.51,2018-01-01
siwetland,38.0369,-121.7546,-5,43.14,2018-01-01
slatefloodplain,38.9094,-107.0282,2725,34.51,2018-01-01
snodgrass1,38.92619636,-106.9714376,3023,29.279999,2018-01-01
snodgrass2,38.92619636,-106.9714376,3023,29.279999,2018-01-01
snodgrass3,38.92839978,-106.9781196,3141,29.279999,2018-01-01
snodgrass4,38.92839978,-106.9781196,3141,29.279999,2018-01-01
snodgrass5,38.92744789,-106.9785209,3152,29.279999,2018-01-01
snodgrass6,38.92744789,-106.9785209,3152,29.279999,2018-01-01
snodgrass7,38.93142134,-106.9852388,3363,29.279999,2018-01-01
snodgrass8,38.93142134,-106.9852388,3363,29.279999,2018-01-01
southerngreatplains,36.6058,-97.4888,314,29.369999,2018-01-01
springfieldma,42.135162,-72.585972,56,32.899998,2018-01-01
spruceA0EMI,47.5049,-93.4541,413,44.45,2018-01-01
spruceA0EMT,47.5049,-93.4541,418,44.45,2018-01-01
spruceA0P07,47.50493,-93.45314,413,44.45,2018-01-01
spruceA0P07SH,47.50493,-93.45314,413,44.45,2018-01-01
spruceA0P21,47.50625,-93.45275,413,44.45,2018-01-01
spruceA0P21SH,47.50625,-93.45275,413,44.45,2018-01-01
srg,31.7894,-110.8276,1281,16.66,2018-01-01
srm,31.8214,-110.8661,1116,28.64,2018-01-01
statenrice1,38.1235,-121.549,-5,34.23,2018-01-01
stjones,39.088222,-75.43725,2,59.19,2018-01-01
sweetbriar,37.57341,-79.08482,242,61.37,2018-01-01
sweetbriarclearcut,37.5753,-79.0872,242,61.37,2018-01-01
sweetbriargrass,37.5605,-79.0884,240,61.37,2018-01-01
sylvania,46.242,-89.348,540,42.399998,2018-01-01
templefieldstation1,40.1667,-75.1894,105,59.51,2018-01-01
tfforest,43.1086,-70.9505,23,63.05,2018-01-01
tidmarshplymouth,41.9157,-70.5754,9,71.52,2018-01-01
tonzi,38.43091667,-120.9658861,177,59.21,2018-01-01
townsenddemeadow,39.3917,-75.6281,11,54.969997,2018-01-01
tsubiology,36.1671,-86.8295,164,54.149998,2018-01-01
tsubiology2,36.1171,-86.8295,100,53.92,2018-01-01
tuckerprairie,38.9491,-91.9952,274,58.559998,2018-01-01
twodafo,29.1658,-95.829,16,58.719997,2018-01-01
tworfaa,31.4777,-96.8882,167,30.98,2018-01-01
tworfpr,31.4802,-96.8826,162,30.98,2018-01-01
tworfta,31.4693,-96.8864,173,30.98,2018-01-01
twosfpr,30.6176,-97.2938,157,61.68,2018-01-01
ucnrsanzaborrego,33.2401,-116.3886,214,11.79,2018-01-01
ufona,27.3836,-81.950856,25,46.149998,2018-01-01
uiefmaize2,40.0628,-88.1961,224,50.219997,2018-01-01
uiefmiscanthus2,40.0628,-88.1984,221,50.219997,2018-01-01
uiefprairie2,40.0637,-88.1973,224,50.219997,2018-01-01
uiefsorghum,40.0065,-88.2032,224,44.18,2018-01-01
uiefswitchgrass2,40.0637,-88.1973,224,50.219997,2018-01-01
umichbiological,45.55984,-84.71382,230,52.36,2018-01-01
umichbiological2,45.5625,-84.6976,240,91.25,2018-01-01
unca,35.5951,-82.5515,650,66.299995,2018-01-01
usgseros,43.7343,-96.6234,448,54.34,2018-01-01
usmpj,34.43845,-106.2543606,2126,35.84,2018-01-01
usof5,35.7297,-90.0406,70,34.3,2018-01-01
usof6,35.7333,-90.0403,70,34.3,2018-01-01
uwmfieldsta,43.38709,-88.0229,265,49.86,2018-01-01
vaira,38.41328056,-120.9506361,129,50.64,2018-01-01
vallesburnedconifer,35.8884,-106.5321,3043,18.83,2018-01-01
vallesmixedconifer,35.9192,-106.6142,2752,41.68,2018-01-01
vallesponderosapine,35.864,-106.5964,2501,34.23,2018-01-01
waahila,21.3017,-157.8152,55,60.66,2018-01-01
warrenwilson,35.6069,-82.4421,2198,42.41,2018-01-01
willamettepoplar,44.1368,-123.1823,112,42.94,2018-01-01
willowcreek,45.805986,-90.07912,521,51.36,2018-01-01
windriver,45.8212833,-121.9520833,371,42.03,2018-01-01
windriverunderstory,45.8212833,-121.9520833,371,42.03,2018-01-01
wolfesneckfarm,43.8305,-70.0715,16,44.809998,2018-01-01
worcester,42.2697,-71.8428,185,26.619999,2018-01-01
alligatorriver,35.7879,-75.9038,1,50.52,2018-01-08
arbutuslake,43.98207,-74.23322,535,42.2,2018-01-08
arbutuslakeinlet,43.99336,-74.24527,527,36.7,2018-01-08
archboldavir,27.176064,-81.21958,8,36.54,2018-01-08
archboldavirx,27.166627,-81.219828,8,36.54,2018-01-08
archboldbahia,27.1656,-81.216112,8,36.54,2018-01-08
archboldpnot,27.187948,-81.200345,9,61.859997,2018-01-08
archboldpnotx,27.180677,-81.20068,9,61.859997,2018-01-08
arkansascornsoy,34.416,-91.6723,61,67.7,2018-01-08
arsbrooks10,41.9749,-93.6905,312,63.239998,2018-01-08
arsbrooks11,41.9744,-93.6937,313,63.239998,2018-01-08
arscolesnorth,42.4884,-93.5225,356,53.5,2018-01-08
arscolessouth,42.4816,-93.5235,352,53.5,2018-01-08
arsgacp1,31.5109,-83.6179,96,45.75,2018-01-08
arsgacp3,31.7563,-83.7516,139,53.949997,2018-01-08
arsgacp4,31.7093,-83.7287,127,86.58,2018-01-08
arsgreatbasinltar098,43.1675,-116.7132,1426,41.12,2018-01-08
arsgreatbasinltar117,43.1432,-116.7357,1625,39.85,2018-01-08
arsgreatbasinltar177,43.0645,-116.7484,2114,38.84,2018-01-08
arsltarmdcr,39.0587,-75.8513,17,63.239998,2018-01-08
arsltarmdcrnatw,39.0575,-75.7531,16,90.1,2018-01-08
arsltarmdcrprcw,39.0667,-75.7609,17,81.43,2018-01-08
arsltarmdcrresw,39.0549,-75.7532,16,90.1,2018-01-08
arsltarucbec1,40.7537,-78.0057,400,48.2,2018-01-08
arsltarucbec2,40.7558,-77.9999,396,48.2,2018-01-08
arsmnswanlake1,45.684508,-95.799703,370,67.15,2018-01-08
arsmorris1,45.6167,-96.1269,341,68.15,2018-01-08
arsmorris2,45.627,-96.127,338,68.15,2018-01-08
arsmorris3,45.6091,-96.1265,342,70.54,2018-01-08
arsope3ltar,39.0309,-76.8442,41,77.06,2018-01-08
ashburnham,42.6029,-71.926,292,63.48,2018-01-08
asuhighlands,36.2076,-81.7032,1016,42.95,2018-01-08
austincary,29.738,-82.2188,44,50.69,2018-01-08
barrow,71.28007453,-156.6091492,5,-9999.0,2018-01-08
bartlettir,44.0646,-71.2881,268,64.63,2018-01-08
bigtraillake,64.9194,-147.822,190,-9999.0,2018-01-08
bitterbrush001,48.154,-119.9456,667,35.399998,2018-01-08
blackrockforest,41.3974,-74.0239,427,29.89,2018-01-08
bnzblackspruce,64.6963,-148.3235,102,-9999.0,2018-01-08
bnzrichfen,64.70134,-148.31195,97,-9999.0,2018-01-08
bnzthermokarstbog,64.6955,-148.3208,104,-9999.0,2018-01-08
boglakepeatland,47.5051,-93.4893,416,52.699997,2018-01-08
bostoncommon,42.355912,-71.064145,10,57.34,2018-01-08
bostonu,42.35041,-71.10438,10,19.65,2018-01-08
bouldinalfalfa,38.0985,-121.4993,-5,64.71,2018-01-08
bouldincorn,38.109,-121.535,-5,35.14,2018-01-08
bozeman,45.783056,-110.777778,2332,42.879997,2018-01-08
brackishimpoundment,33.2015,-79.2973,1,45.719997,2018-01-08
bullshoals,36.562833,-93.06663,260,47.27,2018-01-08
burnssagebrush,43.4712,-119.6909,1398,38.39,2018-01-08
butte,45.95304,-112.47964,1682,44.34,2018-01-08
butterice,39.5793,-121.858,33,67.39,2018-01-08
cafboydnorthltar01,46.755104,-117.126052,795,44.239998,2018-01-08
cafboydsouthltar01,46.751809,-117.128502,795,44.239998,2018-01-08
cafcookeastltar01,46.78152,-117.0821,794,52.059998,2018-01-08
cafcookwestltar01,46.784037,-117.09083,807,52.059998,2018-01-08
caryinstitute,41.7839,-73.7341,127,61.12,2018-01-08
centralredwoods1,38.632272,-123.301511,200,47.289997,2018-01-08
centralredwoods2,38.632272,-123.301511,200,47.289997,2018-01-08
cperagm,40.8402,-104.7672,1644,42.149998,2018-01-08
cperheavy,40.8153,-104.7386,1652,30.55,2018-01-08
cpertgm,40.833,-104.76,1644,34.71,2018-01-08
cperuvb,40.8055764,-104.7558542,1641,30.55,2018-01-08
cuny,40.8162,-73.9507,42,95.89,2018-01-08
doverdesaltmarsh,39.0888,-75.4368,0,45.86,2018-01-08
downerwoods,43.07938,-87.88076,213,46.899998,2018-01-08
dukehw,35.973583,-79.100371,400,62.199997,2018-01-08
ecb1,41.5348,-84.8068,275,54.28,2018-01-08
ecb2,41.5321,-84.808,275,54.28,2018-01-08
ecb4,41.1796,-83.0604,240,55.05,2018-01-08
elverde,18.320654,-65.8199,312,43.5,2018-01-08
flagstaff,35.17961521,-111.6049032,6983,42.25,2018-01-08
flagstaff2,35.179225,-111.604506,6983,42.25,2018-01-08
flagstaffchimneysprings,35.257296,-111.678542,2250,39.19,2018-01-08
forbes,39.232,-121.2972,360,59.55,2018-01-08
fortpaynealpasture1,34.3824,-85.6428,405,45.379997,2018-01-08
fortpaynealpasture2,34.3824,-85.6447,403,54.05,2018-01-08
gcesapelo,31.4440444,-81.283528,0,49.289997,2018-01-08
gilberttract,38.0015,-121.6691,6,36.12,2018-01-08
glees,41.3644,-106.2394,3150,72.869995,2018-01-08
glennorganicrice,39.6805,-122.0026,2,46.43,2018-01-08
glennrice,39.5944,-122.0253,36,65.2,2018-01-08
goodnow,43.96018,-74.20994,820,64.2,2018-01-08
goodwater,39.22848,-92.11936,264,53.35,2018-01-08
goodwaterbau,39.23115,-92.15216,274,53.449997,2018-01-08
grandteton,43.915017,-110.578036,2054,51.96,2018-01-08
grca1pj,36.0241,-112.2211,1978,41.739998,2018-01-08
greenridge1,39.6905,-78.4067,285,59.079998,2018-01-08
harvard,42.5378,-72.1715,340,70.21,2018-01-08
harvardbarn,42.53532,-72.1899,350,49.559998,2018-01-08
harvardbarn2,42.53532,-72.1899,350,49.559998,2018-01-08
harvardems2,42.5378,-72.1715,340,70.21,2018-01-08
harvardfarmnorth,42.520465,-72.182242,355,49.559998,2018-01-08
harvardfarmsouth,42.522466,-72.182339,355,49.559998,2018-01-08
harvardgarden,42.5291,-72.1863,335,49.559998,2018-01-08
harvardhemlock,42.539,-72.18,355,70.21,2018-01-08
harvardhemlock2,42.539407,-72.177976,355,70.21,2018-01-08
harvardlph,42.542,-72.185,380,49.559998,2018-01-08
hawbeckereddy,40.6608,-77.848849,310,61.039997,2018-01-08
hobcawclearcutlongleaf,33.3486,-79.232,4,51.789997,2018-01-08
hobcawmaturelongleaf,33.3242,-79.2439,8,47.27,2018-01-08
homesteadsprings,37.2009,-92.9937,452,80.57,2018-01-08
howland1,45.2041,-68.7403,80,61.219997,2018-01-08
howland2,45.2128,-68.7418,79,61.219997,2018-01-08
hubbardbrook,43.9438,-71.701,253,73.06,2018-01-08
humnokericea,34.585192,-91.751684,61,50.0,2018-01-08
humnokericec,34.588853,-91.7516729,70,50.0,2018-01-08
huyckpreserveny,42.5266,-74.1587,478,56.26,2018-01-08
hwmo1,20.0212,-155.7331,585,-9999.0,2018-01-08
hwmo2,19.9766,-155.8298,12,-9999.0,2018-01-08
hwmo5,20.1117,-155.8151,635,-9999.0,2018-01-08
ibp,32.589,-106.847,1325,36.77,2018-01-08
imcrkfen,68.60583,-149.31101,900,-9999.0,2018-01-08
imcrkridge0,68.60681,-149.2958,951,-9999.0,2018-01-08
imcrkridge1,68.60681,-149.2958,951,-9999.0,2018-01-08
imcrktussock,68.60633,-149.30408,918,-9999.0,2018-01-08
jasperridge,37.402028,-122.22104,197,33.43,2018-01-08
jerbajada,32.57992,-106.633793,1402,32.07,2018-01-08
jergrassland,32.5833,-106.8333,1331,36.77,2018-01-08
jernort,32.619,-106.788,1328,44.2,2018-01-08
jernovel,32.6335,-106.8334,1324,26.119999,2018-01-08
jernwern,32.6271,-106.7387,1325,46.46,2018-01-08
jersand,32.515,-106.798,1363,28.16,2018-01-08
jershrubland,32.6502,-106.8334,1328,26.119999,2018-01-08
junipersavannah,34.4254,-105.8615,1931,40.11,2018-01-08
kamuela,20.015008,-155.661326,850,-9999.0,2018-01-08
kamuela2,20.014959,-155.661139,830,-9999.0,2018-01-08
kansas,39.0561,-95.1907,333,53.199997,2018-01-08
kelloggcorn,42.437536,-85.3225472,288,52.28,2018-01-08
kempnrs,45.83992,-89.67755,539,-9999.0,2018-01-08
kendall,31.73652,-109.94185,1529,52.25,2018-01-08
konza,39.0824,-96.5603,443,72.82,2018-01-08
laupahoehoe,19.9322,-155.2912,1145,-9999.0,2018-01-08
ldeocam,41.0039,-73.9053,121,-9999.0,2018-01-08
lostcreek,46.0827,-89.9792,480,66.49,2018-01-08
luckyhills,31.743896,-110.052023,1366,39.829998,2018-01-08
macleish,42.4484,-72.6804,251,57.039997,2018-01-08
macordway,44.8106,-93.0272,264,79.65,2018-01-08
mandanh5,46.775423,-100.95109,593,48.07,2018-01-08
mandani2,46.7614,-100.9257,590,49.03,2018-01-08
manilacotton,35.8872,-90.1371,73,50.0,2018-01-08
marena,36.06434,-97.21271,327,20.359999,2018-01-08
mead1,41.1651,-96.4766,361,41.17,2018-01-08
mead2,41.1649,-96.4701,362,41.17,2018-01-08
mead3,41.1797,-96.4397,363,48.16,2018-01-08
meadpasture,41.1447,-96.4616,356,44.649998,2018-01-08
meadpasturese,41.1447,-96.4616,356,44.649998,2018-01-08
meadpasturesw,41.1447,-96.4616,356,44.649998,2018-01-08
missouriozarks,38.7441,-92.2,219,72.29,2018-01-08
morganmonroe,39.3231,-86.4131,275,74.85,2018-01-08
morganmonroe2,39.3231,-86.4131,275,74.85,2018-01-08
nahuku,19.415187,-155.238383,1202,-9999.0,2018-01-08
nationalelkrefuge,43.488931,-110.737824,1899,38.82,2018-01-08
ncssm,36.018446,-78.92075,175,44.87,2018-01-08
NEON.D01.BART.DP1.00033,44.063869,-71.287375,285,31.32,2018-01-08
NEON.D01.HARV.DP1.00033,42.536911,-72.17265,359,70.21,2018-01-08
NEON.D01.HOPB.DP1.20002,42.471786,-72.329627,203,44.68,2018-01-08
NEON.D02.BLAN.DP1.00033,39.033698,-78.041788,162,54.91,2018-01-08
NEON.D02.LEWI.DP1.20002,39.09564,-77.98322,152,48.77,2018-01-08
NEON.D02.POSE.DP1.20002,38.89332,-78.14678,293,75.85,2018-01-08
NEON.D02.SCBI.DP1.00033,38.892925,-78.139494,364,75.85,2018-01-08
NEON.D02.SERC.DP1.00033,38.89008,-76.56001,30,69.42,2018-01-08
NEON.D03.BARC.DP1.20002,29.676473,-82.009089,35,34.469997,2018-01-08
NEON.D03.DSNY.DP1.00033,28.12505,-81.43619,22,43.93,2018-01-08
NEON.D03.FLNT.DP1.20002,31.185424,-84.437403,27,40.239998,2018-01-08
NEON.D03.JERC.DP1.00033,31.194839,-84.468623,58,65.229996,2018-01-08
NEON.D03.OSBS.DP1.00033,29.689282,-81.993431,56,56.949997,2018-01-08
NEON.D03.SUGG.DP1.20002,29.687054,-82.016171,28,34.469997,2018-01-08
NEON.D04.CUPE.DP1.20002,18.11352,-66.98676,164,61.18,2018-01-08
NEON.D04.GUAN.DP1.00033,17.96955,-66.8687,136,53.77,2018-01-08
NEON.D04.GUIL.DP1.20002,18.1741,-66.79851,564,75.759995,2018-01-08
NEON.D04.LAJA.DP1.00033,18.021261,-67.076889,22,48.28,2018-01-08
NEON.D05.CRAM.DP1.20002,46.21111,-89.47825,518,58.219997,2018-01-08
NEON.D05.LIRO.DP1.20002,45.998269,-89.704767,495,33.11,2018-01-08
NEON.D05.STEI.DP1.00033,45.50894,-89.58637,476,39.73,2018-01-08
NEON.D05.TREE.DP1.00033,45.49373,-89.58572,474,48.45,2018-01-08
NEON.D05.UNDE.DP1.00033,46.23391,-89.537254,529,56.079998,2018-01-08
NEON.D06.KING.DP1.20002,39.10506,-96.60336,339,51.27,2018-01-08
NEON.D06.KONA.DP1.00033,39.110446,-96.612935,443,51.27,2018-01-08
NEON.D06.KONZ.DP1.00033,39.10077,-96.56309,415,55.14,2018-01-08
NEON.D06.MCDI.DP1.20002,38.94428,-96.44197,376,41.51,2018-01-08
NEON.D06.UKFS.DP1.00033,39.040431,-95.19215,330,53.199997,2018-01-08
NEON.D07.GRSM.DP1.00033,35.68896,-83.50195,589,27.619999,2018-01-08
NEON.D07.LECO.DP1.20002,35.69043,-83.50379,578,27.619999,2018-01-08
NEON.D07.MLBS.DP1.00033,37.378314,-80.524847,1177,51.579998,2018-01-08
NEON.D07.ORNL.DP1.00033,35.964128,-84.282588,351,50.0,2018-01-08
NEON.D07.WALK.DP1.20002,35.95947,-84.28041,274,68.93,2018-01-08
NEON.D08.BLWA.DP1.20002,32.541529,-87.798151,23,42.39,2018-01-08
NEON.D08.DELA.DP1.00033,32.541727,-87.803877,36,42.39,2018-01-08
NEON.D08.LENO.DP1.00033,31.85388,-88.16122,10,91.53,2018-01-08
NEON.D08.MAYF.DP1.20002,32.959657,-87.408128,93,62.559998,2018-01-08
NEON.D08.TALL.DP1.00033,32.95047,-87.393259,167,50.0,2018-01-08
NEON.D08.TOMB.DP1.20002,31.853431,-88.158872,10,91.53,2018-01-08
NEON.D09.DCFS.DP1.00033,47.161647,-99.106556,574,34.899998,2018-01-08
NEON.D09.NOGP.DP1.00033,46.76972,-100.91535,589,50.62,2018-01-08
NEON.D09.PRLA.DP1.20002,47.15909,-99.11388,563,35.239998,2018-01-08
NEON.D09.PRPO.DP1.20002,47.12999,-99.250551,587,41.399998,2018-01-08
NEON.D09.WOOD.DP1.00033,47.1282,-99.241334,585,41.399998,2018-01-08
NEON.D10.ARIK.DP1.20002,39.758246,-102.447103,1188,35.44,2018-01-08
NEON.D10.CPER.DP1.00033,40.81553,-104.7456,1600,30.55,2018-01-08
NEON.D10.HQTW.DP1.00033,40.016704,-105.245612,1601,33.94,2018-01-08
NEON.D10.RMNP.DP1.00033,40.275903,-105.545955,2751,50.0,2018-01-08
NEON.D10.STER.DP1.00033,40.461894,-103.02929,1366,36.969997,2018-01-08
NEON.D11.BLUE.DP1.20002,34.444218,-96.624201,288,31.8,2018-01-08
NEON.D11.CLBJ.DP1.00033,33.40123,-97.57,279,40.2,2018-01-08
NEON.D11.OAES.DP1.00033,35.41059,-99.05879,520,43.21,2018-01-08
NEON.D11.PRIN.DP1.20002,33.37859,-97.78226,255,50.53,2018-01-08
NEON.D12.BLDE.DP1.20002,44.95011,-110.58715,2035,48.36,2018-01-08
NEON.D12.YELL.DP1.00033,44.95348,-110.53914,2130,29.83,2018-01-08
NEON.D13.COMO.DP1.20002,40.03496,-105.54487,3036,20.689999,2018-01-08
NEON.D13.MOAB.DP1.00033,38.24833,-109.38827,1803,41.21,2018-01-08
NEON.D13.NIWO.DP1.00033,40.05425,-105.58237,3493,50.0,2018-01-08
NEON.D13.WLOU.DP1.20002,39.891366,-105.915395,2920,25.289999,2018-01-08
NEON.D14.JORN.DP1.00033,32.59068,-106.84254,1321,36.77,2018-01-08
NEON.D14.SRER.DP1.00033,31.91068,-110.83549,999,10.87,2018-01-08
NEON.D14.SYCA.DP1.20002,33.749057,-111.506903,644,22.14,2018-01-08
NEON.D15.ONAQ.DP1.00033,40.177599,-112.452452,1655,39.35,2018-01-08
NEON.D15.REDB.DP1.20002,40.783934,-111.797887,1696,45.399998,2018-01-08
NEON.D16.ABBY.DP1.00033,45.76243,-122.33033,390,50.379997,2018-01-08
NEON.D16.MART.DP1.20002,45.791248,-121.931959,354,24.029999,2018-01-08
NEON.D16.MCRA.DP1.20002,44.259598,-122.165554,880,39.02,2018-01-08
NEON.D16.WREF.DP1.00033,45.82049,-121.95191,368,23.16,2018-01-08
NEON.D17.BIGC.DP1.20002,37.059719,-119.257549,1133,37.57,2018-01-08
NEON.D17.SJER.DP1.00033,37.10878,-119.73228,398,24.359999,2018-01-08
NEON.D17.SOAP.DP1.00033,37.03337,-119.26219,1210,37.7,2018-01-08
NEON.D17.TEAK.DP1.00033,37.00583,-119.00602,2149,35.25,2018-01-08
NEON.D17.TECR.DP1.20002,36.955931,-119.027363,2053,24.07,2018-01-08
NEON.D18.BARR.DP1.00033,71.28241,-156.61936,7,-9999.0,2018-01-08
NEON.D18.OKSR.DP1.20002,68.669753,-149.143018,773,-9999.0,2018-01-08
NEON.D18.TOOK.DP1.20002,68.629562,-149.610509,715,-9999.0,2018-01-08
NEON.D18.TOOL.DP1.00033,68.66109,-149.37047,827,-9999.0,2018-01-08
NEON.D19.BONA.DP1.00033,65.15401,-147.50258,233,-9999.0,2018-01-08
NEON.D19.CARI.DP1.20002,65.15306,-147.50246,229,-9999.0,2018-01-08
NEON.D19.DEJU.DP1.00033,63.88112,-145.75136,504,5.87,2018-01-08
NEON.D19.HEAL.DP1.00033,63.87569,-149.21334,409,27.359999,2018-01-08
NEON.D20.PUUM.DP1.00033,19.55309,-155.31731,1683,-9999.0,2018-01-08
nevcansnk3a,39.0099,-114.3095,3063,48.42,2018-01-08
nevcanspg1a,38.9253,-114.4082,1792,41.719997,2018-01-08
nevcanspg2a,38.8921,-114.3521,2203,59.219997,2018-01-08
nevcanspg3a,38.8898,-114.3314,2820,52.969997,2018-01-08
nevcanspg4a,38.9061,-114.3089,3360,52.969997,2018-01-08
ninemileprairie,40.86801886,-96.82208066,381,47.789997,2018-01-08
nist,39.139,-77.2125,100,73.01,2018-01-08
niwot3,40.03286358,-105.5469702,3050,20.689999,2018-01-08
niwot5,40.03286358,-105.5469702,2993,20.689999,2018-01-08
northattleboroma,41.98369,-71.31056,60,69.67,2018-01-08
northinletsaltmarsh,33.3455,-79.1957,1,50.0,2018-01-08
oakville,47.899334,-97.316139,268,55.399998,2018-01-08
oregonMP,44.4523,-121.5574,1253,71.5,2018-01-08
oregonYP,44.32384,-121.605993,977,49.43,2018-01-08
oregonYPbud,44.3238,-121.606,977,49.43,2018-01-08
othshardwood,44.934805,-68.6655,41,70.85,2018-01-08
othssoftwood,44.934527,-68.664888,41,70.85,2018-01-08
pace,37.9229,-78.2739,100,66.45,2018-01-08
parkschoolbuffalo,42.9637,-78.7834,205,30.679998,2018-01-08
piedmontalpasture2,33.8875,-85.6935,238,27.769999,2018-01-08
portal,31.9385,-109.0823,1330,10.4,2018-01-08
proctor,44.525,-72.866,403,69.35,2018-01-08
readingma,42.5304,-71.1272,100,24.449999,2018-01-08
robinson,37.4671,-83.1576,483,58.699997,2018-01-08
robinson2,37.4671,-83.1576,483,58.699997,2018-01-08
rosemountcons,44.6946,-93.0578,283,52.76,2018-01-08
rosemountconv,44.691,-93.0576,283,52.76,2018-01-08
rosemountnprs,44.6781,-93.0723,274,49.989998,2018-01-08
russellsage,32.456961,-91.974322,20,62.399998,2018-01-08
sagehen,39.4315,-120.2398,1934,49.89,2018-01-08
sagehen2,39.4307,-120.2407,1937,47.059998,2018-01-08
sagehen3,39.4311,-120.2405,1935,47.059998,2018-01-08
sanford,42.726777,-84.464482,268,50.6,2018-01-08
santacruz1,36.9741,-122.0308,11,35.42,2018-01-08
santacruz2,36.9741,-122.0308,11,35.42,2018-01-08
santaluciapreserve1,36.5265,-121.8682,500,53.579998,2018-01-08
santaluciapreserve2,36.5265,-121.8682,500,53.579998,2018-01-08
segaarboretum10,35.16209,-111.73151,2170,45.719997,2018-01-08
segaarboretum2,35.16209,-111.73151,2170,45.719997,2018-01-08
segaarboretum3,35.16209,-111.73151,2170,45.719997,2018-01-08
segaarboretum4,35.16214,-111.73153,2170,45.719997,2018-01-08
segaarboretum6,35.16209,-111.73151,2170,45.719997,2018-01-08
segaarboretum9,35.16222,-111.73158,2170,45.719997,2018-01-08
segaarboretumforest,35.1613,-111.7359,2173,45.719997,2018-01-08
segaarboretummeadow,35.1621,-111.7316,2157,45.719997,2018-01-08
segablackpoint,35.6814,-111.4754,1566,41.39,2018-01-08
segabluechute,35.5876,-111.9716,1930,22.109999,2018-01-08
segabluechute1,35.58759,-111.97115,1931,22.109999,2018-01-08
segabluechute2,35.58759,-111.97115,1931,22.109999,2018-01-08
segabluechute4,35.58759,-111.9716,1931,22.109999,2018-01-08
segabluechute6,35.58759,-111.97115,1931,22.109999,2018-01-08
segabluechute7,35.58759,-111.97115,1931,22.109999,2018-01-08
segabluechute8,35.58759,-111.97115,1931,22.109999,2018-01-08
segabradshaw,34.9109,-111.9285,1402,44.84,2018-01-08
segahartprairie,35.3536,-111.7324,2585,33.19,2018-01-08
segalcr,35.7231,-111.321,1275,43.809998,2018-01-08
segalcr2,35.7069,-111.36,1495,40.89,2018-01-08
segalittlemountain,36.5865,-112.3634,2276,47.01,2018-01-08
segasoapcreek,36.751,-111.716,1233,11.53,2018-01-08
segawhitepockets,36.6081,-112.4082,2057,36.969997,2018-01-08
sevilletagrass,34.360444,-106.700186,1600,29.429998,2018-01-08
sevilletanewgrass,34.358,-106.6799,1603,29.429998,2018-01-08
sevilletashrub,34.334956,-106.744469,1603,45.789997,2018-01-08
sevMRME10L,34.3438,-106.7269,1604,37.649998,2018-01-08
sevMRME11C,34.3438,-106.7268,1604,37.649998,2018-01-08
sevMRME1S,34.3442,-106.7272,1604,26.92,2018-01-08
sevpjrm12,34.38615,-106.52621,1905,38.96,2018-01-08
sevpjrm13,34.38631,-106.52791,1914,38.96,2018-01-08
shalehillsczo,40.6658,-77.9041,310,40.68,2018-01-08
shenandoah,38.6167,-78.35,1037,67.58,2018-01-08
silverton,44.9986,-122.6948,347,55.86,2018-01-08
siwetland,38.0369,-121.7546,-5,50.0,2018-01-08
slatefloodplain,38.9094,-107.0282,2725,38.48,2018-01-08
snodgrass1,38.92619636,-106.9714376,3023,27.48,2018-01-08
snodgrass2,38.92619636,-106.9714376,3023,27.48,2018-01-08
snodgrass3,38.92839978,-106.9781196,3141,27.48,2018-01-08
snodgrass4,38.92839978,-106.9781196,3141,27.48,2018-01-08
snodgrass5,38.92744789,-106.9785209,3152,27.48,2018-01-08
snodgrass6,38.92744789,-106.9785209,3152,27.48,2018-01-08
snodgrass7,38.93142134,-106.9852388,3363,27.48,2018-01-08
snodgrass8,38.93142134,-106.9852388,3363,27.48,2018-01-08
southerngreatplains,36.6058,-97.4888,314,18.14,2018-01-08
springfieldma,42.135162,-72.585972,56,31.84,2018-01-08
spruceA0EMI,47.5049,-93.4541,413,59.85,2018-01-08
spruceA0EMT,47.5049,-93.4541,418,59.85,2018-01-08
spruceA0P07,47.50493,-93.45314,413,59.85,2018-01-08
spruceA0P07SH,47.50493,-93.45314,413,59.85,2018-01-08
spruceA0P21,47.50625,-93.45275,413,59.85,2018-01-08
spruceA0P21SH,47.50625,-93.45275,413,59.85,2018-01-08
srg,31.7894,-110.8276,1281,20.06,2018-01-08
srm,31.8214,-110.8661,1116,25.42,2018-01-08
statenrice1,38.1235,-121.549,-5,37.39,2018-01-08
stjones,39.088222,-75.43725,2,45.86,2018-01-08
sweetbriar,37.57341,-79.08482,242,46.5,2018-01-08
sweetbriarclearcut,37.5753,-79.0872,242,46.5,2018-01-08
sweetbriargrass,37.5605,-79.0884,240,46.5,2018-01-08
sylvania,46.242,-89.348,540,34.43,2018-01-08
templefieldstation1,40.1667,-75.1894,105,64.6,2018-01-08
tfforest,43.1086,-70.9505,23,56.579998,2018-01-08
tidmarshplymouth,41.9157,-70.5754,9,67.33,2018-01-08
tonzi,38.43091667,-120.9658861,177,52.14,2018-01-08
townsenddemeadow,39.3917,-75.6281,11,57.93,2018-01-08
tsubiology,36.1671,-86.8295,164,50.0,2018-01-08
tsubiology2,36.1171,-86.8295,100,40.129997,2018-01-08
tuckerprairie,38.9491,-91.9952,274,65.86,2018-01-08
twodafo,29.1658,-95.829,16,50.399998,2018-01-08
tworfaa,31.4777,-96.8882,167,31.07,2018-01-08
tworfpr,31.4802,-96.8826,162,31.07,2018-01-08
tworfta,31.4693,-96.8864,173,31.07,2018-01-08
twosfpr,30.6176,-97.2938,157,49.89,2018-01-08
ucnrsanzaborrego,33.2401,-116.3886,214,7.64,2018-01-08
ufona,27.3836,-81.950856,25,40.7,2018-01-08
uiefmaize2,40.0628,-88.1961,224,57.85,2018-01-08
uiefmiscanthus2,40.0628,-88.1984,221,57.85,2018-01-08
uiefprairie2,40.0637,-88.1973,224,57.85,2018-01-08
uiefsorghum,40.0065,-88.2032,224,50.71,2018-01-08
uiefswitchgrass2,40.0637,-88.1973,224,57.85,2018-01-08
umichbiological,45.55984,-84.71382,230,49.059998,2018-01-08
umichbiological2,45.5625,-84.6976,240,-9999.0,2018-01-08
unca,35.5951,-82.5515,650,72.64,2018-01-08
usgseros,43.7343,-96.6234,448,57.949997,2018-01-08
usmpj,34.43845,-106.2543606,2126,29.13,2018-01-08
usof5,35.7297,-90.0406,70,25.25,2018-01-08
usof6,35.7333,-90.0403,70,25.25,2018-01-08
uwmfieldsta,43.38709,-88.0229,265,46.539997,2018-01-08
vaira,38.41328056,-120.9506361,129,53.03,2018-01-08
vallesburnedconifer,35.8884,-106.5321,3043,15.589999,2018-01-08
vallesmixedconifer,35.9192,-106.6142,2752,28.89,2018-01-08
vallesponderosapine,35.864,-106.5964,2501,27.74,2018-01-08
waahila,21.3017,-157.8152,55,38.059998,2018-01-08
warrenwilson,35.6069,-82.4421,2198,55.629997,2018-01-08
willamettepoplar,44.1368,-123.1823,112,41.079998,2018-01-08
willowcreek,45.805986,-90.07912,521,45.989998,2018-01-08
windriver,45.8212833,-121.9520833,371,23.16,2018-01-08
windriverunderstory,45.8212833,-121.9520833,371,23.16,2018-01-08
wolfesneckfarm,43.8305,-70.0715,16,32.1,2018-01-08
worcester,42.2697,-71.8428,185,24.35,2018-01-08
alligatorriver,35.7879,-75.9038,1,48.55,2018-01-15
arbutuslake,43.98207,-74.23322,535,41.469997,2018-01-15
arbutuslakeinlet,43.99336,-74.24527,527,35.95,2018-01-15
archboldavir,27.176064,-81.21958,8,36.399998,2018-01-15
archboldavirx,27.166627,-81.219828,8,36.399998,2018-01-15
archboldbahia,27.1656,-81.216112,8,36.399998,2018-01-15
archboldpnot,27.187948,-81.200345,9,68.38,2018-01-15
archboldpnotx,27.180677,-81.20068,9,68.38,2018-01-15
arkansascornsoy,34.416,-91.6723,61,71.82,2018-01-15
arsbrooks10,41.9749,-93.6905,312,63.78,2018-01-15
arsbrooks11,41.9744,-93.6937,313,63.78,2018-01-15
arscolesnorth,42.4884,-93.5225,356,54.739998,2018-01-15
arscolessouth,42.4816,-93.5235,352,54.739998,2018-01-15
arsgacp1,31.5109,-83.6179,96,45.28,2018-01-15
arsgacp3,31.7563,-83.7516,139,47.289997,2018-01-15
arsgacp4,31.7093,-83.7287,127,85.77,2018-01-15
arsgreatbasinltar098,43.1675,-116.7132,1426,42.079998,2018-01-15
arsgreatbasinltar117,43.1432,-116.7357,1625,41.1,2018-01-15
arsgreatbasinltar177,43.0645,-116.7484,2114,42.34,2018-01-15
arsltarmdcr,39.0587,-75.8513,17,60.17,2018-01-15
arsltarmdcrnatw,39.0575,-75.7531,16,83.74,2018-01-15
arsltarmdcrprcw,39.0667,-75.7609,17,75.619995,2018-01-15
arsltarmdcrresw,39.0549,-75.7532,16,83.74,2018-01-15
arsltarucbec1,40.7537,-78.0057,400,51.18,2018-01-15
arsltarucbec2,40.7558,-77.9999,396,51.18,2018-01-15
arsmnswanlake1,45.684508,-95.799703,370,71.58,2018-01-15
arsmorris1,45.6167,-96.1269,341,67.11,2018-01-15
arsmorris2,45.627,-96.127,338,67.11,2018-01-15
arsmorris3,45.6091,-96.1265,342,68.49,2018-01-15
arsope3ltar,39.0309,-76.8442,41,74.049995,2018-01-15
ashburnham,42.6029,-71.926,292,59.609997,2018-01-15
asuhighlands,36.2076,-81.7032,1016,45.53,2018-01-15
austincary,29.738,-82.2188,44,53.01,2018-01-15
barrow,71.28007453,-156.6091492,5,-9999.0,2018-01-15
bartlettir,44.0646,-71.2881,268,57.32,2018-01-15
bigtraillake,64.9194,-147.822,190,41.69,2018-01-15
bitterbrush001,48.154,-119.9456,667,38.989998,2018-01-15
blackrockforest,41.3974,-74.0239,427,32.0,2018-01-15
bnzblackspruce,64.6963,-148.3235,102,57.21,2018-01-15
bnzrichfen,64.70134,-148.31195,97,31.789999,2018-01-15
bnzthermokarstbog,64.6955,-148.3208,104,57.21,2018-01-15
boglakepeatland,47.5051,-93.4893,416,49.68,2018-01-15
bostoncommon,42.355912,-71.064145,10,58.699997,2018-01-15
bostonu,42.35041,-71.10438,10,24.31,2018-01-15
bouldinalfalfa,38.0985,-121.4993,-5,68.07,2018-01-15
bouldincorn,38.109,-121.535,-5,40.32,2018-01-15
bozeman,45.783056,-110.777778,2332,50.28,2018-01-15
brackishimpoundment,33.2015,-79.2973,1,40.489998,2018-01-15
bullshoals,36.562833,-93.06663,260,42.34,2018-01-15
burnssagebrush,43.4712,-119.6909,1398,38.37,2018-01-15
butte,45.95304,-112.47964,1682,53.28,2018-01-15
butterice,39.5793,-121.858,33,68.75,2018-01-15
cafboydnorthltar01,46.755104,-117.126052,795,40.3,2018-01-15
cafboydsouthltar01,46.751809,-117.128502,795,40.3,2018-01-15
cafcookeastltar01,46.78152,-117.0821,794,50.12,2018-01-15
cafcookwestltar01,46.784037,-117.09083,807,50.12,2018-01-15
caryinstitute,41.7839,-73.7341,127,60.48,2018-01-15
centralredwoods1,38.632272,-123.301511,200,47.379997,2018-01-15
centralredwoods2,38.632272,-123.301511,200,47.379997,2018-01-15
cperagm,40.8402,-104.7672,1644,53.07,2018-01-15
cperheavy,40.8153,-104.7386,1652,31.56,2018-01-15
cpertgm,40.833,-104.76,1644,35.38,2018-01-15
cperuvb,40.8055764,-104.7558542,1641,31.56,2018-01-15
cuny,40.8162,-73.9507,42,88.729996,2018-01-15
doverdesaltmarsh,39.0888,-75.4368,0,43.78,2018-01-15
downerwoods,43.07938,-87.88076,213,46.09,2018-01-15
dukehw,35.973583,-79.100371,400,66.15,2018-01-15
ecb1,41.5348,-84.8068,275,54.719997,2018-01-15
ecb2,41.5321,-84.808,275,54.719997,2018-01-15
ecb4,41.1796,-83.0604,240,52.3,2018-01-15
elverde,18.320654,-65.8199,312,40.8,2018-01-15
flagstaff,35.17961521,-111.6049032,6983,42.629997,2018-01-15
flagstaff2,35.179225,-111.604506,6983,42.629997,2018-01-15
flagstaffchimneysprings,35.257296,-111.678542,2250,37.41,2018-01-15
forbes,39.232,-121.2972,360,53.329998,2018-01-15
fortpaynealpasture1,34.3824,-85.6428,405,51.809998,2018-01-15
fortpaynealpasture2,34.3824,-85.6447,403,54.61,2018-01-15
gcesapelo,31.4440444,-81.283528,0,48.399998,2018-01-15
gilberttract,38.0015,-121.6691,6,39.57,2018-01-15
glees,41.3644,-106.2394,3150,71.299995,2018-01-15
glennorganicrice,39.6805,-122.0026,2,42.76,2018-01-15
glennrice,39.5944,-122.0253,36,68.61,2018-01-15
goodnow,43.96018,-74.20994,820,61.899998,2018-01-15
goodwater,39.22848,-92.11936,264,53.92,2018-01-15
goodwaterbau,39.23115,-92.15216,274,49.87,2018-01-15
grandteton,43.915017,-110.578036,2054,45.94,2018-01-15
grca1pj,36.0241,-112.2211,1978,41.079998,2018-01-15
greenridge1,39.6905,-78.4067,285,57.289997,2018-01-15
harvard,42.5378,-72.1715,340,59.609997,2018-01-15
harvardbarn,42.53532,-72.1899,350,42.16,2018-01-15
harvardbarn2,42.53532,-72.1899,350,42.16,2018-01-15
harvardems2,42.5378,-72.1715,340,59.609997,2018-01-15
harvardfarmnorth,42.520465,-72.182242,355,42.16,2018-01-15
harvardfarmsouth,42.522466,-72.182339,355,42.16,2018-01-15
harvardgarden,42.5291,-72.1863,335,42.16,2018-01-15
harvardhemlock,42.539,-72.18,355,59.609997,2018-01-15
harvardhemlock2,42.539407,-72.177976,355,59.609997,2018-01-15
harvardlph,42.542,-72.185,380,42.16,2018-01-15
hawbeckereddy,40.6608,-77.848849,310,50.42,2018-01-15
hobcawclearcutlongleaf,33.3486,-79.232,4,51.469997,2018-01-15
hobcawmaturelongleaf,33.3242,-79.2439,8,49.149998,2018-01-15
homesteadsprings,37.2009,-92.9937,452,67.049995,2018-01-15
howland1,45.2041,-68.7403,80,69.869995,2018-01-15
howland2,45.2128,-68.7418,79,69.869995,2018-01-15
hubbardbrook,43.9438,-71.701,253,59.14,2018-01-15
humnokericea,34.585192,-91.751684,61,50.0,2018-01-15
humnokericec,34.588853,-91.7516729,70,50.0,2018-01-15
huyckpreserveny,42.5266,-74.1587,478,48.71,2018-01-15
hwmo1,20.0212,-155.7331,585,-9999.0,2018-01-15
hwmo2,19.9766,-155.8298,12,-9999.0,2018-01-15
hwmo5,20.1117,-155.8151,635,-9999.0,2018-01-15
ibp,32.589,-106.847,1325,36.95,2018-01-15
imcrkfen,68.60583,-149.31101,900,-9999.0,2018-01-15
imcrkridge0,68.60681,-149.2958,951,-9999.0,2018-01-15
imcrkridge1,68.60681,-149.2958,951,-9999.0,2018-01-15
imcrktussock,68.60633,-149.30408,918,-9999.0,2018-01-15
jasperridge,37.402028,-122.22104,197,35.3,2018-01-15
jerbajada,32.57992,-106.633793,1402,31.179998,2018-01-15
jergrassland,32.5833,-106.8333,1331,36.95,2018-01-15
jernort,32.619,-106.788,1328,40.079998,2018-01-15
jernovel,32.6335,-106.8334,1324,27.599998,2018-01-15
jernwern,32.6271,-106.7387,1325,45.41,2018-01-15
jersand,32.515,-106.798,1363,32.329998,2018-01-15
jershrubland,32.6502,-106.8334,1328,27.599998,2018-01-15
junipersavannah,34.4254,-105.8615,1931,41.54,2018-01-15
kamuela,20.015008,-155.661326,850,-9999.0,2018-01-15
kamuela2,20.014959,-155.661139,830,-9999.0,2018-01-15
kansas,39.0561,-95.1907,333,60.789997,2018-01-15
kelloggcorn,42.437536,-85.3225472,288,50.39,2018-01-15
kempnrs,45.83992,-89.67755,539,-9999.0,2018-01-15
kendall,31.73652,-109.94185,1529,56.48,2018-01-15
konza,39.0824,-96.5603,443,68.34,2018-01-15
laupahoehoe,19.9322,-155.2912,1145,-9999.0,2018-01-15
ldeocam,41.0039,-73.9053,121,-9999.0,2018-01-15
lostcreek,46.0827,-89.9792,480,64.85,2018-01-15
luckyhills,31.743896,-110.052023,1366,39.61,2018-01-15
macleish,42.4484,-72.6804,251,51.239998,2018-01-15
macordway,44.8106,-93.0272,264,70.72,2018-01-15
mandanh5,46.775423,-100.95109,593,49.68,2018-01-15
mandani2,46.7614,-100.9257,590,48.76,2018-01-15
manilacotton,35.8872,-90.1371,73,47.37,2018-01-15
marena,36.06434,-97.21271,327,28.34,2018-01-15
mead1,41.1651,-96.4766,361,40.71,2018-01-15
mead2,41.1649,-96.4701,362,40.71,2018-01-15
mead3,41.1797,-96.4397,363,49.8,2018-01-15
meadpasture,41.1447,-96.4616,356,46.079998,2018-01-15
meadpasturese,41.1447,-96.4616,356,46.079998,2018-01-15
meadpasturesw,41.1447,-96.4616,356,46.079998,2018-01-15
missouriozarks,38.7441,-92.2,219,74.51,2018-01-15
morganmonroe,39.3231,-86.4131,275,70.79,2018-01-15
morganmonroe2,39.3231,-86.4131,275,70.79,2018-01-15
nahuku,19.415187,-155.238383,1202,-9999.0,2018-01-15
nationalelkrefuge,43.488931,-110.737824,1899,37.95,2018-01-15
ncssm,36.018446,-78.92075,175,47.559998,2018-01-15
NEON.D01.BART.DP1.00033,44.063869,-71.287375,285,27.65,2018-01-15
NEON.D01.HARV.DP1.00033,42.536911,-72.17265,359,59.609997,2018-01-15
NEON.D01.HOPB.DP1.20002,42.471786,-72.329627,203,42.62,2018-01-15
NEON.D02.BLAN.DP1.00033,39.033698,-78.041788,162,50.55,2018-01-15
NEON.D02.LEWI.DP1.20002,39.09564,-77.98322,152,45.68,2018-01-15
NEON.D02.POSE.DP1.20002,38.89332,-78.14678,293,74.1,2018-01-15
NEON.D02.SCBI.DP1.00033,38.892925,-78.139494,364,74.1,2018-01-15
NEON.D02.SERC.DP1.00033,38.89008,-76.56001,30,65.439995,2018-01-15
NEON.D03.BARC.DP1.20002,29.676473,-82.009089,35,43.61,2018-01-15
NEON.D03.DSNY.DP1.00033,28.12505,-81.43619,22,43.969997,2018-01-15
NEON.D03.FLNT.DP1.20002,31.185424,-84.437403,27,35.96,2018-01-15
NEON.D03.JERC.DP1.00033,31.194839,-84.468623,58,60.34,2018-01-15
NEON.D03.OSBS.DP1.00033,29.689282,-81.993431,56,56.51,2018-01-15
NEON.D03.SUGG.DP1.20002,29.687054,-82.016171,28,43.61,2018-01-15
NEON.D04.CUPE.DP1.20002,18.11352,-66.98676,164,58.199997,2018-01-15
NEON.D04.GUAN.DP1.00033,17.96955,-66.8687,136,55.1,2018-01-15
NEON.D04.GUIL.DP1.20002,18.1741,-66.79851,564,71.58,2018-01-15
NEON.D04.LAJA.DP1.00033,18.021261,-67.076889,22,47.75,2018-01-15
NEON.D05.CRAM.DP1.20002,46.21111,-89.47825,518,59.539997,2018-01-15
NEON.D05.LIRO.DP1.20002,45.998269,-89.704767,495,33.149998,2018-01-15
NEON.D05.STEI.DP1.00033,45.50894,-89.58637,476,38.23,2018-01-15
NEON.D05.TREE.DP1.00033,45.49373,-89.58572,474,47.57,2018-01-15
NEON.D05.UNDE.DP1.00033,46.23391,-89.537254,529,60.489998,2018-01-15
NEON.D06.KING.DP1.20002,39.10506,-96.60336,339,52.21,2018-01-15
NEON.D06.KONA.DP1.00033,39.110446,-96.612935,443,52.21,2018-01-15
NEON.D06.KONZ.DP1.00033,39.10077,-96.56309,415,57.87,2018-01-15
NEON.D06.MCDI.DP1.20002,38.94428,-96.44197,376,45.36,2018-01-15
NEON.D06.UKFS.DP1.00033,39.040431,-95.19215,330,60.789997,2018-01-15
NEON.D07.GRSM.DP1.00033,35.68896,-83.50195,589,25.08,2018-01-15
NEON.D07.LECO.DP1.20002,35.69043,-83.50379,578,25.08,2018-01-15
NEON.D07.MLBS.DP1.00033,37.378314,-80.524847,1177,56.0,2018-01-15
NEON.D07.ORNL.DP1.00033,35.964128,-84.282588,351,47.0,2018-01-15
NEON.D07.WALK.DP1.20002,35.95947,-84.28041,274,62.25,2018-01-15
NEON.D08.BLWA.DP1.20002,32.541529,-87.798151,23,47.969997,2018-01-15
NEON.D08.DELA.DP1.00033,32.541727,-87.803877,36,47.969997,2018-01-15
NEON.D08.LENO.DP1.00033,31.85388,-88.16122,10,98.39,2018-01-15
NEON.D08.MAYF.DP1.20002,32.959657,-87.408128,93,71.03,2018-01-15
NEON.D08.TALL.DP1.00033,32.95047,-87.393259,167,50.0,2018-01-15
NEON.D08.TOMB.DP1.20002,31.853431,-88.158872,10,98.39,2018-01-15
NEON.D09.DCFS.DP1.00033,47.161647,-99.106556,574,39.239998,2018-01-15
NEON.D09.NOGP.DP1.00033,46.76972,-100.91535,589,49.77,2018-01-15
NEON.D09.PRLA.DP1.20002,47.15909,-99.11388,563,36.6,2018-01-15
NEON.D09.PRPO.DP1.20002,47.12999,-99.250551,587,45.219997,2018-01-15
NEON.D09.WOOD.DP1.00033,47.1282,-99.241334,585,45.219997,2018-01-15
NEON.D10.ARIK.DP1.20002,39.758246,-102.447103,1188,37.69,2018-01-15
NEON.D10.CPER.DP1.00033,40.81553,-104.7456,1600,31.56,2018-01-15
NEON.D10.HQTW.DP1.00033,40.016704,-105.245612,1601,34.92,2018-01-15
NEON.D10.RMNP.DP1.00033,40.275903,-105.545955,2751,50.0,2018-01-15
NEON.D10.STER.DP1.00033,40.461894,-103.02929,1366,41.03,2018-01-15
NEON.D11.BLUE.DP1.20002,34.444218,-96.624201,288,34.09,2018-01-15
NEON.D11.CLBJ.DP1.00033,33.40123,-97.57,279,43.16,2018-01-15
NEON.D11.OAES.DP1.00033,35.41059,-99.05879,520,39.649998,2018-01-15
NEON.D11.PRIN.DP1.20002,33.37859,-97.78226,255,43.35,2018-01-15
NEON.D12.BLDE.DP1.20002,44.95011,-110.58715,2035,45.98,2018-01-15
NEON.D12.YELL.DP1.00033,44.95348,-110.53914,2130,34.219997,2018-01-15
NEON.D13.COMO.DP1.20002,40.03496,-105.54487,3036,22.25,2018-01-15
NEON.D13.MOAB.DP1.00033,38.24833,-109.38827,1803,40.66,2018-01-15
NEON.D13.NIWO.DP1.00033,40.05425,-105.58237,3493,50.0,2018-01-15
NEON.D13.WLOU.DP1.20002,39.891366,-105.915395,2920,22.76,2018-01-15
NEON.D14.JORN.DP1.00033,32.59068,-106.84254,1321,36.95,2018-01-15
NEON.D14.SRER.DP1.00033,31.91068,-110.83549,999,10.78,2018-01-15
NEON.D14.SYCA.DP1.20002,33.749057,-111.506903,644,14.179999,2018-01-15
NEON.D15.ONAQ.DP1.00033,40.177599,-112.452452,1655,37.94,2018-01-15
NEON.D15.REDB.DP1.20002,40.783934,-111.797887,1696,45.289997,2018-01-15
NEON.D16.ABBY.DP1.00033,45.76243,-122.33033,390,41.079998,2018-01-15
NEON.D16.MART.DP1.20002,45.791248,-121.931959,354,19.59,2018-01-15
NEON.D16.MCRA.DP1.20002,44.259598,-122.165554,880,44.34,2018-01-15
NEON.D16.WREF.DP1.00033,45.82049,-121.95191,368,20.619999,2018-01-15
NEON.D17.BIGC.DP1.20002,37.059719,-119.257549,1133,33.5,2018-01-15
NEON.D17.SJER.DP1.00033,37.10878,-119.73228,398,21.13,2018-01-15
NEON.D17.SOAP.DP1.00033,37.03337,-119.26219,1210,34.44,2018-01-15
NEON.D17.TEAK.DP1.00033,37.00583,-119.00602,2149,34.92,2018-01-15
NEON.D17.TECR.DP1.20002,36.955931,-119.027363,2053,26.72,2018-01-15
NEON.D18.BARR.DP1.00033,71.28241,-156.61936,7,-9999.0,2018-01-15
NEON.D18.OKSR.DP1.20002,68.669753,-149.143018,773,-9999.0,2018-01-15
NEON.D18.TOOK.DP1.20002,68.629562,-149.610509,715,-9999.0,2018-01-15
NEON.D18.TOOL.DP1.00033,68.66109,-149.37047,827,-9999.0,2018-01-15
NEON.D19.BONA.DP1.00033,65.15401,-147.50258,233,37.04,2018-01-15
NEON.D19.CARI.DP1.20002,65.15306,-147.50246,229,37.04,2018-01-15
NEON.D19.DEJU.DP1.00033,63.88112,-145.75136,504,38.55,2018-01-15
NEON.D19.HEAL.DP1.00033,63.87569,-149.21334,409,35.96,2018-01-15
NEON.D20.PUUM.DP1.00033,19.55309,-155.31731,1683,-9999.0,2018-01-15
nevcansnk3a,39.0099,-114.3095,3063,54.75,2018-01-15
nevcanspg1a,38.9253,-114.4082,1792,43.879997,2018-01-15
nevcanspg2a,38.8921,-114.3521,2203,59.039997,2018-01-15
nevcanspg3a,38.8898,-114.3314,2820,53.92,2018-01-15
nevcanspg4a,38.9061,-114.3089,3360,53.92,2018-01-15
ninemileprairie,40.86801886,-96.82208066,381,48.829998,2018-01-15
nist,39.139,-77.2125,100,73.75,2018-01-15
niwot3,40.03286358,-105.5469702,3050,22.25,2018-01-15
niwot5,40.03286358,-105.5469702,2993,22.25,2018-01-15
northattleboroma,41.98369,-71.31056,60,61.96,2018-01-15
northinletsaltmarsh,33.3455,-79.1957,1,50.0,2018-01-15
oakville,47.899334,-97.316139,268,56.949997,2018-01-15
oregonMP,44.4523,-121.5574,1253,70.81,2018-01-15
oregonYP,44.32384,-121.605993,977,50.239998,2018-01-15
oregonYPbud,44.3238,-121.606,977,50.239998,2018-01-15
othshardwood,44.934805,-68.6655,41,65.68,2018-01-15
othssoftwood,44.934527,-68.664888,41,65.68,2018-01-15
pace,37.9229,-78.2739,100,66.72,2018-01-15
parkschoolbuffalo,42.9637,-78.7834,205,29.15,2018-01-15
piedmontalpasture2,33.8875,-85.6935,238,28.83,2018-01-15
portal,31.9385,-109.0823,1330,11.41,2018-01-15
proctor,44.525,-72.866,403,64.56,2018-01-15
readingma,42.5304,-71.1272,100,22.88,2018-01-15
robinson,37.4671,-83.1576,483,58.879997,2018-01-15
robinson2,37.4671,-83.1576,483,58.879997,2018-01-15
rosemountcons,44.6946,-93.0578,283,50.989998,2018-01-15
rosemountconv,44.691,-93.0576,283,50.989998,2018-01-15
rosemountnprs,44.6781,-93.0723,274,49.43,2018-01-15
russellsage,32.456961,-91.974322,20,57.73,2018-01-15
sagehen,39.4315,-120.2398,1934,53.75,2018-01-15
sagehen2,39.4307,-120.2407,1937,50.629997,2018-01-15
sagehen3,39.4311,-120.2405,1935,50.629997,2018-01-15
sanford,42.726777,-84.464482,268,43.2,2018-01-15
santacruz1,36.9741,-122.0308,11,34.88,2018-01-15
santacruz2,36.9741,-122.0308,11,34.88,2018-01-15
santaluciapreserve1,36.5265,-121.8682,500,54.76,2018-01-15
santaluciapreserve2,36.5265,-121.8682,500,54.76,2018-01-15
segaarboretum10,35.16209,-111.73151,2170,46.55,2018-01-15
segaarboretum2,35.16209,-111.73151,2170,46.55,2018-01-15
segaarboretum3,35.16209,-111.73151,2170,46.55,2018-01-15
segaarboretum4,35.16214,-111.73153,2170,46.55,2018-01-15
segaarboretum6,35.16209,-111.73151,2170,46.55,2018-01-15
segaarboretum9,35.16222,-111.73158,2170,46.55,2018-01-15
segaarboretumforest,35.1613,-111.7359,2173,46.55,2018-01-15
segaarboretummeadow,35.1621,-111.7316,2157,46.55,2018-01-15
segablackpoint,35.6814,-111.4754,1566,43.46,2018-01-15
segabluechute,35.5876,-111.9716,1930,22.64,2018-01-15
segabluechute1,35.58759,-111.97115,1931,22.64,2018-01-15
segabluechute2,35.58759,-111.97115,1931,22.64,2018-01-15
segabluechute4,35.58759,-111.9716,1931,22.64,2018-01-15
segabluechute6,35.58759,-111.97115,1931,22.64,2018-01-15
segabluechute7,35.58759,-111.97115,1931,22.64,2018-01-15
segabluechute8,35.58759,-111.97115,1931,22.64,2018-01-15
segabradshaw,34.9109,-111.9285,1402,52.71,2018-01-15
segahartprairie,35.3536,-111.7324,2585,46.899998,2018-01-15
segalcr,35.7231,-111.321,1275,40.69,2018-01-15
segalcr2,35.7069,-111.36,1495,38.21,2018-01-15
segalittlemountain,36.5865,-112.3634,2276,45.87,2018-01-15
segasoapcreek,36.751,-111.716,1233,18.89,2018-01-15
segawhitepockets,36.6081,-112.4082,2057,36.77,2018-01-15
sevilletagrass,34.360444,-106.700186,1600,29.189999,2018-01-15
sevilletanewgrass,34.358,-106.6799,1603,29.189999,2018-01-15
sevilletashrub,34.334956,-106.744469,1603,47.379997,2018-01-15
sevMRME10L,34.3438,-106.7269,1604,37.37,2018-01-15
sevMRME11C,34.3438,-106.7268,1604,37.37,2018-01-15
sevMRME1S,34.3442,-106.7272,1604,29.46,2018-01-15
sevpjrm12,34.38615,-106.52621,1905,38.32,2018-01-15
sevpjrm13,34.38631,-106.52791,1914,38.32,2018-01-15
shalehillsczo,40.6658,-77.9041,310,45.93,2018-01-15
shenandoah,38.6167,-78.35,1037,59.84,2018-01-15
silverton,44.9986,-122.6948,347,50.51,2018-01-15
siwetland,38.0369,-121.7546,-5,50.0,2018-01-15
slatefloodplain,38.9094,-107.0282,2725,42.399998,2018-01-15
snodgrass1,38.92619636,-106.9714376,3023,21.55,2018-01-15
snodgrass2,38.92619636,-106.9714376,3023,21.55,2018-01-15
snodgrass3,38.92839978,-106.9781196,3141,21.55,2018-01-15
snodgrass4,38.92839978,-106.9781196,3141,21.55,2018-01-15
snodgrass5,38.92744789,-106.9785209,3152,21.55,2018-01-15
snodgrass6,38.92744789,-106.9785209,3152,21.55,2018-01-15
snodgrass7,38.93142134,-106.9852388,3363,21.55,2018-01-15
snodgrass8,38.93142134,-106.9852388,3363,21.55,2018-01-15
southerngreatplains,36.6058,-97.4888,314,12.86,2018-01-15
springfieldma,42.135162,-72.585972,56,36.239998,2018-01-15
spruceA0EMI,47.5049,-93.4541,413,55.489998,2018-01-15
spruceA0EMT,47.5049,-93.4541,418,55.489998,2018-01-15
spruceA0P07,47.50493,-93.45314,413,55.489998,2018-01-15
spruceA0P07SH,47.50493,-93.45314,413,55.489998,2018-01-15
spruceA0P21,47.50625,-93.45275,413,55.489998,2018-01-15
spruceA0P21SH,47.50625,-93.45275,413,55.489998,2018-01-15
srg,31.7894,-110.8276,1281,21.22,2018-01-15
srm,31.8214,-110.8661,1116,22.97,2018-01-15
statenrice1,38.1235,-121.549,-5,47.98,2018-01-15
stjones,39.088222,-75.43725,2,43.78,2018-01-15
sweetbriar,37.57341,-79.08482,242,48.039997,2018-01-15
sweetbriarclearcut,37.5753,-79.0872,242,48.039997,2018-01-15
sweetbriargrass,37.5605,-79.0884,240,48.039997,2018-01-15
sylvania,46.242,-89.348,540,35.42,2018-01-15
templefieldstation1,40.1667,-75.1894,105,65.43,2018-01-15
tfforest,43.1086,-70.9505,23,53.399998,2018-01-15
tidmarshplymouth,41.9157,-70.5754,9,62.899998,2018-01-15
tonzi,38.43091667,-120.9658861,177,50.399998,2018-01-15
townsenddemeadow,39.3917,-75.6281,11,49.649998,2018-01-15
tsubiology,36.1671,-86.8295,164,50.0,2018-01-15
tsubiology2,36.1171,-86.8295,100,34.75,2018-01-15
tuckerprairie,38.9491,-91.9952,274,57.129997,2018-01-15
twodafo,29.1658,-95.829,16,43.04,2018-01-15
tworfaa,31.4777,-96.8882,167,34.04,2018-01-15
tworfpr,31.4802,-96.8826,162,34.04,2018-01-15
tworfta,31.4693,-96.8864,173,34.04,2018-01-15
twosfpr,30.6176,-97.2938,157,53.18,2018-01-15
ucnrsanzaborrego,33.2401,-116.3886,214,6.89,2018-01-15
ufona,27.3836,-81.950856,25,38.51,2018-01-15
uiefmaize2,40.0628,-88.1961,224,56.6,2018-01-15
uiefmiscanthus2,40.0628,-88.1984,221,56.6,2018-01-15
uiefprairie2,40.0637,-88.1973,224,56.6,2018-01-15
uiefsorghum,40.0065,-88.2032,224,49.62,2018-01-15
uiefswitchgrass2,40.0637,-88.1973,224,56.6,2018-01-15
umichbiological,45.55984,-84.71382,230,46.35,2018-01-15
umichbiological2,45.5625,-84.6976,240,-9999.0,2018-01-15
unca,35.5951,-82.5515,650,69.4,2018-01-15
usgseros,43.7343,-96.6234,448,56.41,2018-01-15
usmpj,34.43845,-106.2543606,2126,31.59,2018-01-15
usof5,35.7297,-90.0406,70,25.97,2018-01-15
usof6,35.7333,-90.0403,70,25.97,2018-01-15
uwmfieldsta,43.38709,-88.0229,265,44.809998,2018-01-15
vaira,38.41328056,-120.9506361,129,53.96,2018-01-15
vallesburnedconifer,35.8884,-106.5321,3043,15.04,2018-01-15
vallesmixedconifer,35.9192,-106.6142,2752,33.36,2018-01-15
vallesponderosapine,35.864,-106.5964,2501,31.24,2018-01-15
waahila,21.3017,-157.8152,55,36.42,2018-01-15
warrenwilson,35.6069,-82.4421,2198,53.07,2018-01-15
willamettepoplar,44.1368,-123.1823,112,39.26,2018-01-15
willowcreek,45.805986,-90.07912,521,45.8,2018-01-15
windriver,45.8212833,-121.9520833,371,20.619999,2018-01-15
windriverunderstory,45.8212833,-121.9520833,371,20.619999,2018-01-15
wolfesneckfarm,43.8305,-70.0715,16,32.52,2018-01-15
worcester,42.2697,-71.8428,185,24.269999,2018-01-15
alligatorriver,35.7879,-75.9038,1,45.98,2018-01-22
arbutuslake,43.98207,-74.23322,535,27.22,2018-01-22
arbutuslakeinlet,43.99336,-74.24527,527,30.98,2018-01-22
archboldavir,27.176064,-81.21958,8,34.21,2018-01-22
archboldavirx,27.166627,-81.219828,8,34.21,2018-01-22
archboldbahia,27.1656,-81.216112,8,34.21,2018-01-22
archboldpnot,27.187948,-81.200345,9,68.58,2018-01-22
archboldpnotx,27.180677,-81.20068,9,68.58,2018-01-22
arkansascornsoy,34.416,-91.6723,61,72.49,2018-01-22
arsbrooks10,41.9749,-93.6905,312,64.939995,2018-01-22
arsbrooks11,41.9744,-93.6937,313,64.939995,2018-01-22
arscolesnorth,42.4884,-93.5225,356,57.26,2018-01-22
arscolessouth,42.4816,-93.5235,352,57.26,2018-01-22
arsgacp1,31.5109,-83.6179,96,45.57,2018-01-22
arsgacp3,31.7563,-83.7516,139,49.289997,2018-01-22
arsgacp4,31.7093,-83.7287,127,81.33,2018-01-22
arsgreatbasinltar098,43.1675,-116.7132,1426,45.19,2018-01-22
arsgreatbasinltar117,43.1432,-116.7357,1625,43.78,2018-01-22
arsgreatbasinltar177,43.0645,-116.7484,2114,47.17,2018-01-22
arsltarmdcr,39.0587,-75.8513,17,57.77,2018-01-22
arsltarmdcrnatw,39.0575,-75.7531,16,75.659996,2018-01-22
arsltarmdcrprcw,39.0667,-75.7609,17,70.31,2018-01-22
arsltarmdcrresw,39.0549,-75.7532,16,75.659996,2018-01-22
arsltarucbec1,40.7537,-78.0057,400,49.44,2018-01-22
arsltarucbec2,40.7558,-77.9999,396,49.44,2018-01-22
arsmnswanlake1,45.684508,-95.799703,370,72.9,2018-01-22
arsmorris1,45.6167,-96.1269,341,64.09,2018-01-22
arsmorris2,45.627,-96.127,338,64.09,2018-01-22
arsmorris3,45.6091,-96.1265,342,62.71,2018-01-22
arsope3ltar,39.0309,-76.8442,41,71.619995,2018-01-22
ashburnham,42.6029,-71.926,292,57.329998,2018-01-22
asuhighlands,36.2076,-81.7032,1016,53.73,2018-01-22
austincary,29.738,-82.2188,44,57.32,2018-01-22
barrow,71.28007453,-156.6091492,5,-9999.0,2018-01-22
bartlettir,44.0646,-71.2881,268,52.14,2018-01-22
bigtraillake,64.9194,-147.822,190,41.2,2018-01-22
bitterbrush001,48.154,-119.9456,667,46.969997,2018-01-22
blackrockforest,41.3974,-74.0239,427,35.71,2018-01-22
bnzblackspruce,64.6963,-148.3235,102,56.68,2018-01-22
bnzrichfen,64.70134,-148.31195,97,33.44,2018-01-22
bnzthermokarstbog,64.6955,-148.3208,104,56.68,2018-01-22
boglakepeatland,47.5051,-93.4893,416,47.53,2018-01-22
bostoncommon,42.355912,-71.064145,10,59.309998,2018-01-22
bostonu,42.35041,-71.10438,10,28.109999,2018-01-22
bouldinalfalfa,38.0985,-121.4993,-5,67.47,2018-01-22
bouldincorn,38.109,-121.535,-5,41.1,2018-01-22
bozeman,45.783056,-110.777778,2332,61.66,2018-01-22
brackishimpoundment,33.2015,-79.2973,1,39.579998,2018-01-22
bullshoals,36.562833,-93.06663,260,47.55,2018-01-22
burnssagebrush,43.4712,-119.6909,1398,42.48,2018-01-22
butte,45.95304,-112.47964,1682,59.289997,2018-01-22
butterice,39.5793,-121.858,33,72.939995,2018-01-22
cafboydnorthltar01,46.755104,-117.126052,795,43.46,2018-01-22
cafboydsouthltar01,46.751809,-117.128502,795,43.46,2018-01-22
cafcookeastltar01,46.78152,-117.0821,794,49.3,2018-01-22
cafcookwestltar01,46.784037,-117.09083,807,49.3,2018-01-22
caryinstitute,41.7839,-73.7341,127,53.739998,2018-01-22
centralredwoods1,38.632272,-123.301511,200,47.26,2018-01-22
centralredwoods2,38.632272,-123.301511,200,47.26,2018-01-22
cperagm,40.8402,-104.7672,1644,57.69,2018-01-22
cperheavy,40.8153,-104.7386,1652,31.82,2018-01-22
cpertgm,40.833,-104.76,1644,34.84,2018-01-22
cperuvb,40.8055764,-104.7558542,1641,31.82,2018-01-22
cuny,40.8162,-73.9507,42,82.39,2018-01-22
doverdesaltmarsh,39.0888,-75.4368,0,44.0,2018-01-22
downerwoods,43.07938,-87.88076,213,47.87,2018-01-22
dukehw,35.973583,-79.100371,400,72.59,2018-01-22
ecb1,41.5348,-84.8068,275,55.129997,2018-01-22
ecb2,41.5321,-84.808,275,55.129997,2018-01-22
ecb4,41.1796,-83.0604,240,52.26,2018-01-22
elverde,18.320654,-65.8199,312,30.75,2018-01-22
flagstaff,35.17961521,-111.6049032,6983,40.329998,2018-01-22
flagstaff2,35.179225,-111.604506,6983,40.329998,2018-01-22
flagstaffchimneysprings,35.257296,-111.678542,2250,38.17,2018-01-22
forbes,39.232,-121.2972,360,50.789997,2018-01-22
fortpaynealpasture1,34.3824,-85.6428,405,64.06,2018-01-22
fortpaynealpasture2,34.3824,-85.6447,403,60.0,2018-01-22
gcesapelo,31.4440444,-81.283528,0,44.91,2018-01-22
gilberttract,38.0015,-121.6691,6,41.809998,2018-01-22
glees,41.3644,-106.2394,3150,67.61,2018-01-22
glennorganicrice,39.6805,-122.0026,2,42.55,2018-01-22
glennrice,39.5944,-122.0253,36,69.77,2018-01-22
goodnow,43.96018,-74.20994,820,64.74,2018-01-22
goodwater,39.22848,-92.11936,264,55.36,2018-01-22
goodwaterbau,39.23115,-92.15216,274,46.969997,2018-01-22
grandteton,43.915017,-110.578036,2054,42.5,2018-01-22
grca1pj,36.0241,-112.2211,1978,40.94,2018-01-22
greenridge1,39.6905,-78.4067,285,56.78,2018-01-22
harvard,42.5378,-72.1715,340,53.93,2018-01-22
harvardbarn,42.53532,-72.1899,350,38.829998,2018-01-22
harvardbarn2,42.53532,-72.1899,350,38.829998,2018-01-22
harvardems2,42.5378,-72.1715,340,53.93,2018-01-22
harvardfarmnorth,42.520465,-72.182242,355,38.829998,2018-01-22
harvardfarmsouth,42.522466,-72.182339,355,38.829998,2018-01-22
harvardgarden,42.5291,-72.1863,335,38.829998,2018-01-22
harvardhemlock,42.539,-72.18,355,53.93,2018-01-22
harvardhemlock2,42.539407,-72.177976,355,53.93,2018-01-22
harvardlph,42.542,-72.185,380,38.829998,2018-01-22
hawbeckereddy,40.6608,-77.848849,310,45.37,2018-01-22
hobcawclearcutlongleaf,33.3486,-79.232,4,52.84,2018-01-22
hobcawmaturelongleaf,33.3242,-79.2439,8,52.46,2018-01-22
homesteadsprings,37.2009,-92.9937,452,63.129997,2018-01-22
howland1,45.2041,-68.7403,80,70.869995,2018-01-22
howland2,45.2128,-68.7418,79,70.869995,2018-01-22
hubbardbrook,43.9438,-71.701,253,45.289997,2018-01-22
humnokericea,34.585192,-91.751684,61,33.53,2018-01-22
humnokericec,34.588853,-91.7516729,70,33.53,2018-01-22
huyckpreserveny,42.5266,-74.1587,478,42.649998,2018-01-22
hwmo1,20.0212,-155.7331,585,-9999.0,2018-01-22
hwmo2,19.9766,-155.8298,12,-9999.0,2018-01-22
hwmo5,20.1117,-155.8151,635,-9999.0,2018-01-22
ibp,32.589,-106.847,1325,32.48,2018-01-22
imcrkfen,68.60583,-149.31101,900,1.81,2018-01-22
imcrkridge0,68.60681,-149.2958,951,1.81,2018-01-22
imcrkridge1,68.60681,-149.2958,951,1.81,2018-01-22
imcrktussock,68.60633,-149.30408,918,1.81,2018-01-22
jasperridge,37.402028,-122.22104,197,36.45,2018-01-22
jerbajada,32.57992,-106.633793,1402,31.48,2018-01-22
jergrassland,32.5833,-106.8333,1331,32.48,2018-01-22
jernort,32.619,-106.788,1328,32.6,2018-01-22
jernovel,32.6335,-106.8334,1324,28.31,2018-01-22
jernwern,32.6271,-106.7387,1325,40.66,2018-01-22
jersand,32.515,-106.798,1363,36.93,2018-01-22
jershrubland,32.6502,-106.8334,1328,28.31,2018-01-22
junipersavannah,34.4254,-105.8615,1931,41.579998,2018-01-22
kamuela,20.015008,-155.661326,850,-9999.0,2018-01-22
kamuela2,20.014959,-155.661139,830,-9999.0,2018-01-22
kansas,39.0561,-95.1907,333,67.67,2018-01-22
kelloggcorn,42.437536,-85.3225472,288,47.629997,2018-01-22
kempnrs,45.83992,-89.67755,539,-9999.0,2018-01-22
kendall,31.73652,-109.94185,1529,60.23,2018-01-22
konza,39.0824,-96.5603,443,65.7,2018-01-22
laupahoehoe,19.9322,-155.2912,1145,-9999.0,2018-01-22
ldeocam,41.0039,-73.9053,121,-9999.0,2018-01-22
lostcreek,46.0827,-89.9792,480,65.619995,2018-01-22
luckyhills,31.743896,-110.052023,1366,43.649998,2018-01-22
macleish,42.4484,-72.6804,251,46.44,2018-01-22
macordway,44.8106,-93.0272,264,58.94,2018-01-22
mandanh5,46.775423,-100.95109,593,47.43,2018-01-22
mandani2,46.7614,-100.9257,590,46.59,2018-01-22
manilacotton,35.8872,-90.1371,73,33.25,2018-01-22
marena,36.06434,-97.21271,327,32.51,2018-01-22
mead1,41.1651,-96.4766,361,42.42,2018-01-22
mead2,41.1649,-96.4701,362,42.42,2018-01-22
mead3,41.1797,-96.4397,363,48.19,2018-01-22
meadpasture,41.1447,-96.4616,356,46.149998,2018-01-22
meadpasturese,41.1447,-96.4616,356,46.149998,2018-01-22
meadpasturesw,41.1447,-96.4616,356,46.149998,2018-01-22
missouriozarks,38.7441,-92.2,219,75.57,2018-01-22
morganmonroe,39.3231,-86.4131,275,66.299995,2018-01-22
morganmonroe2,39.3231,-86.4131,275,66.299995,2018-01-22
nahuku,19.415187,-155.238383,1202,-9999.0,2018-01-22
nationalelkrefuge,43.488931,-110.737824,1899,39.95,2018-01-22
ncssm,36.018446,-78.92075,175,35.42,2018-01-22
NEON.D01.BART.DP1.00033,44.063869,-71.287375,285,27.22,2018-01-22
NEON.D01.HARV.DP1.00033,42.536911,-72.17265,359,53.93,2018-01-22
NEON.D01.HOPB.DP1.20002,42.471786,-72.329627,203,41.829998,2018-01-22
NEON.D02.BLAN.DP1.00033,39.033698,-78.041788,162,45.51,2018-01-22
NEON.D02.LEWI.DP1.20002,39.09564,-77.98322,152,42.37,2018-01-22
NEON.D02.POSE.DP1.20002,38.89332,-78.14678,293,77.689995,2018-01-22
NEON.D02.SCBI.DP1.00033,38.892925,-78.139494,364,77.689995,2018-01-22
NEON.D02.SERC.DP1.00033,38.89008,-76.56001,30,59.699997,2018-01-22
NEON.D03.BARC.DP1.20002,29.676473,-82.009089,35,38.07,2018-01-22
NEON.D03.DSNY.DP1.00033,28.12505,-81.43619,22,47.59,2018-01-22
NEON.D03.FLNT.DP1.20002,31.185424,-84.437403,27,32.309998,2018-01-22
NEON.D03.JERC.DP1.00033,31.194839,-84.468623,58,56.36,2018-01-22
NEON.D03.OSBS.DP1.00033,29.689282,-81.993431,56,57.239998,2018-01-22
NEON.D03.SUGG.DP1.20002,29.687054,-82.016171,28,38.07,2018-01-22
NEON.D04.CUPE.DP1.20002,18.11352,-66.98676,164,53.27,2018-01-22
NEON.D04.GUAN.DP1.00033,17.96955,-66.8687,136,53.86,2018-01-22
NEON.D04.GUIL.DP1.20002,18.1741,-66.79851,564,67.979996,2018-01-22
NEON.D04.LAJA.DP1.00033,18.021261,-67.076889,22,47.649998,2018-01-22
NEON.D05.CRAM.DP1.20002,46.21111,-89.47825,518,64.03,2018-01-22
NEON.D05.LIRO.DP1.20002,45.998269,-89.704767,495,38.6,2018-01-22
NEON.D05.STEI.DP1.00033,45.50894,-89.58637,476,39.809998,2018-01-22
NEON.D05.TREE.DP1.00033,45.49373,-89.58572,474,50.379997,2018-01-22
NEON.D05.UNDE.DP1.00033,46.23391,-89.537254,529,58.09,2018-01-22
NEON.D06.KING.DP1.20002,39.10506,-96.60336,339,48.039997,2018-01-22
NEON.D06.KONA.DP1.00033,39.110446,-96.612935,443,48.039997,2018-01-22
NEON.D06.KONZ.DP1.00033,39.10077,-96.56309,415,56.039997,2018-01-22
NEON.D06.MCDI.DP1.20002,38.94428,-96.44197,376,43.82,2018-01-22
NEON.D06.UKFS.DP1.00033,39.040431,-95.19215,330,67.67,2018-01-22
NEON.D07.GRSM.DP1.00033,35.68896,-83.50195,589,23.06,2018-01-22
NEON.D07.LECO.DP1.20002,35.69043,-83.50379,578,23.06,2018-01-22
NEON.D07.MLBS.DP1.00033,37.378314,-80.524847,1177,57.85,2018-01-22
NEON.D07.ORNL.DP1.00033,35.964128,-84.282588,351,47.18,2018-01-22
NEON.D07.WALK.DP1.20002,35.95947,-84.28041,274,59.91,2018-01-22
NEON.D08.BLWA.DP1.20002,32.541529,-87.798151,23,48.02,2018-01-22
NEON.D08.DELA.DP1.00033,32.541727,-87.803877,36,48.02,2018-01-22
NEON.D08.LENO.DP1.00033,31.85388,-88.16122,10,98.53,2018-01-22
NEON.D08.MAYF.DP1.20002,32.959657,-87.408128,93,66.32,2018-01-22
NEON.D08.TALL.DP1.00033,32.95047,-87.393259,167,53.16,2018-01-22
NEON.D08.TOMB.DP1.20002,31.853431,-88.158872,10,98.53,2018-01-22
NEON.D09.DCFS.DP1.00033,47.161647,-99.106556,574,45.84,2018-01-22
NEON.D09.NOGP.DP1.00033,46.76972,-100.91535,589,47.36,2018-01-22
NEON.D09.PRLA.DP1.20002,47.15909,-99.11388,563,41.78,2018-01-22
NEON.D09.PRPO.DP1.20002,47.12999,-99.250551,587,52.18,2018-01-22
NEON.D09.WOOD.DP1.00033,47.1282,-99.241334,585,52.18,2018-01-22
NEON.D10.ARIK.DP1.20002,39.758246,-102.447103,1188,41.3,2018-01-22
NEON.D10.CPER.DP1.00033,40.81553,-104.7456,1600,31.82,2018-01-22
NEON.D10.HQTW.DP1.00033,40.016704,-105.245612,1601,35.6,2018-01-22
NEON.D10.RMNP.DP1.00033,40.275903,-105.545955,2751,50.95,2018-01-22
NEON.D10.STER.DP1.00033,40.461894,-103.02929,1366,45.14,2018-01-22
NEON.D11.BLUE.DP1.20002,34.444218,-96.624201,288,33.469997,2018-01-22
NEON.D11.CLBJ.DP1.00033,33.40123,-97.57,279,44.04,2018-01-22
NEON.D11.OAES.DP1.00033,35.41059,-99.05879,520,41.96,2018-01-22
NEON.D11.PRIN.DP1.20002,33.37859,-97.78226,255,35.92,2018-01-22
NEON.D12.BLDE.DP1.20002,44.95011,-110.58715,2035,46.14,2018-01-22
NEON.D12.YELL.DP1.00033,44.95348,-110.53914,2130,35.28,2018-01-22
NEON.D13.COMO.DP1.20002,40.03496,-105.54487,3036,39.809998,2018-01-22
NEON.D13.MOAB.DP1.00033,38.24833,-109.38827,1803,44.149998,2018-01-22
NEON.D13.NIWO.DP1.00033,40.05425,-105.58237,3493,56.84,2018-01-22
NEON.D13.WLOU.DP1.20002,39.891366,-105.915395,2920,17.98,2018-01-22
NEON.D14.JORN.DP1.00033,32.59068,-106.84254,1321,32.48,2018-01-22
NEON.D14.SRER.DP1.00033,31.91068,-110.83549,999,13.38,2018-01-22
NEON.D14.SYCA.DP1.20002,33.749057,-111.506903,644,6.58,2018-01-22
NEON.D15.ONAQ.DP1.00033,40.177599,-112.452452,1655,38.309998,2018-01-22
NEON.D15.REDB.DP1.20002,40.783934,-111.797887,1696,50.26,2018-01-22
NEON.D16.ABBY.DP1.00033,45.76243,-122.33033,390,40.629997,2018-01-22
NEON.D16.MART.DP1.20002,45.791248,-121.931959,354,19.46,2018-01-22
NEON.D16.MCRA.DP1.20002,44.259598,-122.165554,880,48.739998,2018-01-22
NEON.D16.WREF.DP1.00033,45.82049,-121.95191,368,20.16,2018-01-22
NEON.D17.BIGC.DP1.20002,37.059719,-119.257549,1133,32.42,2018-01-22
NEON.D17.SJER.DP1.00033,37.10878,-119.73228,398,20.25,2018-01-22
NEON.D17.SOAP.DP1.00033,37.03337,-119.26219,1210,33.149998,2018-01-22
NEON.D17.TEAK.DP1.00033,37.00583,-119.00602,2149,38.03,2018-01-22
NEON.D17.TECR.DP1.20002,36.955931,-119.027363,2053,30.39,2018-01-22
NEON.D18.BARR.DP1.00033,71.28241,-156.61936,7,-9999.0,2018-01-22
NEON.D18.OKSR.DP1.20002,68.669753,-149.143018,773,-9999.0,2018-01-22
NEON.D18.TOOK.DP1.20002,68.629562,-149.610509,715,-9999.0,2018-01-22
NEON.D18.TOOL.DP1.00033,68.66109,-149.37047,827,-9999.0,2018-01-22
NEON.D19.BONA.DP1.00033,65.15401,-147.50258,233,36.95,2018-01-22
NEON.D19.CARI.DP1.20002,65.15306,-147.50246,229,36.95,2018-01-22
NEON.D19.DEJU.DP1.00033,63.88112,-145.75136,504,38.76,2018-01-22
NEON.D19.HEAL.DP1.00033,63.87569,-149.21334,409,35.579998,2018-01-22
NEON.D20.PUUM.DP1.00033,19.55309,-155.31731,1683,-9999.0,2018-01-22
nevcansnk3a,39.0099,-114.3095,3063,65.03,2018-01-22
nevcanspg1a,38.9253,-114.4082,1792,45.96,2018-01-22
nevcanspg2a,38.8921,-114.3521,2203,61.699997,2018-01-22
nevcanspg3a,38.8898,-114.3314,2820,56.579998,2018-01-22
nevcanspg4a,38.9061,-114.3089,3360,56.579998,2018-01-22
ninemileprairie,40.86801886,-96.82208066,381,49.44,2018-01-22
nist,39.139,-77.2125,100,72.01,2018-01-22
niwot3,40.03286358,-105.5469702,3050,39.809998,2018-01-22
niwot5,40.03286358,-105.5469702,2993,39.809998,2018-01-22
northattleboroma,41.98369,-71.31056,60,53.5,2018-01-22
northinletsaltmarsh,33.3455,-79.1957,1,50.0,2018-01-22
oakville,47.899334,-97.316139,268,57.829998,2018-01-22
oregonMP,44.4523,-121.5574,1253,69.189995,2018-01-22
oregonYP,44.32384,-121.605993,977,53.44,2018-01-22
oregonYPbud,44.3238,-121.606,977,53.44,2018-01-22
othshardwood,44.934805,-68.6655,41,64.15,2018-01-22
othssoftwood,44.934527,-68.664888,41,64.15,2018-01-22
pace,37.9229,-78.2739,100,62.68,2018-01-22
parkschoolbuffalo,42.9637,-78.7834,205,25.98,2018-01-22
piedmontalpasture2,33.8875,-85.6935,238,23.96,2018-01-22
portal,31.9385,-109.0823,1330,12.23,2018-01-22
proctor,44.525,-72.866,403,66.439995,2018-01-22
readingma,42.5304,-71.1272,100,22.24,2018-01-22
robinson,37.4671,-83.1576,483,57.89,2018-01-22
robinson2,37.4671,-83.1576,483,57.89,2018-01-22
rosemountcons,44.6946,-93.0578,283,50.25,2018-01-22
rosemountconv,44.691,-93.0576,283,50.25,2018-01-22
rosemountnprs,44.6781,-93.0723,274,48.87,2018-01-22
russellsage,32.456961,-91.974322,20,48.67,2018-01-22
sagehen,39.4315,-120.2398,1934,52.0,2018-01-22
sagehen2,39.4307,-120.2407,1937,53.41,2018-01-22
sagehen3,39.4311,-120.2405,1935,53.41,2018-01-22
sanford,42.726777,-84.464482,268,42.59,2018-01-22
santacruz1,36.9741,-122.0308,11,35.8,2018-01-22
santacruz2,36.9741,-122.0308,11,35.8,2018-01-22
santaluciapreserve1,36.5265,-121.8682,500,58.059998,2018-01-22
santaluciapreserve2,36.5265,-121.8682,500,58.059998,2018-01-22
segaarboretum10,35.16209,-111.73151,2170,46.96,2018-01-22
segaarboretum2,35.16209,-111.73151,2170,46.96,2018-01-22
segaarboretum3,35.16209,-111.73151,2170,46.96,2018-01-22
segaarboretum4,35.16214,-111.73153,2170,46.96,2018-01-22
segaarboretum6,35.16209,-111.73151,2170,46.96,2018-01-22
segaarboretum9,35.16222,-111.73158,2170,46.96,2018-01-22
segaarboretumforest,35.1613,-111.7359,2173,46.96,2018-01-22
segaarboretummeadow,35.1621,-111.7316,2157,46.96,2018-01-22
segablackpoint,35.6814,-111.4754,1566,41.19,2018-01-22
segabluechute,35.5876,-111.9716,1930,23.189999,2018-01-22
segabluechute1,35.58759,-111.97115,1931,23.189999,2018-01-22
segabluechute2,35.58759,-111.97115,1931,23.189999,2018-01-22
segabluechute4,35.58759,-111.9716,1931,23.189999,2018-01-22
segabluechute6,35.58759,-111.97115,1931,23.189999,2018-01-22
segabluechute7,35.58759,-111.97115,1931,23.189999,2018-01-22
segabluechute8,35.58759,-111.97115,1931,23.189999,2018-01-22
segabradshaw,34.9109,-111.9285,1402,57.57,2018-01-22
segahartprairie,35.3536,-111.7324,2585,50.17,2018-01-22
segalcr,35.7231,-111.321,1275,37.75,2018-01-22
segalcr2,35.7069,-111.36,1495,36.0,2018-01-22
segalittlemountain,36.5865,-112.3634,2276,45.36,2018-01-22
segasoapcreek,36.751,-111.716,1233,20.92,2018-01-22
segawhitepockets,36.6081,-112.4082,2057,37.219997,2018-01-22
sevilletagrass,34.360444,-106.700186,1600,35.89,2018-01-22
sevilletanewgrass,34.358,-106.6799,1603,35.89,2018-01-22
sevilletashrub,34.334956,-106.744469,1603,52.37,2018-01-22
sevMRME10L,34.3438,-106.7269,1604,36.45,2018-01-22
sevMRME11C,34.3438,-106.7268,1604,36.45,2018-01-22
sevMRME1S,34.3442,-106.7272,1604,31.359999,2018-01-22
sevpjrm12,34.38615,-106.52621,1905,35.87,2018-01-22
sevpjrm13,34.38631,-106.52791,1914,35.87,2018-01-22
shalehillsczo,40.6658,-77.9041,310,50.32,2018-01-22
shenandoah,38.6167,-78.35,1037,54.42,2018-01-22
silverton,44.9986,-122.6948,347,44.899998,2018-01-22
siwetland,38.0369,-121.7546,-5,50.789997,2018-01-22
slatefloodplain,38.9094,-107.0282,2725,45.02,2018-01-22
snodgrass1,38.92619636,-106.9714376,3023,15.25,2018-01-22
snodgrass2,38.92619636,-106.9714376,3023,15.25,2018-01-22
snodgrass3,38.92839978,-106.9781196,3141,15.25,2018-01-22
snodgrass4,38.92839978,-106.9781196,3141,15.25,2018-01-22
snodgrass5,38.92744789,-106.9785209,3152,15.25,2018-01-22
snodgrass6,38.92744789,-106.9785209,3152,15.25,2018-01-22
snodgrass7,38.93142134,-106.9852388,3363,15.25,2018-01-22
snodgrass8,38.93142134,-106.9852388,3363,15.25,2018-01-22
southerngreatplains,36.6058,-97.4888,314,11.01,2018-01-22
springfieldma,42.135162,-72.585972,56,37.0,2018-01-22
spruceA0EMI,47.5049,-93.4541,413,52.239998,2018-01-22
spruceA0EMT,47.5049,-93.4541,418,52.239998,2018-01-22
spruceA0P07,47.50493,-93.45314,413,52.239998,2018-01-22
spruceA0P07SH,47.50493,-93.45314,413,52.239998,2018-01-22
spruceA0P21,47.50625,-93.45275,413,52.239998,2018-01-22
spruceA0P21SH,47.50625,-93.45275,413,52.239998,2018-01-22
srg,31.7894,-110.8276,1281,25.359999,2018-01-22
srm,31.8214,-110.8661,1116,22.57,2018-01-22
statenrice1,38.1235,-121.549,-5,50.0,2018-01-22
stjones,39.088222,-75.43725,2,44.0,2018-01-22
sweetbriar,37.57341,-79.08482,242,45.03,2018-01-22
sweetbriarclearcut,37.5753,-79.0872,242,45.03,2018-01-22
sweetbriargrass,37.5605,-79.0884,240,45.03,2018-01-22
sylvania,46.242,-89.348,540,34.91,2018-01-22
templefieldstation1,40.1667,-75.1894,105,62.0,2018-01-22
tfforest,43.1086,-70.9505,23,46.129997,2018-01-22
tidmarshplymouth,41.9157,-70.5754,9,59.39,2018-01-22
tonzi,38.43091667,-120.9658861,177,52.44,2018-01-22
townsenddemeadow,39.3917,-75.6281,11,46.69,2018-01-22
tsubiology,36.1671,-86.8295,164,50.0,2018-01-22
tsubiology2,36.1171,-86.8295,100,32.829998,2018-01-22
tuckerprairie,38.9491,-91.9952,274,52.399998,2018-01-22
twodafo,29.1658,-95.829,16,30.849998,2018-01-22
tworfaa,31.4777,-96.8882,167,34.82,2018-01-22
tworfpr,31.4802,-96.8826,162,34.82,2018-01-22
tworfta,31.4693,-96.8864,173,34.82,2018-01-22
twosfpr,30.6176,-97.2938,157,57.469997,2018-01-22
ucnrsanzaborrego,33.2401,-116.3886,214,8.84,2018-01-22
ufona,27.3836,-81.950856,25,38.73,2018-01-22
uiefmaize2,40.0628,-88.1961,224,55.149998,2018-01-22
uiefmiscanthus2,40.0628,-88.1984,221,55.149998,2018-01-22
uiefprairie2,40.0637,-88.1973,224,55.149998,2018-01-22
uiefsorghum,40.0065,-88.2032,224,48.93,2018-01-22
uiefswitchgrass2,40.0637,-88.1973,224,55.149998,2018-01-22
umichbiological,45.55984,-84.71382,230,46.18,2018-01-22
umichbiological2,45.5625,-84.6976,240,-9999.0,2018-01-22
unca,35.5951,-82.5515,650,62.92,2018-01-22
usgseros,43.7343,-96.6234,448,54.75,2018-01-22
usmpj,34.43845,-106.2543606,2126,33.18,2018-01-22
usof5,35.7297,-90.0406,70,29.689999,2018-01-22
usof6,35.7333,-90.0403,70,29.689999,2018-01-22
uwmfieldsta,43.38709,-88.0229,265,43.7,2018-01-22
vaira,38.41328056,-120.9506361,129,54.219997,2018-01-22
vallesburnedconifer,35.8884,-106.5321,3043,16.18,2018-01-22
vallesmixedconifer,35.9192,-106.6142,2752,32.91,2018-01-22
vallesponderosapine,35.864,-106.5964,2501,28.97,2018-01-22
waahila,21.3017,-157.8152,55,35.84,2018-01-22
warrenwilson,35.6069,-82.4421,2198,61.969997,2018-01-22
willamettepoplar,44.1368,-123.1823,112,33.77,2018-01-22
willowcreek,45.805986,-90.07912,521,44.969997,2018-01-22
windriver,45.8212833,-121.9520833,371,20.16,2018-01-22
windriverunderstory,45.8212833,-121.9520833,371,20.16,2018-01-22
wolfesneckfarm,43.8305,-70.0715,16,29.25,2018-01-22
worcester,42.2697,-71.8428,185,21.48,2018-01-22
alligatorriver,35.7879,-75.9038,1,44.45,2018-01-29
arbutuslake,43.98207,-74.23322,535,28.72,2018-01-29
arbutuslakeinlet,43.99336,-74.24527,527,32.14,2018-01-29
archboldavir,27.176064,-81.21958,8,35.5,2018-01-29
archboldavirx,27.166627,-81.219828,8,35.5,2018-01-29
archboldbahia,27.1656,-81.216112,8,35.5,2018-01-29
archboldpnot,27.187948,-81.200345,9,66.88,2018-01-29
archboldpnotx,27.180677,-81.20068,9,66.88,2018-01-29
arkansascornsoy,34.416,-91.6723,61,68.7,2018-01-29
arsbrooks10,41.9749,-93.6905,312,65.6,2018-01-29
arsbrooks11,41.9744,-93.6937,313,65.6,2018-01-29
arscolesnorth,42.4884,-93.5225,356,57.699997,2018-01-29
arscolessouth,42.4816,-93.5235,352,57.699997,2018-01-29
arsgacp1,31.5109,-83.6179,96,50.079998,2018-01-29
arsgacp3,31.7563,-83.7516,139,53.02,2018-01-29
arsgacp4,31.7093,-83.7287,127,70.92,2018-01-29
arsgreatbasinltar098,43.1675,-116.7132,1426,44.6,2018-01-29
arsgreatbasinltar117,43.1432,-116.7357,1625,40.829998,2018-01-29
arsgreatbasinltar177,43.0645,-116.7484,2114,49.879997,2018-01-29
arsltarmdcr,39.0587,-75.8513,17,61.37,2018-01-29
arsltarmdcrnatw,39.0575,-75.7531,16,71.99,2018-01-29
arsltarmdcrprcw,39.0667,-75.7609,17,71.979996,2018-01-29
arsltarmdcrresw,39.0549,-75.7532,16,71.99,2018-01-29
arsltarucbec1,40.7537,-78.0057,400,48.719997,2018-01-29
arsltarucbec2,40.7558,-77.9999,396,48.719997,2018-01-29
arsmnswanlake1,45.684508,-95.799703,370,71.49,2018-01-29
arsmorris1,45.6167,-96.1269,341,59.77,2018-01-29
arsmorris2,45.627,-96.127,338,59.77,2018-01-29
arsmorris3,45.6091,-96.1265,342,62.44,2018-01-29
arsope3ltar,39.0309,-76.8442,41,77.5,2018-01-29
ashburnham,42.6029,-71.926,292,54.449997,2018-01-29
asuhighlands,36.2076,-81.7032,1016,57.01,2018-01-29
austincary,29.738,-82.2188,44,65.96,2018-01-29
barrow,71.28007453,-156.6091492,5,-9999.0,2018-01-29
bartlettir,44.0646,-71.2881,268,55.379997,2018-01-29
bigtraillake,64.9194,-147.822,190,46.12,2018-01-29
bitterbrush001,48.154,-119.9456,667,53.57,2018-01-29
blackrockforest,41.3974,-74.0239,427,35.35,2018-01-29
bnzblackspruce,64.6963,-148.3235,102,59.69,2018-01-29
bnzrichfen,64.70134,-148.31195,97,34.85,2018-01-29
bnzthermokarstbog,64.6955,-148.3208,104,59.69,2018-01-29
boglakepeatland,47.5051,-93.4893,416,44.649998,2018-01-29
bostoncommon,42.355912,-71.064145,10,59.109997,2018-01-29
bostonu,42.35041,-71.10438,10,33.059998,2018-01-29
bouldinalfalfa,38.0985,-121.4993,-5,72.7,2018-01-29
bouldincorn,38.109,-121.535,-5,59.28,2018-01-29
bozeman,45.783056,-110.777778,2332,79.6,2018-01-29
brackishimpoundment,33.2015,-79.2973,1,38.64,2018-01-29
bullshoals,36.562833,-93.06663,260,49.559998,2018-01-29
burnssagebrush,43.4712,-119.6909,1398,37.629997,2018-01-29
butte,45.95304,-112.47964,1682,46.25,2018-01-29
butterice,39.5793,-121.858,33,70.34,2018-01-29
cafboydnorthltar01,46.755104,-117.126052,795,37.67,2018-01-29
cafboydsouthltar01,46.751809,-117.128502,795,37.67,2018-01-29
cafcookeastltar01,46.78152,-117.0821,794,46.03,2018-01-29
cafcookwestltar01,46.784037,-117.09083,807,46.03,2018-01-29
caryinstitute,41.7839,-73.7341,127,48.37,2018-01-29
centralredwoods1,38.632272,-123.301511,200,46.64,2018-01-29
centralredwoods2,38.632272,-123.301511,200,46.64,2018-01-29
cperagm,40.8402,-104.7672,1644,49.11,2018-01-29
cperheavy,40.8153,-104.7386,1652,33.17,2018-01-29
cpertgm,40.833,-104.76,1644,25.599998,2018-01-29
cperuvb,40.8055764,-104.7558542,1641,33.17,2018-01-29
cuny,40.8162,-73.9507,42,70.78,2018-01-29
doverdesaltmarsh,39.0888,-75.4368,0,42.93,2018-01-29
downerwoods,43.07938,-87.88076,213,54.21,2018-01-29
dukehw,35.973583,-79.100371,400,73.45,2018-01-29
ecb1,41.5348,-84.8068,275,56.289997,2018-01-29
ecb2,41.5321,-84.808,275,56.289997,2018-01-29
ecb4,41.1796,-83.0604,240,52.52,2018-01-29
elverde,18.320654,-65.8199,312,36.54,2018-01-29
flagstaff,35.17961521,-111.6049032,6983,40.44,2018-01-29
flagstaff2,35.179225,-111.604506,6983,40.44,2018-01-29
flagstaffchimneysprings,35.257296,-111.678542,2250,40.37,2018-01-29
forbes,39.232,-121.2972,360,52.059998,2018-01-29
fortpaynealpasture1,34.3824,-85.6428,405,66.14,2018-01-29
fortpaynealpasture2,34.3824,-85.6447,403,79.409996,2018-01-29
gcesapelo,31.4440444,-81.283528,0,40.329998,2018-01-29
gilberttract,38.0015,-121.6691,6,43.53,2018-01-29
glees,41.3644,-106.2394,3150,61.67,2018-01-29
glennorganicrice,39.6805,-122.0026,2,45.539997,2018-01-29
glennrice,39.5944,-122.0253,36,68.7,2018-01-29
goodnow,43.96018,-74.20994,820,63.48,2018-01-29
goodwater,39.22848,-92.11936,264,58.289997,2018-01-29
goodwaterbau,39.23115,-92.15216,274,46.829998,2018-01-29
grandteton,43.915017,-110.578036,2054,43.329998,2018-01-29
grca1pj,36.0241,-112.2211,1978,37.94,2018-01-29
greenridge1,39.6905,-78.4067,285,64.74,2018-01-29
harvard,42.5378,-72.1715,340,52.14,2018-01-29
harvardbarn,42.53532,-72.1899,350,38.219997,2018-01-29
harvardbarn2,42.53532,-72.1899,350,38.219997,2018-01-29
harvardems2,42.5378,-72.1715,340,52.14,2018-01-29
harvardfarmnorth,42.520465,-72.182242,355,38.219997,2018-01-29
harvardfarmsouth,42.522466,-72.182339,355,38.219997,2018-01-29
harvardgarden,42.5291,-72.1863,335,38.219997,2018-01-29
harvardhemlock,42.539,-72.18,355,52.14,2018-01-29
harvardhemlock2,42.539407,-72.177976,355,52.14,2018-01-29
harvardlph,42.542,-72.185,380,38.219997,2018-01-29
hawbeckereddy,40.6608,-77.848849,310,47.41,2018-01-29
hobcawclearcutlongleaf,33.3486,-79.232,4,49.579998,2018-01-29
hobcawmaturelongleaf,33.3242,-79.2439,8,51.48,2018-01-29
homesteadsprings,37.2009,-92.9937,452,70.95,2018-01-29
howland1,45.2041,-68.7403,80,63.09,2018-01-29
howland2,45.2128,-68.7418,79,63.09,2018-01-29
hubbardbrook,43.9438,-71.701,253,32.989998,2018-01-29
humnokericea,34.585192,-91.751684,61,23.97,2018-01-29
humnokericec,34.588853,-91.7516729,70,23.97,2018-01-29
huyckpreserveny,42.5266,-74.1587,478,45.149998,2018-01-29
hwmo1,20.0212,-155.7331,585,-9999.0,2018-01-29
hwmo2,19.9766,-155.8298,12,-9999.0,2018-01-29
hwmo5,20.1117,-155.8151,635,-9999.0,2018-01-29
ibp,32.589,-106.847,1325,34.969997,2018-01-29
imcrkfen,68.60583,-149.31101,900,2.03,2018-01-29
imcrkridge0,68.60681,-149.2958,951,2.03,2018-01-29
imcrkridge1,68.60681,-149.2958,951,2.03,2018-01-29
imcrktussock,68.60633,-149.30408,918,2.03,2018-01-29
jasperridge,37.402028,-122.22104,197,34.21,2018-01-29
jerbajada,32.57992,-106.633793,1402,31.349998,2018-01-29
jergrassland,32.5833,-106.8333,1331,34.969997,2018-01-29
jernort,32.619,-106.788,1328,31.859999,2018-01-29
jernovel,32.6335,-106.8334,1324,26.939999,2018-01-29
jernwern,32.6271,-106.7387,1325,46.129997,2018-01-29
jersand,32.515,-106.798,1363,35.95,2018-01-29
jershrubland,32.6502,-106.8334,1328,26.939999,2018-01-29
junipersavannah,34.4254,-105.8615,1931,42.61,2018-01-29
kamuela,20.015008,-155.661326,850,-9999.0,2018-01-29
kamuela2,20.014959,-155.661139,830,-9999.0,2018-01-29
kansas,39.0561,-95.1907,333,69.54,2018-01-29
kelloggcorn,42.437536,-85.3225472,288,43.61,2018-01-29
kempnrs,45.83992,-89.67755,539,-9999.0,2018-01-29
kendall,31.73652,-109.94185,1529,65.01,2018-01-29
konza,39.0824,-96.5603,443,61.039997,2018-01-29
laupahoehoe,19.9322,-155.2912,1145,-9999.0,2018-01-29
ldeocam,41.0039,-73.9053,121,-9999.0,2018-01-29
lostcreek,46.0827,-89.9792,480,65.979996,2018-01-29
luckyhills,31.743896,-110.052023,1366,57.809998,2018-01-29
macleish,42.4484,-72.6804,251,37.5,2018-01-29
macordway,44.8106,-93.0272,264,51.329998,2018-01-29
mandanh5,46.775423,-100.95109,593,50.68,2018-01-29
mandani2,46.7614,-100.9257,590,44.48,2018-01-29
manilacotton,35.8872,-90.1371,73,23.13,2018-01-29
marena,36.06434,-97.21271,327,30.3,2018-01-29
mead1,41.1651,-96.4766,361,41.59,2018-01-29
mead2,41.1649,-96.4701,362,41.59,2018-01-29
mead3,41.1797,-96.4397,363,49.2,2018-01-29
meadpasture,41.1447,-96.4616,356,51.26,2018-01-29
meadpasturese,41.1447,-96.4616,356,51.26,2018-01-29
meadpasturesw,41.1447,-96.4616,356,51.26,2018-01-29
missouriozarks,38.7441,-92.2,219,74.24,2018-01-29
morganmonroe,39.3231,-86.4131,275,68.72,2018-01-29
morganmonroe2,39.3231,-86.4131,275,68.72,2018-01-29
nahuku,19.415187,-155.238383,1202,-9999.0,2018-01-29
nationalelkrefuge,43.488931,-110.737824,1899,50.11,2018-01-29
ncssm,36.018446,-78.92075,175,27.779999,2018-01-29
NEON.D01.BART.DP1.00033,44.063869,-71.287375,285,28.019999,2018-01-29
NEON.D01.HARV.DP1.00033,42.536911,-72.17265,359,52.14,2018-01-29
NEON.D01.HOPB.DP1.20002,42.471786,-72.329627,203,41.79,2018-01-29
NEON.D02.BLAN.DP1.00033,39.033698,-78.041788,162,47.1,2018-01-29
NEON.D02.LEWI.DP1.20002,39.09564,-77.98322,152,55.11,2018-01-29
NEON.D02.POSE.DP1.20002,38.89332,-78.14678,293,79.65,2018-01-29
NEON.D02.SCBI.DP1.00033,38.892925,-78.139494,364,79.65,2018-01-29
NEON.D02.SERC.DP1.00033,38.89008,-76.56001,30,48.85,2018-01-29
NEON.D03.BARC.DP1.20002,29.676473,-82.009089,35,37.629997,2018-01-29
NEON.D03.DSNY.DP1.00033,28.12505,-81.43619,22,41.6,2018-01-29
NEON.D03.FLNT.DP1.20002,31.185424,-84.437403,27,22.92,2018-01-29
NEON.D03.JERC.DP1.00033,31.194839,-84.468623,58,41.25,2018-01-29
NEON.D03.OSBS.DP1.00033,29.689282,-81.993431,56,58.8,2018-01-29
NEON.D03.SUGG.DP1.20002,29.687054,-82.016171,28,37.629997,2018-01-29
NEON.D04.CUPE.DP1.20002,18.11352,-66.98676,164,54.539997,2018-01-29
NEON.D04.GUAN.DP1.00033,17.96955,-66.8687,136,54.27,2018-01-29
NEON.D04.GUIL.DP1.20002,18.1741,-66.79851,564,54.05,2018-01-29
NEON.D04.LAJA.DP1.00033,18.021261,-67.076889,22,46.98,2018-01-29
NEON.D05.CRAM.DP1.20002,46.21111,-89.47825,518,61.37,2018-01-29
NEON.D05.LIRO.DP1.20002,45.998269,-89.704767,495,39.17,2018-01-29
NEON.D05.STEI.DP1.00033,45.50894,-89.58637,476,41.76,2018-01-29
NEON.D05.TREE.DP1.00033,45.49373,-89.58572,474,52.05,2018-01-29
NEON.D05.UNDE.DP1.00033,46.23391,-89.537254,529,57.949997,2018-01-29
NEON.D06.KING.DP1.20002,39.10506,-96.60336,339,51.399998,2018-01-29
NEON.D06.KONA.DP1.00033,39.110446,-96.612935,443,51.399998,2018-01-29
NEON.D06.KONZ.DP1.00033,39.10077,-96.56309,415,56.199997,2018-01-29
NEON.D06.MCDI.DP1.20002,38.94428,-96.44197,376,42.399998,2018-01-29
NEON.D06.UKFS.DP1.00033,39.040431,-95.19215,330,69.54,2018-01-29
NEON.D07.GRSM.DP1.00033,35.68896,-83.50195,589,19.75,2018-01-29
NEON.D07.LECO.DP1.20002,35.69043,-83.50379,578,19.75,2018-01-29
NEON.D07.MLBS.DP1.00033,37.378314,-80.524847,1177,74.34,2018-01-29
NEON.D07.ORNL.DP1.00033,35.964128,-84.282588,351,32.649998,2018-01-29
NEON.D07.WALK.DP1.20002,35.95947,-84.28041,274,52.699997,2018-01-29
NEON.D08.BLWA.DP1.20002,32.541529,-87.798151,23,47.98,2018-01-29
NEON.D08.DELA.DP1.00033,32.541727,-87.803877,36,47.98,2018-01-29
NEON.D08.LENO.DP1.00033,31.85388,-88.16122,10,92.759995,2018-01-29
NEON.D08.MAYF.DP1.20002,32.959657,-87.408128,93,78.36,2018-01-29
NEON.D08.TALL.DP1.00033,32.95047,-87.393259,167,66.59,2018-01-29
NEON.D08.TOMB.DP1.20002,31.853431,-88.158872,10,92.759995,2018-01-29
NEON.D09.DCFS.DP1.00033,47.161647,-99.106556,574,50.32,2018-01-29
NEON.D09.NOGP.DP1.00033,46.76972,-100.91535,589,51.989998,2018-01-29
NEON.D09.PRLA.DP1.20002,47.15909,-99.11388,563,45.26,2018-01-29
NEON.D09.PRPO.DP1.20002,47.12999,-99.250551,587,56.09,2018-01-29
NEON.D09.WOOD.DP1.00033,47.1282,-99.241334,585,56.09,2018-01-29
NEON.D10.ARIK.DP1.20002,39.758246,-102.447103,1188,47.6,2018-01-29
NEON.D10.CPER.DP1.00033,40.81553,-104.7456,1600,33.17,2018-01-29
NEON.D10.HQTW.DP1.00033,40.016704,-105.245612,1601,38.969997,2018-01-29
NEON.D10.RMNP.DP1.00033,40.275903,-105.545955,2751,53.949997,2018-01-29
NEON.D10.STER.DP1.00033,40.461894,-103.02929,1366,55.92,2018-01-29
NEON.D11.BLUE.DP1.20002,34.444218,-96.624201,288,35.12,2018-01-29
NEON.D11.CLBJ.DP1.00033,33.40123,-97.57,279,41.6,2018-01-29
NEON.D11.OAES.DP1.00033,35.41059,-99.05879,520,41.879997,2018-01-29
NEON.D11.PRIN.DP1.20002,33.37859,-97.78226,255,32.219997,2018-01-29
NEON.D12.BLDE.DP1.20002,44.95011,-110.58715,2035,45.69,2018-01-29
NEON.D12.YELL.DP1.00033,44.95348,-110.53914,2130,32.27,2018-01-29
NEON.D13.COMO.DP1.20002,40.03496,-105.54487,3036,47.92,2018-01-29
NEON.D13.MOAB.DP1.00033,38.24833,-109.38827,1803,46.059998,2018-01-29
NEON.D13.NIWO.DP1.00033,40.05425,-105.58237,3493,59.84,2018-01-29
NEON.D13.WLOU.DP1.20002,39.891366,-105.915395,2920,19.109999,2018-01-29
NEON.D14.JORN.DP1.00033,32.59068,-106.84254,1321,34.969997,2018-01-29
NEON.D14.SRER.DP1.00033,31.91068,-110.83549,999,16.609999,2018-01-29
NEON.D14.SYCA.DP1.20002,33.749057,-111.506903,644,0.0,2018-01-29
NEON.D15.ONAQ.DP1.00033,40.177599,-112.452452,1655,38.46,2018-01-29
NEON.D15.REDB.DP1.20002,40.783934,-111.797887,1696,50.0,2018-01-29
NEON.D16.ABBY.DP1.00033,45.76243,-122.33033,390,45.98,2018-01-29
NEON.D16.MART.DP1.20002,45.791248,-121.931959,354,34.57,2018-01-29
NEON.D16.MCRA.DP1.20002,44.259598,-122.165554,880,51.94,2018-01-29
NEON.D16.WREF.DP1.00033,45.82049,-121.95191,368,26.9,2018-01-29
NEON.D17.BIGC.DP1.20002,37.059719,-119.257549,1133,33.34,2018-01-29
NEON.D17.SJER.DP1.00033,37.10878,-119.73228,398,24.359999,2018-01-29
NEON.D17.SOAP.DP1.00033,37.03337,-119.26219,1210,29.529999,2018-01-29
NEON.D17.TEAK.DP1.00033,37.00583,-119.00602,2149,38.989998,2018-01-29
NEON.D17.TECR.DP1.20002,36.955931,-119.027363,2053,30.82,2018-01-29
NEON.D18.BARR.DP1.00033,71.28241,-156.61936,7,-9999.0,2018-01-29
NEON.D18.OKSR.DP1.20002,68.669753,-149.143018,773,8.49,2018-01-29
NEON.D18.TOOK.DP1.20002,68.629562,-149.610509,715,17.359999,2018-01-29
NEON.D18.TOOL.DP1.00033,68.66109,-149.37047,827,36.489998,2018-01-29
NEON.D19.BONA.DP1.00033,65.15401,-147.50258,233,42.03,2018-01-29
NEON.D19.CARI.DP1.20002,65.15306,-147.50246,229,42.03,2018-01-29
NEON.D19.DEJU.DP1.00033,63.88112,-145.75136,504,38.399998,2018-01-29
NEON.D19.HEAL.DP1.00033,63.87569,-149.21334,409,35.71,2018-01-29
NEON.D20.PUUM.DP1.00033,19.55309,-155.31731,1683,-9999.0,2018-01-29
nevcansnk3a,39.0099,-114.3095,3063,80.74,2018-01-29
nevcanspg1a,38.9253,-114.4082,1792,48.64,2018-01-29
nevcanspg2a,38.8921,-114.3521,2203,61.969997,2018-01-29
nevcanspg3a,38.8898,-114.3314,2820,62.5,2018-01-29
nevcanspg4a,38.9061,-114.3089,3360,62.5,2018-01-29
ninemileprairie,40.86801886,-96.82208066,381,49.77,2018-01-29
nist,39.139,-77.2125,100,72.75,2018-01-29
niwot3,40.03286358,-105.5469702,3050,47.92,2018-01-29
niwot5,40.03286358,-105.5469702,2993,47.92,2018-01-29
northattleboroma,41.98369,-71.31056,60,46.309998,2018-01-29
northinletsaltmarsh,33.3455,-79.1957,1,50.0,2018-01-29
oakville,47.899334,-97.316139,268,55.329998,2018-01-29
oregonMP,44.4523,-121.5574,1253,57.44,2018-01-29
oregonYP,44.32384,-121.605993,977,50.96,2018-01-29
oregonYPbud,44.3238,-121.606,977,50.96,2018-01-29
othshardwood,44.934805,-68.6655,41,67.53,2018-01-29
othssoftwood,44.934527,-68.664888,41,67.53,2018-01-29
pace,37.9229,-78.2739,100,54.18,2018-01-29
parkschoolbuffalo,42.9637,-78.7834,205,20.56,2018-01-29
piedmontalpasture2,33.8875,-85.6935,238,23.359999,2018-01-29
portal,31.9385,-109.0823,1330,10.9,2018-01-29
