site,lat,lon,elev,values,date
alligatorriver,35.7879,-75.9038,1,37.38,2012-01-02
arbutuslake,43.98207,-74.23322,535,62.68,2012-01-02
arbutuslakeinlet,43.99336,-74.24527,527,64.45,2012-01-02
archboldavir,27.176064,-81.21958,8,39.8,2012-01-02
archboldavirx,27.166627,-81.219828,8,39.8,2012-01-02
archboldbahia,27.1656,-81.216112,8,39.8,2012-01-02
archboldpnot,27.187948,-81.200345,9,34.64,2012-01-02
archboldpnotx,27.180677,-81.20068,9,34.64,2012-01-02
arkansascornsoy,34.416,-91.6723,61,44.62,2012-01-02
arsbrooks10,41.9749,-93.6905,312,50.0,2012-01-02
arsbrooks11,41.9744,-93.6937,313,50.0,2012-01-02
arscolesnorth,42.4884,-93.5225,356,46.25,2012-01-02
arscolessouth,42.4816,-93.5235,352,46.25,2012-01-02
arsgacp1,31.5109,-83.6179,96,43.239998,2012-01-02
arsgacp3,31.7563,-83.7516,139,25.8,2012-01-02
arsgacp4,31.7093,-83.7287,127,52.6,2012-01-02
arsgreatbasinltar098,43.1675,-116.7132,1426,50.0,2012-01-02
arsgreatbasinltar117,43.1432,-116.7357,1625,50.0,2012-01-02
arsgreatbasinltar177,43.0645,-116.7484,2114,50.0,2012-01-02
arsltarmdcr,39.0587,-75.8513,17,48.7,2012-01-02
arsltarmdcrnatw,39.0575,-75.7531,16,38.55,2012-01-02
arsltarmdcrprcw,39.0667,-75.7609,17,45.879997,2012-01-02
arsltarmdcrresw,39.0549,-75.7532,16,38.55,2012-01-02
arsltarucbec1,40.7537,-78.0057,400,44.7,2012-01-02
arsltarucbec2,40.7558,-77.9999,396,44.7,2012-01-02
arsmnswanlake1,45.684508,-95.799703,370,48.21,2012-01-02
arsmorris1,45.6167,-96.1269,341,44.85,2012-01-02
arsmorris2,45.627,-96.127,338,44.85,2012-01-02
arsmorris3,45.6091,-96.1265,342,46.28,2012-01-02
arsope3ltar,39.0309,-76.8442,41,35.54,2012-01-02
ashburnham,42.6029,-71.926,292,50.0,2012-01-02
asuhighlands,36.2076,-81.7032,1016,54.89,2012-01-02
austincary,29.738,-82.2188,44,42.149998,2012-01-02
barrow,71.28007453,-156.6091492,5,-9999.0,2012-01-02
bartlettir,44.0646,-71.2881,268,43.16,2012-01-02
bigtraillake,64.9194,-147.822,190,-9999.0,2012-01-02
bitterbrush001,48.154,-119.9456,667,51.329998,2012-01-02
blackrockforest,41.3974,-74.0239,427,48.789997,2012-01-02
bnzblackspruce,64.6963,-148.3235,102,-9999.0,2012-01-02
bnzrichfen,64.70134,-148.31195,97,-9999.0,2012-01-02
bnzthermokarstbog,64.6955,-148.3208,104,-9999.0,2012-01-02
boglakepeatland,47.5051,-93.4893,416,49.469997,2012-01-02
bostoncommon,42.355912,-71.064145,10,15.95,2012-01-02
bostonu,42.35041,-71.10438,10,3.4199998,2012-01-02
bouldinalfalfa,38.0985,-121.4993,-5,35.23,2012-01-02
bouldincorn,38.109,-121.535,-5,28.06,2012-01-02
bozeman,45.783056,-110.777778,2332,41.67,2012-01-02
brackishimpoundment,33.2015,-79.2973,1,49.579998,2012-01-02
bullshoals,36.562833,-93.06663,260,43.36,2012-01-02
burnssagebrush,43.4712,-119.6909,1398,50.0,2012-01-02
butte,45.95304,-112.47964,1682,39.1,2012-01-02
butterice,39.5793,-121.858,33,50.0,2012-01-02
cafboydnorthltar01,46.755104,-117.126052,795,62.5,2012-01-02
cafboydsouthltar01,46.751809,-117.128502,795,62.5,2012-01-02
cafcookeastltar01,46.78152,-117.0821,794,58.28,2012-01-02
cafcookwestltar01,46.784037,-117.09083,807,58.28,2012-01-02
caryinstitute,41.7839,-73.7341,127,54.0,2012-01-02
centralredwoods1,38.632272,-123.301511,200,50.0,2012-01-02
centralredwoods2,38.632272,-123.301511,200,50.0,2012-01-02
cperagm,40.8402,-104.7672,1644,35.059998,2012-01-02
cperheavy,40.8153,-104.7386,1652,31.25,2012-01-02
cpertgm,40.833,-104.76,1644,31.849998,2012-01-02
cperuvb,40.8055764,-104.7558542,1641,31.25,2012-01-02
cuny,40.8162,-73.9507,42,52.899998,2012-01-02
doverdesaltmarsh,39.0888,-75.4368,0,29.06,2012-01-02
downerwoods,43.07938,-87.88076,213,40.89,2012-01-02
dukehw,35.973583,-79.100371,400,43.59,2012-01-02
ecb1,41.5348,-84.8068,275,27.74,2012-01-02
ecb2,41.5321,-84.808,275,27.74,2012-01-02
ecb4,41.1796,-83.0604,240,34.719997,2012-01-02
elverde,18.320654,-65.8199,312,54.789997,2012-01-02
flagstaff,35.17961521,-111.6049032,6983,18.789999,2012-01-02
flagstaff2,35.179225,-111.604506,6983,18.789999,2012-01-02
flagstaffchimneysprings,35.257296,-111.678542,2250,46.809998,2012-01-02
forbes,39.232,-121.2972,360,34.19,2012-01-02
fortpaynealpasture1,34.3824,-85.6428,405,56.0,2012-01-02
fortpaynealpasture2,34.3824,-85.6447,403,60.059998,2012-01-02
gcesapelo,31.4440444,-81.283528,0,39.71,2012-01-02
gilberttract,38.0015,-121.6691,6,26.97,2012-01-02
glees,41.3644,-106.2394,3150,48.39,2012-01-02
glennorganicrice,39.6805,-122.0026,2,23.83,2012-01-02
glennrice,39.5944,-122.0253,36,42.469997,2012-01-02
goodnow,43.96018,-74.20994,820,61.14,2012-01-02
goodwater,39.22848,-92.11936,264,32.6,2012-01-02
goodwaterbau,39.23115,-92.15216,274,34.59,2012-01-02
grandteton,43.915017,-110.578036,2054,37.35,2012-01-02
grca1pj,36.0241,-112.2211,1978,60.469997,2012-01-02
greenridge1,39.6905,-78.4067,285,45.71,2012-01-02
harvard,42.5378,-72.1715,340,48.77,2012-01-02
harvardbarn,42.53532,-72.1899,350,44.899998,2012-01-02
harvardbarn2,42.53532,-72.1899,350,44.899998,2012-01-02
harvardems2,42.5378,-72.1715,340,48.77,2012-01-02
harvardfarmnorth,42.520465,-72.182242,355,44.899998,2012-01-02
harvardfarmsouth,42.522466,-72.182339,355,44.899998,2012-01-02
harvardgarden,42.5291,-72.1863,335,44.899998,2012-01-02
harvardhemlock,42.539,-72.18,355,48.77,2012-01-02
harvardhemlock2,42.539407,-72.177976,355,48.77,2012-01-02
harvardlph,42.542,-72.185,380,44.899998,2012-01-02
hawbeckereddy,40.6608,-77.848849,310,47.62,2012-01-02
hobcawclearcutlongleaf,33.3486,-79.232,4,51.52,2012-01-02
hobcawmaturelongleaf,33.3242,-79.2439,8,50.1,2012-01-02
homesteadsprings,37.2009,-92.9937,452,50.0,2012-01-02
howland1,45.2041,-68.7403,80,66.52,2012-01-02
howland2,45.2128,-68.7418,79,66.52,2012-01-02
hubbardbrook,43.9438,-71.701,253,67.659996,2012-01-02
humnokericea,34.585192,-91.751684,61,50.0,2012-01-02
humnokericec,34.588853,-91.7516729,70,50.0,2012-01-02
huyckpreserveny,42.5266,-74.1587,478,46.129997,2012-01-02
hwmo1,20.0212,-155.7331,585,57.53,2012-01-02
hwmo2,19.9766,-155.8298,12,13.67,2012-01-02
hwmo5,20.1117,-155.8151,635,44.55,2012-01-02
ibp,32.589,-106.847,1325,28.68,2012-01-02
imcrkfen,68.60583,-149.31101,900,-9999.0,2012-01-02
imcrkridge0,68.60681,-149.2958,951,-9999.0,2012-01-02
imcrkridge1,68.60681,-149.2958,951,-9999.0,2012-01-02
imcrktussock,68.60633,-149.30408,918,-9999.0,2012-01-02
jasperridge,37.402028,-122.22104,197,33.93,2012-01-02
jerbajada,32.57992,-106.633793,1402,33.34,2012-01-02
jergrassland,32.5833,-106.8333,1331,28.68,2012-01-02
jernort,32.619,-106.788,1328,34.8,2012-01-02
jernovel,32.6335,-106.8334,1324,29.17,2012-01-02
jernwern,32.6271,-106.7387,1325,54.16,2012-01-02
jersand,32.515,-106.798,1363,41.93,2012-01-02
jershrubland,32.6502,-106.8334,1328,29.17,2012-01-02
junipersavannah,34.4254,-105.8615,1931,51.36,2012-01-02
kamuela,20.015008,-155.661326,850,55.98,2012-01-02
kamuela2,20.014959,-155.661139,830,55.98,2012-01-02
kansas,39.0561,-95.1907,333,40.2,2012-01-02
kelloggcorn,42.437536,-85.3225472,288,50.0,2012-01-02
kempnrs,45.83992,-89.67755,539,22.58,2012-01-02
kendall,31.73652,-109.94185,1529,26.63,2012-01-02
konza,39.0824,-96.5603,443,53.21,2012-01-02
laupahoehoe,19.9322,-155.2912,1145,56.07,2012-01-02
ldeocam,41.0039,-73.9053,121,34.66,2012-01-02
lostcreek,46.0827,-89.9792,480,35.64,2012-01-02
luckyhills,31.743896,-110.052023,1366,37.68,2012-01-02
macleish,42.4484,-72.6804,251,53.19,2012-01-02
macordway,44.8106,-93.0272,264,46.85,2012-01-02
mandanh5,46.775423,-100.95109,593,50.0,2012-01-02
mandani2,46.7614,-100.9257,590,52.05,2012-01-02
manilacotton,35.8872,-90.1371,73,40.69,2012-01-02
marena,36.06434,-97.21271,327,51.199997,2012-01-02
mead1,41.1651,-96.4766,361,44.53,2012-01-02
mead2,41.1649,-96.4701,362,44.53,2012-01-02
mead3,41.1797,-96.4397,363,44.829998,2012-01-02
meadpasture,41.1447,-96.4616,356,47.09,2012-01-02
meadpasturese,41.1447,-96.4616,356,47.09,2012-01-02
meadpasturesw,41.1447,-96.4616,356,47.09,2012-01-02
missouriozarks,38.7441,-92.2,219,39.04,2012-01-02
morganmonroe,39.3231,-86.4131,275,50.0,2012-01-02
morganmonroe2,39.3231,-86.4131,275,50.0,2012-01-02
nahuku,19.415187,-155.238383,1202,46.86,2012-01-02
nationalelkrefuge,43.488931,-110.737824,1899,32.649998,2012-01-02
ncssm,36.018446,-78.92075,175,23.5,2012-01-02
NEON.D01.BART.DP1.00033,44.063869,-71.287375,285,55.059998,2012-01-02
NEON.D01.HARV.DP1.00033,42.536911,-72.17265,359,48.77,2012-01-02
NEON.D01.HOPB.DP1.20002,42.471786,-72.329627,203,38.77,2012-01-02
NEON.D02.BLAN.DP1.00033,39.033698,-78.041788,162,53.17,2012-01-02
NEON.D02.LEWI.DP1.20002,39.09564,-77.98322,152,39.93,2012-01-02
NEON.D02.POSE.DP1.20002,38.89332,-78.14678,293,58.92,2012-01-02
NEON.D02.SCBI.DP1.00033,38.892925,-78.139494,364,58.92,2012-01-02
NEON.D02.SERC.DP1.00033,38.89008,-76.56001,30,33.64,2012-01-02
NEON.D03.BARC.DP1.20002,29.676473,-82.009089,35,33.59,2012-01-02
NEON.D03.DSNY.DP1.00033,28.12505,-81.43619,22,43.469997,2012-01-02
NEON.D03.FLNT.DP1.20002,31.185424,-84.437403,27,46.059998,2012-01-02
NEON.D03.JERC.DP1.00033,31.194839,-84.468623,58,46.059998,2012-01-02
NEON.D03.OSBS.DP1.00033,29.689282,-81.993431,56,39.42,2012-01-02
NEON.D03.SUGG.DP1.20002,29.687054,-82.016171,28,33.59,2012-01-02
NEON.D04.CUPE.DP1.20002,18.11352,-66.98676,164,76.32,2012-01-02
NEON.D04.GUAN.DP1.00033,17.96955,-66.8687,136,53.94,2012-01-02
NEON.D04.GUIL.DP1.20002,18.1741,-66.79851,564,57.18,2012-01-02
NEON.D04.LAJA.DP1.00033,18.021261,-67.076889,22,43.129997,2012-01-02
NEON.D05.CRAM.DP1.20002,46.21111,-89.47825,518,15.13,2012-01-02
NEON.D05.LIRO.DP1.20002,45.998269,-89.704767,495,26.13,2012-01-02
NEON.D05.STEI.DP1.00033,45.50894,-89.58637,476,17.88,2012-01-02
NEON.D05.TREE.DP1.00033,45.49373,-89.58572,474,18.75,2012-01-02
NEON.D05.UNDE.DP1.00033,46.23391,-89.537254,529,32.35,2012-01-02
NEON.D06.KING.DP1.20002,39.10506,-96.60336,339,42.37,2012-01-02
NEON.D06.KONA.DP1.00033,39.110446,-96.612935,443,42.37,2012-01-02
NEON.D06.KONZ.DP1.00033,39.10077,-96.56309,415,55.82,2012-01-02
NEON.D06.MCDI.DP1.20002,38.94428,-96.44197,376,52.12,2012-01-02
NEON.D06.UKFS.DP1.00033,39.040431,-95.19215,330,40.2,2012-01-02
NEON.D07.GRSM.DP1.00033,35.68896,-83.50195,589,30.76,2012-01-02
NEON.D07.LECO.DP1.20002,35.69043,-83.50379,578,30.76,2012-01-02
NEON.D07.MLBS.DP1.00033,37.378314,-80.524847,1177,39.5,2012-01-02
NEON.D07.ORNL.DP1.00033,35.964128,-84.282588,351,31.4,2012-01-02
NEON.D07.WALK.DP1.20002,35.95947,-84.28041,274,17.109999,2012-01-02
NEON.D08.BLWA.DP1.20002,32.541529,-87.798151,23,48.809998,2012-01-02
NEON.D08.DELA.DP1.00033,32.541727,-87.803877,36,48.809998,2012-01-02
NEON.D08.LENO.DP1.00033,31.85388,-88.16122,10,58.92,2012-01-02
NEON.D08.MAYF.DP1.20002,32.959657,-87.408128,93,47.44,2012-01-02
NEON.D08.TALL.DP1.00033,32.95047,-87.393259,167,57.44,2012-01-02
NEON.D08.TOMB.DP1.20002,31.853431,-88.158872,10,58.92,2012-01-02
NEON.D09.DCFS.DP1.00033,47.161647,-99.106556,574,50.0,2012-01-02
NEON.D09.NOGP.DP1.00033,46.76972,-100.91535,589,50.0,2012-01-02
NEON.D09.PRLA.DP1.20002,47.15909,-99.11388,563,50.0,2012-01-02
NEON.D09.PRPO.DP1.20002,47.12999,-99.250551,587,50.0,2012-01-02
NEON.D09.WOOD.DP1.00033,47.1282,-99.241334,585,50.0,2012-01-02
NEON.D10.ARIK.DP1.20002,39.758246,-102.447103,1188,39.079998,2012-01-02
NEON.D10.CPER.DP1.00033,40.81553,-104.7456,1600,31.25,2012-01-02
NEON.D10.HQTW.DP1.00033,40.016704,-105.245612,1601,15.08,2012-01-02
NEON.D10.RMNP.DP1.00033,40.275903,-105.545955,2751,32.42,2012-01-02
NEON.D10.STER.DP1.00033,40.461894,-103.02929,1366,40.17,2012-01-02
NEON.D11.BLUE.DP1.20002,34.444218,-96.624201,288,64.29,2012-01-02
NEON.D11.CLBJ.DP1.00033,33.40123,-97.57,279,65.53,2012-01-02
NEON.D11.OAES.DP1.00033,35.41059,-99.05879,520,33.07,2012-01-02
NEON.D11.PRIN.DP1.20002,33.37859,-97.78226,255,76.34,2012-01-02
NEON.D12.BLDE.DP1.20002,44.95011,-110.58715,2035,31.26,2012-01-02
NEON.D12.YELL.DP1.00033,44.95348,-110.53914,2130,18.14,2012-01-02
NEON.D13.COMO.DP1.20002,40.03496,-105.54487,3036,34.219997,2012-01-02
NEON.D13.MOAB.DP1.00033,38.24833,-109.38827,1803,57.02,2012-01-02
NEON.D13.NIWO.DP1.00033,40.05425,-105.58237,3493,45.48,2012-01-02
NEON.D13.WLOU.DP1.20002,39.891366,-105.915395,2920,33.53,2012-01-02
NEON.D14.JORN.DP1.00033,32.59068,-106.84254,1321,28.68,2012-01-02
NEON.D14.SRER.DP1.00033,31.91068,-110.83549,999,34.41,2012-01-02
NEON.D14.SYCA.DP1.20002,33.749057,-111.506903,644,80.56,2012-01-02
NEON.D15.ONAQ.DP1.00033,40.177599,-112.452452,1655,50.0,2012-01-02
NEON.D15.REDB.DP1.20002,40.783934,-111.797887,1696,52.57,2012-01-02
NEON.D16.ABBY.DP1.00033,45.76243,-122.33033,390,39.78,2012-01-02
NEON.D16.MART.DP1.20002,45.791248,-121.931959,354,50.0,2012-01-02
NEON.D16.MCRA.DP1.20002,44.259598,-122.165554,880,50.0,2012-01-02
NEON.D16.WREF.DP1.00033,45.82049,-121.95191,368,50.59,2012-01-02
NEON.D17.BIGC.DP1.20002,37.059719,-119.257549,1133,54.789997,2012-01-02
NEON.D17.SJER.DP1.00033,37.10878,-119.73228,398,28.89,2012-01-02
NEON.D17.SOAP.DP1.00033,37.03337,-119.26219,1210,61.359997,2012-01-02
NEON.D17.TEAK.DP1.00033,37.00583,-119.00602,2149,63.23,2012-01-02
NEON.D17.TECR.DP1.20002,36.955931,-119.027363,2053,64.18,2012-01-02
NEON.D18.BARR.DP1.00033,71.28241,-156.61936,7,-9999.0,2012-01-02
NEON.D18.OKSR.DP1.20002,68.669753,-149.143018,773,-9999.0,2012-01-02
NEON.D18.TOOK.DP1.20002,68.629562,-149.610509,715,-9999.0,2012-01-02
NEON.D18.TOOL.DP1.00033,68.66109,-149.37047,827,-9999.0,2012-01-02
NEON.D19.BONA.DP1.00033,65.15401,-147.50258,233,-9999.0,2012-01-02
NEON.D19.CARI.DP1.20002,65.15306,-147.50246,229,-9999.0,2012-01-02
NEON.D19.DEJU.DP1.00033,63.88112,-145.75136,504,34.85,2012-01-02
NEON.D19.HEAL.DP1.00033,63.87569,-149.21334,409,76.259995,2012-01-02
NEON.D20.PUUM.DP1.00033,19.55309,-155.31731,1683,55.37,2012-01-02
nevcansnk3a,39.0099,-114.3095,3063,64.49,2012-01-02
nevcanspg1a,38.9253,-114.4082,1792,53.94,2012-01-02
nevcanspg2a,38.8921,-114.3521,2203,56.19,2012-01-02
nevcanspg3a,38.8898,-114.3314,2820,69.75,2012-01-02
nevcanspg4a,38.9061,-114.3089,3360,69.75,2012-01-02
ninemileprairie,40.86801886,-96.82208066,381,45.739998,2012-01-02
nist,39.139,-77.2125,100,48.469997,2012-01-02
niwot3,40.03286358,-105.5469702,3050,34.219997,2012-01-02
niwot5,40.03286358,-105.5469702,2993,34.219997,2012-01-02
northattleboroma,41.98369,-71.31056,60,50.0,2012-01-02
northinletsaltmarsh,33.3455,-79.1957,1,51.52,2012-01-02
oakville,47.899334,-97.316139,268,50.0,2012-01-02
oregonMP,44.4523,-121.5574,1253,53.3,2012-01-02
oregonYP,44.32384,-121.605993,977,54.78,2012-01-02
oregonYPbud,44.3238,-121.606,977,54.78,2012-01-02
othshardwood,44.934805,-68.6655,41,47.84,2012-01-02
othssoftwood,44.934527,-68.664888,41,47.84,2012-01-02
pace,37.9229,-78.2739,100,55.93,2012-01-02
parkschoolbuffalo,42.9637,-78.7834,205,50.0,2012-01-02
piedmontalpasture2,33.8875,-85.6935,238,46.92,2012-01-02
portal,31.9385,-109.0823,1330,5.19,2012-01-02
proctor,44.525,-72.866,403,53.59,2012-01-02
readingma,42.5304,-71.1272,100,50.899998,2012-01-02
robinson,37.4671,-83.1576,483,52.6,2012-01-02
robinson2,37.4671,-83.1576,483,52.6,2012-01-02
rosemountcons,44.6946,-93.0578,283,44.21,2012-01-02
rosemountconv,44.691,-93.0576,283,44.21,2012-01-02
rosemountnprs,44.6781,-93.0723,274,38.969997,2012-01-02
russellsage,32.456961,-91.974322,20,55.35,2012-01-02
sagehen,39.4315,-120.2398,1934,50.0,2012-01-02
sagehen2,39.4307,-120.2407,1937,50.0,2012-01-02
sagehen3,39.4311,-120.2405,1935,50.0,2012-01-02
sanford,42.726777,-84.464482,268,48.05,2012-01-02
santacruz1,36.9741,-122.0308,11,50.559998,2012-01-02
santacruz2,36.9741,-122.0308,11,50.559998,2012-01-02
santaluciapreserve1,36.5265,-121.8682,500,49.8,2012-01-02
santaluciapreserve2,36.5265,-121.8682,500,49.8,2012-01-02
segaarboretum10,35.16209,-111.73151,2170,37.05,2012-01-02
segaarboretum2,35.16209,-111.73151,2170,37.05,2012-01-02
segaarboretum3,35.16209,-111.73151,2170,37.05,2012-01-02
segaarboretum4,35.16214,-111.73153,2170,37.05,2012-01-02
segaarboretum6,35.16209,-111.73151,2170,37.05,2012-01-02
segaarboretum9,35.16222,-111.73158,2170,37.05,2012-01-02
segaarboretumforest,35.1613,-111.7359,2173,37.05,2012-01-02
segaarboretummeadow,35.1621,-111.7316,2157,37.05,2012-01-02
segablackpoint,35.6814,-111.4754,1566,45.19,2012-01-02
segabluechute,35.5876,-111.9716,1930,26.939999,2012-01-02
segabluechute1,35.58759,-111.97115,1931,26.939999,2012-01-02
segabluechute2,35.58759,-111.97115,1931,26.939999,2012-01-02
segabluechute4,35.58759,-111.9716,1931,26.939999,2012-01-02
segabluechute6,35.58759,-111.97115,1931,26.939999,2012-01-02
segabluechute7,35.58759,-111.97115,1931,26.939999,2012-01-02
segabluechute8,35.58759,-111.97115,1931,26.939999,2012-01-02
segabradshaw,34.9109,-111.9285,1402,83.71,2012-01-02
segahartprairie,35.3536,-111.7324,2585,59.149998,2012-01-02
segalcr,35.7231,-111.321,1275,50.899998,2012-01-02
segalcr2,35.7069,-111.36,1495,47.42,2012-01-02
segalittlemountain,36.5865,-112.3634,2276,43.239998,2012-01-02
segasoapcreek,36.751,-111.716,1233,12.5,2012-01-02
segawhitepockets,36.6081,-112.4082,2057,48.89,2012-01-02
sevilletagrass,34.360444,-106.700186,1600,39.11,2012-01-02
sevilletanewgrass,34.358,-106.6799,1603,39.11,2012-01-02
sevilletashrub,34.334956,-106.744469,1603,24.48,2012-01-02
sevMRME10L,34.3438,-106.7269,1604,31.699999,2012-01-02
sevMRME11C,34.3438,-106.7268,1604,31.699999,2012-01-02
sevMRME1S,34.3442,-106.7272,1604,24.66,2012-01-02
sevpjrm12,34.38615,-106.52621,1905,37.23,2012-01-02
sevpjrm13,34.38631,-106.52791,1914,37.23,2012-01-02
shalehillsczo,40.6658,-77.9041,310,36.45,2012-01-02
shenandoah,38.6167,-78.35,1037,54.129997,2012-01-02
silverton,44.9986,-122.6948,347,61.26,2012-01-02
siwetland,38.0369,-121.7546,-5,-9999.0,2012-01-02
slatefloodplain,38.9094,-107.0282,2725,27.14,2012-01-02
snodgrass1,38.92619636,-106.9714376,3023,14.36,2012-01-02
snodgrass2,38.92619636,-106.9714376,3023,14.36,2012-01-02
snodgrass3,38.92839978,-106.9781196,3141,14.36,2012-01-02
snodgrass4,38.92839978,-106.9781196,3141,14.36,2012-01-02
snodgrass5,38.92744789,-106.9785209,3152,14.36,2012-01-02
snodgrass6,38.92744789,-106.9785209,3152,14.36,2012-01-02
snodgrass7,38.93142134,-106.9852388,3363,14.36,2012-01-02
snodgrass8,38.93142134,-106.9852388,3363,14.36,2012-01-02
southerngreatplains,36.6058,-97.4888,314,30.33,2012-01-02
springfieldma,42.135162,-72.585972,56,42.719997,2012-01-02
spruceA0EMI,47.5049,-93.4541,413,61.52,2012-01-02
spruceA0EMT,47.5049,-93.4541,418,61.52,2012-01-02
spruceA0P07,47.50493,-93.45314,413,61.52,2012-01-02
spruceA0P07SH,47.50493,-93.45314,413,61.52,2012-01-02
spruceA0P21,47.50625,-93.45275,413,61.52,2012-01-02
spruceA0P21SH,47.50625,-93.45275,413,61.52,2012-01-02
srg,31.7894,-110.8276,1281,10.45,2012-01-02
srm,31.8214,-110.8661,1116,24.859999,2012-01-02
statenrice1,38.1235,-121.549,-5,17.02,2012-01-02
stjones,39.088222,-75.43725,2,29.06,2012-01-02
sweetbriar,37.57341,-79.08482,242,34.21,2012-01-02
sweetbriarclearcut,37.5753,-79.0872,242,34.21,2012-01-02
sweetbriargrass,37.5605,-79.0884,240,34.21,2012-01-02
sylvania,46.242,-89.348,540,36.7,2012-01-02
templefieldstation1,40.1667,-75.1894,105,57.289997,2012-01-02
tfforest,43.1086,-70.9505,23,58.309998,2012-01-02
tidmarshplymouth,41.9157,-70.5754,9,45.45,2012-01-02
tonzi,38.43091667,-120.9658861,177,33.329998,2012-01-02
townsenddemeadow,39.3917,-75.6281,11,34.2,2012-01-02
tsubiology,36.1671,-86.8295,164,16.039999,2012-01-02
tsubiology2,36.1171,-86.8295,100,22.369999,2012-01-02
tuckerprairie,38.9491,-91.9952,274,40.879997,2012-01-02
twodafo,29.1658,-95.829,16,64.229996,2012-01-02
tworfaa,31.4777,-96.8882,167,26.3,2012-01-02
tworfpr,31.4802,-96.8826,162,26.3,2012-01-02
tworfta,31.4693,-96.8864,173,26.3,2012-01-02
twosfpr,30.6176,-97.2938,157,53.14,2012-01-02
ucnrsanzaborrego,33.2401,-116.3886,214,20.609999,2012-01-02
ufona,27.3836,-81.950856,25,42.829998,2012-01-02
uiefmaize2,40.0628,-88.1961,224,49.27,2012-01-02
uiefmiscanthus2,40.0628,-88.1984,221,49.27,2012-01-02
uiefprairie2,40.0637,-88.1973,224,49.27,2012-01-02
uiefsorghum,40.0065,-88.2032,224,49.489998,2012-01-02
uiefswitchgrass2,40.0637,-88.1973,224,49.27,2012-01-02
umichbiological,45.55984,-84.71382,230,32.48,2012-01-02
umichbiological2,45.5625,-84.6976,240,47.92,2012-01-02
unca,35.5951,-82.5515,650,44.469997,2012-01-02
usgseros,43.7343,-96.6234,448,45.27,2012-01-02
usmpj,34.43845,-106.2543606,2126,38.53,2012-01-02
usof5,35.7297,-90.0406,70,20.85,2012-01-02
usof6,35.7333,-90.0403,70,20.85,2012-01-02
uwmfieldsta,43.38709,-88.0229,265,50.0,2012-01-02
vaira,38.41328056,-120.9506361,129,34.91,2012-01-02
vallesburnedconifer,35.8884,-106.5321,3043,23.68,2012-01-02
vallesmixedconifer,35.9192,-106.6142,2752,28.75,2012-01-02
vallesponderosapine,35.864,-106.5964,2501,15.04,2012-01-02
waahila,21.3017,-157.8152,55,45.89,2012-01-02
warrenwilson,35.6069,-82.4421,2198,68.04,2012-01-02
willamettepoplar,44.1368,-123.1823,112,52.59,2012-01-02
willowcreek,45.805986,-90.07912,521,26.33,2012-01-02
windriver,45.8212833,-121.9520833,371,50.59,2012-01-02
windriverunderstory,45.8212833,-121.9520833,371,50.59,2012-01-02
wolfesneckfarm,43.8305,-70.0715,16,45.96,2012-01-02
worcester,42.2697,-71.8428,185,41.59,2012-01-02
alligatorriver,35.7879,-75.9038,1,44.37,2012-01-09
arbutuslake,43.98207,-74.23322,535,55.149998,2012-01-09
arbutuslakeinlet,43.99336,-74.24527,527,53.25,2012-01-09
archboldavir,27.176064,-81.21958,8,47.149998,2012-01-09
archboldavirx,27.166627,-81.219828,8,47.149998,2012-01-09
archboldbahia,27.1656,-81.216112,8,47.149998,2012-01-09
archboldpnot,27.187948,-81.200345,9,32.239998,2012-01-09
archboldpnotx,27.180677,-81.20068,9,32.239998,2012-01-09
arkansascornsoy,34.416,-91.6723,61,44.55,2012-01-09
arsbrooks10,41.9749,-93.6905,312,50.0,2012-01-09
arsbrooks11,41.9744,-93.6937,313,50.0,2012-01-09
arscolesnorth,42.4884,-93.5225,356,55.309998,2012-01-09
arscolessouth,42.4816,-93.5235,352,55.309998,2012-01-09
arsgacp1,31.5109,-83.6179,96,38.73,2012-01-09
arsgacp3,31.7563,-83.7516,139,26.13,2012-01-09
arsgacp4,31.7093,-83.7287,127,52.34,2012-01-09
arsgreatbasinltar098,43.1675,-116.7132,1426,50.0,2012-01-09
arsgreatbasinltar117,43.1432,-116.7357,1625,50.0,2012-01-09
arsgreatbasinltar177,43.0645,-116.7484,2114,50.0,2012-01-09
arsltarmdcr,39.0587,-75.8513,17,45.92,2012-01-09
arsltarmdcrnatw,39.0575,-75.7531,16,36.79,2012-01-09
arsltarmdcrprcw,39.0667,-75.7609,17,40.12,2012-01-09
arsltarmdcrresw,39.0549,-75.7532,16,36.79,2012-01-09
arsltarucbec1,40.7537,-78.0057,400,45.75,2012-01-09
arsltarucbec2,40.7558,-77.9999,396,45.75,2012-01-09
arsmnswanlake1,45.684508,-95.799703,370,46.36,2012-01-09
arsmorris1,45.6167,-96.1269,341,46.68,2012-01-09
arsmorris2,45.627,-96.127,338,46.68,2012-01-09
arsmorris3,45.6091,-96.1265,342,45.789997,2012-01-09
arsope3ltar,39.0309,-76.8442,41,35.34,2012-01-09
ashburnham,42.6029,-71.926,292,50.0,2012-01-09
asuhighlands,36.2076,-81.7032,1016,54.559998,2012-01-09
austincary,29.738,-82.2188,44,47.62,2012-01-09
barrow,71.28007453,-156.6091492,5,-9999.0,2012-01-09
bartlettir,44.0646,-71.2881,268,44.64,2012-01-09
bigtraillake,64.9194,-147.822,190,69.95,2012-01-09
bitterbrush001,48.154,-119.9456,667,54.86,2012-01-09
blackrockforest,41.3974,-74.0239,427,47.129997,2012-01-09
bnzblackspruce,64.6963,-148.3235,102,73.08,2012-01-09
bnzrichfen,64.70134,-148.31195,97,73.64,2012-01-09
bnzthermokarstbog,64.6955,-148.3208,104,73.08,2012-01-09
boglakepeatland,47.5051,-93.4893,416,48.71,2012-01-09
bostoncommon,42.355912,-71.064145,10,11.87,2012-01-09
bostonu,42.35041,-71.10438,10,4.69,2012-01-09
bouldinalfalfa,38.0985,-121.4993,-5,35.09,2012-01-09
bouldincorn,38.109,-121.535,-5,30.3,2012-01-09
bozeman,45.783056,-110.777778,2332,48.48,2012-01-09
brackishimpoundment,33.2015,-79.2973,1,51.629997,2012-01-09
bullshoals,36.562833,-93.06663,260,44.29,2012-01-09
burnssagebrush,43.4712,-119.6909,1398,50.0,2012-01-09
butte,45.95304,-112.47964,1682,34.63,2012-01-09
butterice,39.5793,-121.858,33,50.329998,2012-01-09
cafboydnorthltar01,46.755104,-117.126052,795,60.239998,2012-01-09
cafboydsouthltar01,46.751809,-117.128502,795,60.239998,2012-01-09
cafcookeastltar01,46.78152,-117.0821,794,52.8,2012-01-09
cafcookwestltar01,46.784037,-117.09083,807,52.8,2012-01-09
caryinstitute,41.7839,-73.7341,127,58.329998,2012-01-09
centralredwoods1,38.632272,-123.301511,200,50.0,2012-01-09
centralredwoods2,38.632272,-123.301511,200,50.0,2012-01-09
cperagm,40.8402,-104.7672,1644,34.12,2012-01-09
cperheavy,40.8153,-104.7386,1652,30.55,2012-01-09
cpertgm,40.833,-104.76,1644,31.099998,2012-01-09
cperuvb,40.8055764,-104.7558542,1641,30.55,2012-01-09
cuny,40.8162,-73.9507,42,54.05,2012-01-09
doverdesaltmarsh,39.0888,-75.4368,0,33.91,2012-01-09
downerwoods,43.07938,-87.88076,213,44.27,2012-01-09
dukehw,35.973583,-79.100371,400,32.25,2012-01-09
ecb1,41.5348,-84.8068,275,27.74,2012-01-09
ecb2,41.5321,-84.808,275,27.74,2012-01-09
ecb4,41.1796,-83.0604,240,33.93,2012-01-09
elverde,18.320654,-65.8199,312,59.75,2012-01-09
flagstaff,35.17961521,-111.6049032,6983,32.26,2012-01-09
flagstaff2,35.179225,-111.604506,6983,32.26,2012-01-09
flagstaffchimneysprings,35.257296,-111.678542,2250,41.93,2012-01-09
forbes,39.232,-121.2972,360,33.329998,2012-01-09
fortpaynealpasture1,34.3824,-85.6428,405,43.44,2012-01-09
fortpaynealpasture2,34.3824,-85.6447,403,51.28,2012-01-09
gcesapelo,31.4440444,-81.283528,0,39.05,2012-01-09
gilberttract,38.0015,-121.6691,6,27.68,2012-01-09
glees,41.3644,-106.2394,3150,46.02,2012-01-09
glennorganicrice,39.6805,-122.0026,2,20.619999,2012-01-09
glennrice,39.5944,-122.0253,36,42.879997,2012-01-09
goodnow,43.96018,-74.20994,820,52.46,2012-01-09
goodwater,39.22848,-92.11936,264,34.829998,2012-01-09
goodwaterbau,39.23115,-92.15216,274,36.219997,2012-01-09
grandteton,43.915017,-110.578036,2054,34.52,2012-01-09
grca1pj,36.0241,-112.2211,1978,60.07,2012-01-09
greenridge1,39.6905,-78.4067,285,41.059998,2012-01-09
harvard,42.5378,-72.1715,340,53.0,2012-01-09
harvardbarn,42.53532,-72.1899,350,48.48,2012-01-09
harvardbarn2,42.53532,-72.1899,350,48.48,2012-01-09
harvardems2,42.5378,-72.1715,340,53.0,2012-01-09
harvardfarmnorth,42.520465,-72.182242,355,48.48,2012-01-09
harvardfarmsouth,42.522466,-72.182339,355,48.48,2012-01-09
harvardgarden,42.5291,-72.1863,335,48.48,2012-01-09
harvardhemlock,42.539,-72.18,355,53.0,2012-01-09
harvardhemlock2,42.539407,-72.177976,355,53.0,2012-01-09
harvardlph,42.542,-72.185,380,48.48,2012-01-09
hawbeckereddy,40.6608,-77.848849,310,49.12,2012-01-09
hobcawclearcutlongleaf,33.3486,-79.232,4,49.96,2012-01-09
hobcawmaturelongleaf,33.3242,-79.2439,8,49.23,2012-01-09
homesteadsprings,37.2009,-92.9937,452,45.42,2012-01-09
howland1,45.2041,-68.7403,80,66.35,2012-01-09
howland2,45.2128,-68.7418,79,66.35,2012-01-09
hubbardbrook,43.9438,-71.701,253,72.729996,2012-01-09
humnokericea,34.585192,-91.751684,61,50.0,2012-01-09
humnokericec,34.588853,-91.7516729,70,50.0,2012-01-09
huyckpreserveny,42.5266,-74.1587,478,47.059998,2012-01-09
hwmo1,20.0212,-155.7331,585,52.649998,2012-01-09
hwmo2,19.9766,-155.8298,12,7.24,2012-01-09
hwmo5,20.1117,-155.8151,635,53.35,2012-01-09
ibp,32.589,-106.847,1325,34.399998,2012-01-09
imcrkfen,68.60583,-149.31101,900,-9999.0,2012-01-09
imcrkridge0,68.60681,-149.2958,951,-9999.0,2012-01-09
imcrkridge1,68.60681,-149.2958,951,-9999.0,2012-01-09
imcrktussock,68.60633,-149.30408,918,-9999.0,2012-01-09
jasperridge,37.402028,-122.22104,197,34.719997,2012-01-09
jerbajada,32.57992,-106.633793,1402,29.82,2012-01-09
jergrassland,32.5833,-106.8333,1331,34.399998,2012-01-09
jernort,32.619,-106.788,1328,33.45,2012-01-09
jernovel,32.6335,-106.8334,1324,27.96,2012-01-09
jernwern,32.6271,-106.7387,1325,47.53,2012-01-09
jersand,32.515,-106.798,1363,37.14,2012-01-09
jershrubland,32.6502,-106.8334,1328,27.96,2012-01-09
junipersavannah,34.4254,-105.8615,1931,47.57,2012-01-09
kamuela,20.015008,-155.661326,850,54.55,2012-01-09
kamuela2,20.014959,-155.661139,830,54.55,2012-01-09
kansas,39.0561,-95.1907,333,35.62,2012-01-09
kelloggcorn,42.437536,-85.3225472,288,50.0,2012-01-09
kempnrs,45.83992,-89.67755,539,19.77,2012-01-09
kendall,31.73652,-109.94185,1529,32.02,2012-01-09
konza,39.0824,-96.5603,443,52.94,2012-01-09
laupahoehoe,19.9322,-155.2912,1145,56.73,2012-01-09
ldeocam,41.0039,-73.9053,121,34.59,2012-01-09
lostcreek,46.0827,-89.9792,480,44.44,2012-01-09
luckyhills,31.743896,-110.052023,1366,39.36,2012-01-09
macleish,42.4484,-72.6804,251,49.219997,2012-01-09
macordway,44.8106,-93.0272,264,50.0,2012-01-09
mandanh5,46.775423,-100.95109,593,50.0,2012-01-09
mandani2,46.7614,-100.9257,590,50.0,2012-01-09
manilacotton,35.8872,-90.1371,73,30.429998,2012-01-09
marena,36.06434,-97.21271,327,41.739998,2012-01-09
mead1,41.1651,-96.4766,361,48.16,2012-01-09
mead2,41.1649,-96.4701,362,48.16,2012-01-09
mead3,41.1797,-96.4397,363,49.11,2012-01-09
meadpasture,41.1447,-96.4616,356,54.329998,2012-01-09
meadpasturese,41.1447,-96.4616,356,54.329998,2012-01-09
meadpasturesw,41.1447,-96.4616,356,54.329998,2012-01-09
missouriozarks,38.7441,-92.2,219,40.489998,2012-01-09
morganmonroe,39.3231,-86.4131,275,50.0,2012-01-09
morganmonroe2,39.3231,-86.4131,275,50.0,2012-01-09
nahuku,19.415187,-155.238383,1202,52.48,2012-01-09
nationalelkrefuge,43.488931,-110.737824,1899,27.849998,2012-01-09
ncssm,36.018446,-78.92075,175,14.9,2012-01-09
NEON.D01.BART.DP1.00033,44.063869,-71.287375,285,51.01,2012-01-09
NEON.D01.HARV.DP1.00033,42.536911,-72.17265,359,53.0,2012-01-09
NEON.D01.HOPB.DP1.20002,42.471786,-72.329627,203,42.27,2012-01-09
NEON.D02.BLAN.DP1.00033,39.033698,-78.041788,162,52.44,2012-01-09
NEON.D02.LEWI.DP1.20002,39.09564,-77.98322,152,40.579998,2012-01-09
NEON.D02.POSE.DP1.20002,38.89332,-78.14678,293,58.18,2012-01-09
NEON.D02.SCBI.DP1.00033,38.892925,-78.139494,364,58.18,2012-01-09
NEON.D02.SERC.DP1.00033,38.89008,-76.56001,30,31.789999,2012-01-09
NEON.D03.BARC.DP1.20002,29.676473,-82.009089,35,31.96,2012-01-09
NEON.D03.DSNY.DP1.00033,28.12505,-81.43619,22,38.82,2012-01-09
NEON.D03.FLNT.DP1.20002,31.185424,-84.437403,27,46.51,2012-01-09
NEON.D03.JERC.DP1.00033,31.194839,-84.468623,58,46.51,2012-01-09
NEON.D03.OSBS.DP1.00033,29.689282,-81.993431,56,41.0,2012-01-09
NEON.D03.SUGG.DP1.20002,29.687054,-82.016171,28,31.96,2012-01-09
NEON.D04.CUPE.DP1.20002,18.11352,-66.98676,164,65.15,2012-01-09
NEON.D04.GUAN.DP1.00033,17.96955,-66.8687,136,54.219997,2012-01-09
NEON.D04.GUIL.DP1.20002,18.1741,-66.79851,564,64.42,2012-01-09
NEON.D04.LAJA.DP1.00033,18.021261,-67.076889,22,42.39,2012-01-09
NEON.D05.CRAM.DP1.20002,46.21111,-89.47825,518,14.929999,2012-01-09
NEON.D05.LIRO.DP1.20002,45.998269,-89.704767,495,31.609999,2012-01-09
NEON.D05.STEI.DP1.00033,45.50894,-89.58637,476,20.98,2012-01-09
NEON.D05.TREE.DP1.00033,45.49373,-89.58572,474,26.06,2012-01-09
NEON.D05.UNDE.DP1.00033,46.23391,-89.537254,529,35.16,2012-01-09
NEON.D06.KING.DP1.20002,39.10506,-96.60336,339,41.219997,2012-01-09
NEON.D06.KONA.DP1.00033,39.110446,-96.612935,443,41.219997,2012-01-09
NEON.D06.KONZ.DP1.00033,39.10077,-96.56309,415,51.05,2012-01-09
NEON.D06.MCDI.DP1.20002,38.94428,-96.44197,376,48.82,2012-01-09
NEON.D06.UKFS.DP1.00033,39.040431,-95.19215,330,35.62,2012-01-09
NEON.D07.GRSM.DP1.00033,35.68896,-83.50195,589,24.0,2012-01-09
NEON.D07.LECO.DP1.20002,35.69043,-83.50379,578,24.0,2012-01-09
NEON.D07.MLBS.DP1.00033,37.378314,-80.524847,1177,46.02,2012-01-09
NEON.D07.ORNL.DP1.00033,35.964128,-84.282588,351,23.08,2012-01-09
NEON.D07.WALK.DP1.20002,35.95947,-84.28041,274,21.949999,2012-01-09
NEON.D08.BLWA.DP1.20002,32.541529,-87.798151,23,47.37,2012-01-09
NEON.D08.DELA.DP1.00033,32.541727,-87.803877,36,47.37,2012-01-09
NEON.D08.LENO.DP1.00033,31.85388,-88.16122,10,53.67,2012-01-09
NEON.D08.MAYF.DP1.20002,32.959657,-87.408128,93,48.76,2012-01-09
NEON.D08.TALL.DP1.00033,32.95047,-87.393259,167,65.15,2012-01-09
NEON.D08.TOMB.DP1.20002,31.853431,-88.158872,10,53.67,2012-01-09
NEON.D09.DCFS.DP1.00033,47.161647,-99.106556,574,50.0,2012-01-09
NEON.D09.NOGP.DP1.00033,46.76972,-100.91535,589,50.0,2012-01-09
NEON.D09.PRLA.DP1.20002,47.15909,-99.11388,563,50.0,2012-01-09
NEON.D09.PRPO.DP1.20002,47.12999,-99.250551,587,50.0,2012-01-09
NEON.D09.WOOD.DP1.00033,47.1282,-99.241334,585,50.0,2012-01-09
NEON.D10.ARIK.DP1.20002,39.758246,-102.447103,1188,43.11,2012-01-09
NEON.D10.CPER.DP1.00033,40.81553,-104.7456,1600,30.55,2012-01-09
NEON.D10.HQTW.DP1.00033,40.016704,-105.245612,1601,16.57,2012-01-09
NEON.D10.RMNP.DP1.00033,40.275903,-105.545955,2751,37.52,2012-01-09
NEON.D10.STER.DP1.00033,40.461894,-103.02929,1366,41.42,2012-01-09
NEON.D11.BLUE.DP1.20002,34.444218,-96.624201,288,67.42,2012-01-09
NEON.D11.CLBJ.DP1.00033,33.40123,-97.57,279,65.26,2012-01-09
NEON.D11.OAES.DP1.00033,35.41059,-99.05879,520,42.57,2012-01-09
NEON.D11.PRIN.DP1.20002,33.37859,-97.78226,255,79.59,2012-01-09
NEON.D12.BLDE.DP1.20002,44.95011,-110.58715,2035,30.199999,2012-01-09
NEON.D12.YELL.DP1.00033,44.95348,-110.53914,2130,18.949999,2012-01-09
NEON.D13.COMO.DP1.20002,40.03496,-105.54487,3036,40.77,2012-01-09
NEON.D13.MOAB.DP1.00033,38.24833,-109.38827,1803,48.36,2012-01-09
NEON.D13.NIWO.DP1.00033,40.05425,-105.58237,3493,54.23,2012-01-09
NEON.D13.WLOU.DP1.20002,39.891366,-105.915395,2920,36.02,2012-01-09
NEON.D14.JORN.DP1.00033,32.59068,-106.84254,1321,34.399998,2012-01-09
NEON.D14.SRER.DP1.00033,31.91068,-110.83549,999,30.97,2012-01-09
NEON.D14.SYCA.DP1.20002,33.749057,-111.506903,644,76.799995,2012-01-09
NEON.D15.ONAQ.DP1.00033,40.177599,-112.452452,1655,50.0,2012-01-09
NEON.D15.REDB.DP1.20002,40.783934,-111.797887,1696,53.59,2012-01-09
NEON.D16.ABBY.DP1.00033,45.76243,-122.33033,390,45.85,2012-01-09
NEON.D16.MART.DP1.20002,45.791248,-121.931959,354,46.69,2012-01-09
NEON.D16.MCRA.DP1.20002,44.259598,-122.165554,880,51.469997,2012-01-09
NEON.D16.WREF.DP1.00033,45.82049,-121.95191,368,49.85,2012-01-09
NEON.D17.BIGC.DP1.20002,37.059719,-119.257549,1133,50.0,2012-01-09
NEON.D17.SJER.DP1.00033,37.10878,-119.73228,398,24.38,2012-01-09
NEON.D17.SOAP.DP1.00033,37.03337,-119.26219,1210,57.219997,2012-01-09
NEON.D17.TEAK.DP1.00033,37.00583,-119.00602,2149,66.119995,2012-01-09
NEON.D17.TECR.DP1.20002,36.955931,-119.027363,2053,59.09,2012-01-09
NEON.D18.BARR.DP1.00033,71.28241,-156.61936,7,-9999.0,2012-01-09
NEON.D18.OKSR.DP1.20002,68.669753,-149.143018,773,-9999.0,2012-01-09
NEON.D18.TOOK.DP1.20002,68.629562,-149.610509,715,-9999.0,2012-01-09
NEON.D18.TOOL.DP1.00033,68.66109,-149.37047,827,-9999.0,2012-01-09
NEON.D19.BONA.DP1.00033,65.15401,-147.50258,233,78.31,2012-01-09
NEON.D19.CARI.DP1.20002,65.15306,-147.50246,229,78.31,2012-01-09
NEON.D19.DEJU.DP1.00033,63.88112,-145.75136,504,62.079998,2012-01-09
NEON.D19.HEAL.DP1.00033,63.87569,-149.21334,409,60.059998,2012-01-09
NEON.D20.PUUM.DP1.00033,19.55309,-155.31731,1683,54.46,2012-01-09
nevcansnk3a,39.0099,-114.3095,3063,60.57,2012-01-09
nevcanspg1a,38.9253,-114.4082,1792,56.379997,2012-01-09
nevcanspg2a,38.8921,-114.3521,2203,71.01,2012-01-09
nevcanspg3a,38.8898,-114.3314,2820,70.68,2012-01-09
nevcanspg4a,38.9061,-114.3089,3360,70.68,2012-01-09
ninemileprairie,40.86801886,-96.82208066,381,49.489998,2012-01-09
nist,39.139,-77.2125,100,45.52,2012-01-09
niwot3,40.03286358,-105.5469702,3050,40.77,2012-01-09
niwot5,40.03286358,-105.5469702,2993,40.77,2012-01-09
northattleboroma,41.98369,-71.31056,60,50.0,2012-01-09
northinletsaltmarsh,33.3455,-79.1957,1,49.96,2012-01-09
oakville,47.899334,-97.316139,268,50.0,2012-01-09
oregonMP,44.4523,-121.5574,1253,50.0,2012-01-09
oregonYP,44.32384,-121.605993,977,51.39,2012-01-09
oregonYPbud,44.3238,-121.606,977,51.39,2012-01-09
othshardwood,44.934805,-68.6655,41,50.0,2012-01-09
othssoftwood,44.934527,-68.664888,41,50.0,2012-01-09
pace,37.9229,-78.2739,100,51.69,2012-01-09
parkschoolbuffalo,42.9637,-78.7834,205,50.0,2012-01-09
piedmontalpasture2,33.8875,-85.6935,238,49.57,2012-01-09
portal,31.9385,-109.0823,1330,9.94,2012-01-09
proctor,44.525,-72.866,403,49.94,2012-01-09
readingma,42.5304,-71.1272,100,50.0,2012-01-09
robinson,37.4671,-83.1576,483,46.7,2012-01-09
robinson2,37.4671,-83.1576,483,46.7,2012-01-09
rosemountcons,44.6946,-93.0578,283,50.0,2012-01-09
rosemountconv,44.691,-93.0576,283,50.0,2012-01-09
rosemountnprs,44.6781,-93.0723,274,50.0,2012-01-09
russellsage,32.456961,-91.974322,20,55.039997,2012-01-09
sagehen,39.4315,-120.2398,1934,50.0,2012-01-09
sagehen2,39.4307,-120.2407,1937,50.0,2012-01-09
sagehen3,39.4311,-120.2405,1935,50.0,2012-01-09
sanford,42.726777,-84.464482,268,50.0,2012-01-09
santacruz1,36.9741,-122.0308,11,50.0,2012-01-09
santacruz2,36.9741,-122.0308,11,50.0,2012-01-09
santaluciapreserve1,36.5265,-121.8682,500,49.789997,2012-01-09
santaluciapreserve2,36.5265,-121.8682,500,49.789997,2012-01-09
segaarboretum10,35.16209,-111.73151,2170,34.55,2012-01-09
segaarboretum2,35.16209,-111.73151,2170,34.55,2012-01-09
segaarboretum3,35.16209,-111.73151,2170,34.55,2012-01-09
segaarboretum4,35.16214,-111.73153,2170,34.55,2012-01-09
segaarboretum6,35.16209,-111.73151,2170,34.55,2012-01-09
segaarboretum9,35.16222,-111.73158,2170,34.55,2012-01-09
segaarboretumforest,35.1613,-111.7359,2173,34.55,2012-01-09
segaarboretummeadow,35.1621,-111.7316,2157,34.55,2012-01-09
segablackpoint,35.6814,-111.4754,1566,43.399998,2012-01-09
segabluechute,35.5876,-111.9716,1930,23.109999,2012-01-09
segabluechute1,35.58759,-111.97115,1931,23.109999,2012-01-09
segabluechute2,35.58759,-111.97115,1931,23.109999,2012-01-09
segabluechute4,35.58759,-111.9716,1931,23.109999,2012-01-09
segabluechute6,35.58759,-111.97115,1931,23.109999,2012-01-09
segabluechute7,35.58759,-111.97115,1931,23.109999,2012-01-09
segabluechute8,35.58759,-111.97115,1931,23.109999,2012-01-09
segabradshaw,34.9109,-111.9285,1402,77.409996,2012-01-09
segahartprairie,35.3536,-111.7324,2585,58.629997,2012-01-09
segalcr,35.7231,-111.321,1275,49.489998,2012-01-09
segalcr2,35.7069,-111.36,1495,45.11,2012-01-09
segalittlemountain,36.5865,-112.3634,2276,42.0,2012-01-09
segasoapcreek,36.751,-111.716,1233,14.04,2012-01-09
segawhitepockets,36.6081,-112.4082,2057,41.6,2012-01-09
sevilletagrass,34.360444,-106.700186,1600,27.939999,2012-01-09
sevilletanewgrass,34.358,-106.6799,1603,27.939999,2012-01-09
sevilletashrub,34.334956,-106.744469,1603,16.279999,2012-01-09
sevMRME10L,34.3438,-106.7269,1604,22.289999,2012-01-09
sevMRME11C,34.3438,-106.7268,1604,22.289999,2012-01-09
sevMRME1S,34.3442,-106.7272,1604,12.79,2012-01-09
sevpjrm12,34.38615,-106.52621,1905,45.51,2012-01-09
sevpjrm13,34.38631,-106.52791,1914,45.51,2012-01-09
shalehillsczo,40.6658,-77.9041,310,36.899998,2012-01-09
shenandoah,38.6167,-78.35,1037,48.27,2012-01-09
silverton,44.9986,-122.6948,347,50.69,2012-01-09
siwetland,38.0369,-121.7546,-5,-9999.0,2012-01-09
slatefloodplain,38.9094,-107.0282,2725,30.449999,2012-01-09
snodgrass1,38.92619636,-106.9714376,3023,13.07,2012-01-09
snodgrass2,38.92619636,-106.9714376,3023,13.07,2012-01-09
snodgrass3,38.92839978,-106.9781196,3141,13.07,2012-01-09
snodgrass4,38.92839978,-106.9781196,3141,13.07,2012-01-09
snodgrass5,38.92744789,-106.9785209,3152,13.07,2012-01-09
snodgrass6,38.92744789,-106.9785209,3152,13.07,2012-01-09
snodgrass7,38.93142134,-106.9852388,3363,13.07,2012-01-09
snodgrass8,38.93142134,-106.9852388,3363,13.07,2012-01-09
southerngreatplains,36.6058,-97.4888,314,31.24,2012-01-09
springfieldma,42.135162,-72.585972,56,43.329998,2012-01-09
spruceA0EMI,47.5049,-93.4541,413,60.149998,2012-01-09
spruceA0EMT,47.5049,-93.4541,418,60.149998,2012-01-09
spruceA0P07,47.50493,-93.45314,413,60.149998,2012-01-09
spruceA0P07SH,47.50493,-93.45314,413,60.149998,2012-01-09
spruceA0P21,47.50625,-93.45275,413,60.149998,2012-01-09
spruceA0P21SH,47.50625,-93.45275,413,60.149998,2012-01-09
srg,31.7894,-110.8276,1281,9.5,2012-01-09
srm,31.8214,-110.8661,1116,20.619999,2012-01-09
statenrice1,38.1235,-121.549,-5,14.2,2012-01-09
stjones,39.088222,-75.43725,2,33.91,2012-01-09
sweetbriar,37.57341,-79.08482,242,26.71,2012-01-09
sweetbriarclearcut,37.5753,-79.0872,242,26.71,2012-01-09
sweetbriargrass,37.5605,-79.0884,240,26.71,2012-01-09
sylvania,46.242,-89.348,540,37.82,2012-01-09
templefieldstation1,40.1667,-75.1894,105,56.059998,2012-01-09
tfforest,43.1086,-70.9505,23,57.27,2012-01-09
tidmarshplymouth,41.9157,-70.5754,9,50.0,2012-01-09
tonzi,38.43091667,-120.9658861,177,28.66,2012-01-09
townsenddemeadow,39.3917,-75.6281,11,30.689999,2012-01-09
tsubiology,36.1671,-86.8295,164,7.6,2012-01-09
tsubiology2,36.1171,-86.8295,100,18.279999,2012-01-09
tuckerprairie,38.9491,-91.9952,274,42.64,2012-01-09
twodafo,29.1658,-95.829,16,59.46,2012-01-09
tworfaa,31.4777,-96.8882,167,33.559998,2012-01-09
tworfpr,31.4802,-96.8826,162,33.559998,2012-01-09
tworfta,31.4693,-96.8864,173,33.559998,2012-01-09
twosfpr,30.6176,-97.2938,157,54.92,2012-01-09
ucnrsanzaborrego,33.2401,-116.3886,214,17.05,2012-01-09
ufona,27.3836,-81.950856,25,45.61,2012-01-09
uiefmaize2,40.0628,-88.1961,224,47.469997,2012-01-09
uiefmiscanthus2,40.0628,-88.1984,221,47.469997,2012-01-09
uiefprairie2,40.0637,-88.1973,224,47.469997,2012-01-09
uiefsorghum,40.0065,-88.2032,224,49.45,2012-01-09
uiefswitchgrass2,40.0637,-88.1973,224,47.469997,2012-01-09
umichbiological,45.55984,-84.71382,230,31.769999,2012-01-09
umichbiological2,45.5625,-84.6976,240,47.289997,2012-01-09
unca,35.5951,-82.5515,650,37.3,2012-01-09
usgseros,43.7343,-96.6234,448,50.0,2012-01-09
usmpj,34.43845,-106.2543606,2126,45.41,2012-01-09
usof5,35.7297,-90.0406,70,23.529999,2012-01-09
usof6,35.7333,-90.0403,70,23.529999,2012-01-09
uwmfieldsta,43.38709,-88.0229,265,50.0,2012-01-09
vaira,38.41328056,-120.9506361,129,31.25,2012-01-09
vallesburnedconifer,35.8884,-106.5321,3043,29.51,2012-01-09
vallesmixedconifer,35.9192,-106.6142,2752,32.87,2012-01-09
vallesponderosapine,35.864,-106.5964,2501,19.619999,2012-01-09
waahila,21.3017,-157.8152,55,40.42,2012-01-09
warrenwilson,35.6069,-82.4421,2198,63.03,2012-01-09
willamettepoplar,44.1368,-123.1823,112,51.48,2012-01-09
willowcreek,45.805986,-90.07912,521,36.36,2012-01-09
windriver,45.8212833,-121.9520833,371,49.85,2012-01-09
windriverunderstory,45.8212833,-121.9520833,371,49.85,2012-01-09
wolfesneckfarm,43.8305,-70.0715,16,40.27,2012-01-09
worcester,42.2697,-71.8428,185,36.0,2012-01-09
alligatorriver,35.7879,-75.9038,1,45.579998,2012-01-16
arbutuslake,43.98207,-74.23322,535,57.0,2012-01-16
arbutuslakeinlet,43.99336,-74.24527,527,53.469997,2012-01-16
archboldavir,27.176064,-81.21958,8,37.6,2012-01-16
archboldavirx,27.166627,-81.219828,8,37.6,2012-01-16
archboldbahia,27.1656,-81.216112,8,37.6,2012-01-16
archboldpnot,27.187948,-81.200345,9,27.83,2012-01-16
archboldpnotx,27.180677,-81.20068,9,27.83,2012-01-16
arkansascornsoy,34.416,-91.6723,61,45.969997,2012-01-16
arsbrooks10,41.9749,-93.6905,312,50.0,2012-01-16
arsbrooks11,41.9744,-93.6937,313,50.0,2012-01-16
arscolesnorth,42.4884,-93.5225,356,57.01,2012-01-16
arscolessouth,42.4816,-93.5235,352,57.01,2012-01-16
arsgacp1,31.5109,-83.6179,96,35.82,2012-01-16
arsgacp3,31.7563,-83.7516,139,24.81,2012-01-16
arsgacp4,31.7093,-83.7287,127,50.05,2012-01-16
arsgreatbasinltar098,43.1675,-116.7132,1426,50.0,2012-01-16
arsgreatbasinltar117,43.1432,-116.7357,1625,50.0,2012-01-16
arsgreatbasinltar177,43.0645,-116.7484,2114,50.579998,2012-01-16
arsltarmdcr,39.0587,-75.8513,17,44.87,2012-01-16
arsltarmdcrnatw,39.0575,-75.7531,16,39.0,2012-01-16
arsltarmdcrprcw,39.0667,-75.7609,17,41.28,2012-01-16
arsltarmdcrresw,39.0549,-75.7532,16,39.0,2012-01-16
arsltarucbec1,40.7537,-78.0057,400,45.21,2012-01-16
arsltarucbec2,40.7558,-77.9999,396,45.21,2012-01-16
arsmnswanlake1,45.684508,-95.799703,370,43.52,2012-01-16
arsmorris1,45.6167,-96.1269,341,51.129997,2012-01-16
arsmorris2,45.627,-96.127,338,51.129997,2012-01-16
arsmorris3,45.6091,-96.1265,342,46.28,2012-01-16
arsope3ltar,39.0309,-76.8442,41,38.489998,2012-01-16
ashburnham,42.6029,-71.926,292,50.0,2012-01-16
asuhighlands,36.2076,-81.7032,1016,54.27,2012-01-16
austincary,29.738,-82.2188,44,42.07,2012-01-16
barrow,71.28007453,-156.6091492,5,-9999.0,2012-01-16
bartlettir,44.0646,-71.2881,268,39.2,2012-01-16
bigtraillake,64.9194,-147.822,190,69.6,2012-01-16
bitterbrush001,48.154,-119.9456,667,56.71,2012-01-16
blackrockforest,41.3974,-74.0239,427,44.66,2012-01-16
bnzblackspruce,64.6963,-148.3235,102,71.159996,2012-01-16
bnzrichfen,64.70134,-148.31195,97,73.61,2012-01-16
bnzthermokarstbog,64.6955,-148.3208,104,71.159996,2012-01-16
boglakepeatland,47.5051,-93.4893,416,48.039997,2012-01-16
bostoncommon,42.355912,-71.064145,10,14.179999,2012-01-16
bostonu,42.35041,-71.10438,10,9.33,2012-01-16
bouldinalfalfa,38.0985,-121.4993,-5,35.739998,2012-01-16
bouldincorn,38.109,-121.535,-5,32.55,2012-01-16
bozeman,45.783056,-110.777778,2332,57.379997,2012-01-16
brackishimpoundment,33.2015,-79.2973,1,52.87,2012-01-16
bullshoals,36.562833,-93.06663,260,48.73,2012-01-16
burnssagebrush,43.4712,-119.6909,1398,50.0,2012-01-16
butte,45.95304,-112.47964,1682,38.219997,2012-01-16
butterice,39.5793,-121.858,33,51.48,2012-01-16
cafboydnorthltar01,46.755104,-117.126052,795,58.98,2012-01-16
cafboydsouthltar01,46.751809,-117.128502,795,58.98,2012-01-16
cafcookeastltar01,46.78152,-117.0821,794,45.62,2012-01-16
cafcookwestltar01,46.784037,-117.09083,807,45.62,2012-01-16
caryinstitute,41.7839,-73.7341,127,58.43,2012-01-16
centralredwoods1,38.632272,-123.301511,200,50.0,2012-01-16
centralredwoods2,38.632272,-123.301511,200,50.0,2012-01-16
cperagm,40.8402,-104.7672,1644,34.03,2012-01-16
cperheavy,40.8153,-104.7386,1652,31.88,2012-01-16
cpertgm,40.833,-104.76,1644,31.789999,2012-01-16
cperuvb,40.8055764,-104.7558542,1641,31.88,2012-01-16
cuny,40.8162,-73.9507,42,57.629997,2012-01-16
doverdesaltmarsh,39.0888,-75.4368,0,33.42,2012-01-16
downerwoods,43.07938,-87.88076,213,49.43,2012-01-16
dukehw,35.973583,-79.100371,400,34.3,2012-01-16
ecb1,41.5348,-84.8068,275,27.81,2012-01-16
ecb2,41.5321,-84.808,275,27.81,2012-01-16
ecb4,41.1796,-83.0604,240,34.12,2012-01-16
elverde,18.320654,-65.8199,312,55.559998,2012-01-16
flagstaff,35.17961521,-111.6049032,6983,31.49,2012-01-16
flagstaff2,35.179225,-111.604506,6983,31.49,2012-01-16
flagstaffchimneysprings,35.257296,-111.678542,2250,42.86,2012-01-16
forbes,39.232,-121.2972,360,32.71,2012-01-16
fortpaynealpasture1,34.3824,-85.6428,405,40.82,2012-01-16
fortpaynealpasture2,34.3824,-85.6447,403,47.92,2012-01-16
gcesapelo,31.4440444,-81.283528,0,36.53,2012-01-16
gilberttract,38.0015,-121.6691,6,27.88,2012-01-16
glees,41.3644,-106.2394,3150,44.95,2012-01-16
glennorganicrice,39.6805,-122.0026,2,16.67,2012-01-16
glennrice,39.5944,-122.0253,36,45.84,2012-01-16
goodnow,43.96018,-74.20994,820,49.079998,2012-01-16
goodwater,39.22848,-92.11936,264,37.07,2012-01-16
goodwaterbau,39.23115,-92.15216,274,37.91,2012-01-16
grandteton,43.915017,-110.578036,2054,35.51,2012-01-16
grca1pj,36.0241,-112.2211,1978,57.91,2012-01-16
greenridge1,39.6905,-78.4067,285,39.71,2012-01-16
harvard,42.5378,-72.1715,340,54.19,2012-01-16
harvardbarn,42.53532,-72.1899,350,50.0,2012-01-16
harvardbarn2,42.53532,-72.1899,350,50.0,2012-01-16
harvardems2,42.5378,-72.1715,340,54.19,2012-01-16
harvardfarmnorth,42.520465,-72.182242,355,50.0,2012-01-16
harvardfarmsouth,42.522466,-72.182339,355,50.0,2012-01-16
harvardgarden,42.5291,-72.1863,335,50.0,2012-01-16
harvardhemlock,42.539,-72.18,355,54.19,2012-01-16
harvardhemlock2,42.539407,-72.177976,355,54.19,2012-01-16
harvardlph,42.542,-72.185,380,50.0,2012-01-16
hawbeckereddy,40.6608,-77.848849,310,48.82,2012-01-16
hobcawclearcutlongleaf,33.3486,-79.232,4,48.2,2012-01-16
hobcawmaturelongleaf,33.3242,-79.2439,8,48.28,2012-01-16
homesteadsprings,37.2009,-92.9937,452,46.309998,2012-01-16
howland1,45.2041,-68.7403,80,62.1,2012-01-16
howland2,45.2128,-68.7418,79,62.1,2012-01-16
hubbardbrook,43.9438,-71.701,253,62.969997,2012-01-16
humnokericea,34.585192,-91.751684,61,53.89,2012-01-16
humnokericec,34.588853,-91.7516729,70,53.89,2012-01-16
huyckpreserveny,42.5266,-74.1587,478,47.96,2012-01-16
hwmo1,20.0212,-155.7331,585,54.27,2012-01-16
hwmo2,19.9766,-155.8298,12,5.97,2012-01-16
hwmo5,20.1117,-155.8151,635,57.699997,2012-01-16
ibp,32.589,-106.847,1325,33.07,2012-01-16
imcrkfen,68.60583,-149.31101,900,-9999.0,2012-01-16
imcrkridge0,68.60681,-149.2958,951,-9999.0,2012-01-16
imcrkridge1,68.60681,-149.2958,951,-9999.0,2012-01-16
imcrktussock,68.60633,-149.30408,918,-9999.0,2012-01-16
jasperridge,37.402028,-122.22104,197,32.26,2012-01-16
jerbajada,32.57992,-106.633793,1402,29.39,2012-01-16
jergrassland,32.5833,-106.8333,1331,33.07,2012-01-16
jernort,32.619,-106.788,1328,29.97,2012-01-16
jernovel,32.6335,-106.8334,1324,24.35,2012-01-16
jernwern,32.6271,-106.7387,1325,42.69,2012-01-16
jersand,32.515,-106.798,1363,32.63,2012-01-16
jershrubland,32.6502,-106.8334,1328,24.35,2012-01-16
junipersavannah,34.4254,-105.8615,1931,49.68,2012-01-16
kamuela,20.015008,-155.661326,850,55.07,2012-01-16
kamuela2,20.014959,-155.661139,830,55.07,2012-01-16
kansas,39.0561,-95.1907,333,39.85,2012-01-16
kelloggcorn,42.437536,-85.3225472,288,50.0,2012-01-16
kempnrs,45.83992,-89.67755,539,21.869999,2012-01-16
kendall,31.73652,-109.94185,1529,31.84,2012-01-16
konza,39.0824,-96.5603,443,53.61,2012-01-16
laupahoehoe,19.9322,-155.2912,1145,60.829998,2012-01-16
ldeocam,41.0039,-73.9053,121,36.71,2012-01-16
lostcreek,46.0827,-89.9792,480,48.41,2012-01-16
luckyhills,31.743896,-110.052023,1366,33.71,2012-01-16
macleish,42.4484,-72.6804,251,39.7,2012-01-16
macordway,44.8106,-93.0272,264,50.0,2012-01-16
mandanh5,46.775423,-100.95109,593,50.0,2012-01-16
mandani2,46.7614,-100.9257,590,50.17,2012-01-16
manilacotton,35.8872,-90.1371,73,23.43,2012-01-16
marena,36.06434,-97.21271,327,44.59,2012-01-16
mead1,41.1651,-96.4766,361,49.059998,2012-01-16
mead2,41.1649,-96.4701,362,49.059998,2012-01-16
mead3,41.1797,-96.4397,363,48.879997,2012-01-16
meadpasture,41.1447,-96.4616,356,53.079998,2012-01-16
meadpasturese,41.1447,-96.4616,356,53.079998,2012-01-16
meadpasturesw,41.1447,-96.4616,356,53.079998,2012-01-16
missouriozarks,38.7441,-92.2,219,42.77,2012-01-16
morganmonroe,39.3231,-86.4131,275,50.35,2012-01-16
morganmonroe2,39.3231,-86.4131,275,50.35,2012-01-16
nahuku,19.415187,-155.238383,1202,59.76,2012-01-16
nationalelkrefuge,43.488931,-110.737824,1899,28.57,2012-01-16
ncssm,36.018446,-78.92075,175,13.78,2012-01-16
NEON.D01.BART.DP1.00033,44.063869,-71.287375,285,49.39,2012-01-16
NEON.D01.HARV.DP1.00033,42.536911,-72.17265,359,54.19,2012-01-16
NEON.D01.HOPB.DP1.20002,42.471786,-72.329627,203,39.68,2012-01-16
NEON.D02.BLAN.DP1.00033,39.033698,-78.041788,162,50.0,2012-01-16
NEON.D02.LEWI.DP1.20002,39.09564,-77.98322,152,40.41,2012-01-16
NEON.D02.POSE.DP1.20002,38.89332,-78.14678,293,50.82,2012-01-16
NEON.D02.SCBI.DP1.00033,38.892925,-78.139494,364,50.82,2012-01-16
NEON.D02.SERC.DP1.00033,38.89008,-76.56001,30,33.969997,2012-01-16
NEON.D03.BARC.DP1.20002,29.676473,-82.009089,35,32.76,2012-01-16
NEON.D03.DSNY.DP1.00033,28.12505,-81.43619,22,33.32,2012-01-16
NEON.D03.FLNT.DP1.20002,31.185424,-84.437403,27,42.95,2012-01-16
NEON.D03.JERC.DP1.00033,31.194839,-84.468623,58,42.95,2012-01-16
NEON.D03.OSBS.DP1.00033,29.689282,-81.993431,56,39.219997,2012-01-16
NEON.D03.SUGG.DP1.20002,29.687054,-82.016171,28,32.76,2012-01-16
NEON.D04.CUPE.DP1.20002,18.11352,-66.98676,164,70.0,2012-01-16
NEON.D04.GUAN.DP1.00033,17.96955,-66.8687,136,54.67,2012-01-16
NEON.D04.GUIL.DP1.20002,18.1741,-66.79851,564,62.05,2012-01-16
NEON.D04.LAJA.DP1.00033,18.021261,-67.076889,22,40.76,2012-01-16
NEON.D05.CRAM.DP1.20002,46.21111,-89.47825,518,19.17,2012-01-16
NEON.D05.LIRO.DP1.20002,45.998269,-89.704767,495,32.35,2012-01-16
NEON.D05.STEI.DP1.00033,45.50894,-89.58637,476,29.81,2012-01-16
NEON.D05.TREE.DP1.00033,45.49373,-89.58572,474,33.2,2012-01-16
NEON.D05.UNDE.DP1.00033,46.23391,-89.537254,529,39.09,2012-01-16
NEON.D06.KING.DP1.20002,39.10506,-96.60336,339,42.35,2012-01-16
NEON.D06.KONA.DP1.00033,39.110446,-96.612935,443,42.35,2012-01-16
NEON.D06.KONZ.DP1.00033,39.10077,-96.56309,415,52.76,2012-01-16
NEON.D06.MCDI.DP1.20002,38.94428,-96.44197,376,49.76,2012-01-16
NEON.D06.UKFS.DP1.00033,39.040431,-95.19215,330,39.85,2012-01-16
NEON.D07.GRSM.DP1.00033,35.68896,-83.50195,589,25.529999,2012-01-16
NEON.D07.LECO.DP1.20002,35.69043,-83.50379,578,25.529999,2012-01-16
NEON.D07.MLBS.DP1.00033,37.378314,-80.524847,1177,54.469997,2012-01-16
NEON.D07.ORNL.DP1.00033,35.964128,-84.282588,351,22.48,2012-01-16
NEON.D07.WALK.DP1.20002,35.95947,-84.28041,274,24.67,2012-01-16
NEON.D08.BLWA.DP1.20002,32.541529,-87.798151,23,49.559998,2012-01-16
NEON.D08.DELA.DP1.00033,32.541727,-87.803877,36,49.559998,2012-01-16
NEON.D08.LENO.DP1.00033,31.85388,-88.16122,10,50.69,2012-01-16
NEON.D08.MAYF.DP1.20002,32.959657,-87.408128,93,43.75,2012-01-16
NEON.D08.TALL.DP1.00033,32.95047,-87.393259,167,66.88,2012-01-16
NEON.D08.TOMB.DP1.20002,31.853431,-88.158872,10,50.69,2012-01-16
NEON.D09.DCFS.DP1.00033,47.161647,-99.106556,574,51.37,2012-01-16
NEON.D09.NOGP.DP1.00033,46.76972,-100.91535,589,50.0,2012-01-16
NEON.D09.PRLA.DP1.20002,47.15909,-99.11388,563,53.11,2012-01-16
NEON.D09.PRPO.DP1.20002,47.12999,-99.250551,587,53.94,2012-01-16
NEON.D09.WOOD.DP1.00033,47.1282,-99.241334,585,53.94,2012-01-16
NEON.D10.ARIK.DP1.20002,39.758246,-102.447103,1188,46.69,2012-01-16
NEON.D10.CPER.DP1.00033,40.81553,-104.7456,1600,31.88,2012-01-16
NEON.D10.HQTW.DP1.00033,40.016704,-105.245612,1601,22.189999,2012-01-16
NEON.D10.RMNP.DP1.00033,40.275903,-105.545955,2751,43.91,2012-01-16
NEON.D10.STER.DP1.00033,40.461894,-103.02929,1366,45.28,2012-01-16
NEON.D11.BLUE.DP1.20002,34.444218,-96.624201,288,71.26,2012-01-16
NEON.D11.CLBJ.DP1.00033,33.40123,-97.57,279,69.09,2012-01-16
NEON.D11.OAES.DP1.00033,35.41059,-99.05879,520,50.18,2012-01-16
NEON.D11.PRIN.DP1.20002,33.37859,-97.78226,255,79.45,2012-01-16
NEON.D12.BLDE.DP1.20002,44.95011,-110.58715,2035,30.33,2012-01-16
NEON.D12.YELL.DP1.00033,44.95348,-110.53914,2130,23.519999,2012-01-16
NEON.D13.COMO.DP1.20002,40.03496,-105.54487,3036,49.45,2012-01-16
NEON.D13.MOAB.DP1.00033,38.24833,-109.38827,1803,45.41,2012-01-16
NEON.D13.NIWO.DP1.00033,40.05425,-105.58237,3493,54.18,2012-01-16
NEON.D13.WLOU.DP1.20002,39.891366,-105.915395,2920,39.579998,2012-01-16
NEON.D14.JORN.DP1.00033,32.59068,-106.84254,1321,33.07,2012-01-16
NEON.D14.SRER.DP1.00033,31.91068,-110.83549,999,27.24,2012-01-16
NEON.D14.SYCA.DP1.20002,33.749057,-111.506903,644,67.61,2012-01-16
NEON.D15.ONAQ.DP1.00033,40.177599,-112.452452,1655,50.0,2012-01-16
NEON.D15.REDB.DP1.20002,40.783934,-111.797887,1696,54.43,2012-01-16
NEON.D16.ABBY.DP1.00033,45.76243,-122.33033,390,48.37,2012-01-16
NEON.D16.MART.DP1.20002,45.791248,-121.931959,354,48.91,2012-01-16
NEON.D16.MCRA.DP1.20002,44.259598,-122.165554,880,56.52,2012-01-16
NEON.D16.WREF.DP1.00033,45.82049,-121.95191,368,49.46,2012-01-16
NEON.D17.BIGC.DP1.20002,37.059719,-119.257549,1133,50.0,2012-01-16
NEON.D17.SJER.DP1.00033,37.10878,-119.73228,398,19.609999,2012-01-16
NEON.D17.SOAP.DP1.00033,37.03337,-119.26219,1210,57.62,2012-01-16
NEON.D17.TEAK.DP1.00033,37.00583,-119.00602,2149,59.17,2012-01-16
NEON.D17.TECR.DP1.20002,36.955931,-119.027363,2053,57.03,2012-01-16
NEON.D18.BARR.DP1.00033,71.28241,-156.61936,7,-9999.0,2012-01-16
NEON.D18.OKSR.DP1.20002,68.669753,-149.143018,773,-9999.0,2012-01-16
NEON.D18.TOOK.DP1.20002,68.629562,-149.610509,715,-9999.0,2012-01-16
NEON.D18.TOOL.DP1.00033,68.66109,-149.37047,827,-9999.0,2012-01-16
NEON.D19.BONA.DP1.00033,65.15401,-147.50258,233,77.82,2012-01-16
NEON.D19.CARI.DP1.20002,65.15306,-147.50246,229,77.82,2012-01-16
NEON.D19.DEJU.DP1.00033,63.88112,-145.75136,504,66.63,2012-01-16
NEON.D19.HEAL.DP1.00033,63.87569,-149.21334,409,59.89,2012-01-16
NEON.D20.PUUM.DP1.00033,19.55309,-155.31731,1683,61.03,2012-01-16
nevcansnk3a,39.0099,-114.3095,3063,66.6,2012-01-16
nevcanspg1a,38.9253,-114.4082,1792,57.09,2012-01-16
nevcanspg2a,38.8921,-114.3521,2203,73.31,2012-01-16
nevcanspg3a,38.8898,-114.3314,2820,72.08,2012-01-16
nevcanspg4a,38.9061,-114.3089,3360,72.08,2012-01-16
ninemileprairie,40.86801886,-96.82208066,381,51.77,2012-01-16
nist,39.139,-77.2125,100,48.129997,2012-01-16
niwot3,40.03286358,-105.5469702,3050,49.45,2012-01-16
niwot5,40.03286358,-105.5469702,2993,49.45,2012-01-16
northattleboroma,41.98369,-71.31056,60,50.0,2012-01-16
northinletsaltmarsh,33.3455,-79.1957,1,48.2,2012-01-16
oakville,47.899334,-97.316139,268,50.0,2012-01-16
oregonMP,44.4523,-121.5574,1253,50.0,2012-01-16
oregonYP,44.32384,-121.605993,977,50.0,2012-01-16
oregonYPbud,44.3238,-121.606,977,50.0,2012-01-16
othshardwood,44.934805,-68.6655,41,50.0,2012-01-16
othssoftwood,44.934527,-68.664888,41,50.0,2012-01-16
pace,37.9229,-78.2739,100,49.129997,2012-01-16
parkschoolbuffalo,42.9637,-78.7834,205,50.0,2012-01-16
piedmontalpasture2,33.8875,-85.6935,238,53.51,2012-01-16
portal,31.9385,-109.0823,1330,7.3599997,2012-01-16
proctor,44.525,-72.866,403,47.76,2012-01-16
readingma,42.5304,-71.1272,100,50.0,2012-01-16
robinson,37.4671,-83.1576,483,46.44,2012-01-16
robinson2,37.4671,-83.1576,483,46.44,2012-01-16
rosemountcons,44.6946,-93.0578,283,50.0,2012-01-16
rosemountconv,44.691,-93.0576,283,50.0,2012-01-16
rosemountnprs,44.6781,-93.0723,274,50.0,2012-01-16
russellsage,32.456961,-91.974322,20,55.18,2012-01-16
sagehen,39.4315,-120.2398,1934,51.219997,2012-01-16
sagehen2,39.4307,-120.2407,1937,50.0,2012-01-16
sagehen3,39.4311,-120.2405,1935,50.0,2012-01-16
sanford,42.726777,-84.464482,268,50.0,2012-01-16
santacruz1,36.9741,-122.0308,11,50.32,2012-01-16
santacruz2,36.9741,-122.0308,11,50.32,2012-01-16
santaluciapreserve1,36.5265,-121.8682,500,45.76,2012-01-16
santaluciapreserve2,36.5265,-121.8682,500,45.76,2012-01-16
segaarboretum10,35.16209,-111.73151,2170,33.489998,2012-01-16
segaarboretum2,35.16209,-111.73151,2170,33.489998,2012-01-16
segaarboretum3,35.16209,-111.73151,2170,33.489998,2012-01-16
segaarboretum4,35.16214,-111.73153,2170,33.489998,2012-01-16
segaarboretum6,35.16209,-111.73151,2170,33.489998,2012-01-16
segaarboretum9,35.16222,-111.73158,2170,33.489998,2012-01-16
segaarboretumforest,35.1613,-111.7359,2173,33.489998,2012-01-16
segaarboretummeadow,35.1621,-111.7316,2157,33.489998,2012-01-16
segablackpoint,35.6814,-111.4754,1566,42.98,2012-01-16
segabluechute,35.5876,-111.9716,1930,24.14,2012-01-16
segabluechute1,35.58759,-111.97115,1931,24.14,2012-01-16
segabluechute2,35.58759,-111.97115,1931,24.14,2012-01-16
segabluechute4,35.58759,-111.9716,1931,24.14,2012-01-16
segabluechute6,35.58759,-111.97115,1931,24.14,2012-01-16
segabluechute7,35.58759,-111.97115,1931,24.14,2012-01-16
segabluechute8,35.58759,-111.97115,1931,24.14,2012-01-16
segabradshaw,34.9109,-111.9285,1402,64.53,2012-01-16
segahartprairie,35.3536,-111.7324,2585,62.71,2012-01-16
segalcr,35.7231,-111.321,1275,45.75,2012-01-16
segalcr2,35.7069,-111.36,1495,45.61,2012-01-16
segalittlemountain,36.5865,-112.3634,2276,41.93,2012-01-16
segasoapcreek,36.751,-111.716,1233,16.38,2012-01-16
segawhitepockets,36.6081,-112.4082,2057,39.21,2012-01-16
sevilletagrass,34.360444,-106.700186,1600,22.199999,2012-01-16
sevilletanewgrass,34.358,-106.6799,1603,22.199999,2012-01-16
sevilletashrub,34.334956,-106.744469,1603,18.6,2012-01-16
sevMRME10L,34.3438,-106.7269,1604,28.099998,2012-01-16
sevMRME11C,34.3438,-106.7268,1604,28.099998,2012-01-16
sevMRME1S,34.3442,-106.7272,1604,17.44,2012-01-16
sevpjrm12,34.38615,-106.52621,1905,45.809998,2012-01-16
sevpjrm13,34.38631,-106.52791,1914,45.809998,2012-01-16
shalehillsczo,40.6658,-77.9041,310,38.0,2012-01-16
shenandoah,38.6167,-78.35,1037,44.27,2012-01-16
silverton,44.9986,-122.6948,347,49.879997,2012-01-16
siwetland,38.0369,-121.7546,-5,-9999.0,2012-01-16
slatefloodplain,38.9094,-107.0282,2725,33.219997,2012-01-16
snodgrass1,38.92619636,-106.9714376,3023,14.0199995,2012-01-16
snodgrass2,38.92619636,-106.9714376,3023,14.0199995,2012-01-16
snodgrass3,38.92839978,-106.9781196,3141,14.0199995,2012-01-16
snodgrass4,38.92839978,-106.9781196,3141,14.0199995,2012-01-16
snodgrass5,38.92744789,-106.9785209,3152,14.0199995,2012-01-16
snodgrass6,38.92744789,-106.9785209,3152,14.0199995,2012-01-16
snodgrass7,38.93142134,-106.9852388,3363,14.0199995,2012-01-16
snodgrass8,38.93142134,-106.9852388,3363,14.0199995,2012-01-16
southerngreatplains,36.6058,-97.4888,314,34.739998,2012-01-16
springfieldma,42.135162,-72.585972,56,47.309998,2012-01-16
spruceA0EMI,47.5049,-93.4541,413,55.03,2012-01-16
spruceA0EMT,47.5049,-93.4541,418,55.03,2012-01-16
spruceA0P07,47.50493,-93.45314,413,55.03,2012-01-16
spruceA0P07SH,47.50493,-93.45314,413,55.03,2012-01-16
spruceA0P21,47.50625,-93.45275,413,55.03,2012-01-16
spruceA0P21SH,47.50625,-93.45275,413,55.03,2012-01-16
srg,31.7894,-110.8276,1281,10.79,2012-01-16
srm,31.8214,-110.8661,1116,19.14,2012-01-16
statenrice1,38.1235,-121.549,-5,12.19,2012-01-16
stjones,39.088222,-75.43725,2,33.42,2012-01-16
sweetbriar,37.57341,-79.08482,242,31.97,2012-01-16
sweetbriarclearcut,37.5753,-79.0872,242,31.97,2012-01-16
sweetbriargrass,37.5605,-79.0884,240,31.97,2012-01-16
sylvania,46.242,-89.348,540,44.39,2012-01-16
templefieldstation1,40.1667,-75.1894,105,56.28,2012-01-16
tfforest,43.1086,-70.9505,23,50.739998,2012-01-16
tidmarshplymouth,41.9157,-70.5754,9,50.0,2012-01-16
tonzi,38.43091667,-120.9658861,177,25.1,2012-01-16
townsenddemeadow,39.3917,-75.6281,11,37.23,2012-01-16
tsubiology,36.1671,-86.8295,164,7.4199996,2012-01-16
tsubiology2,36.1171,-86.8295,100,18.8,2012-01-16
tuckerprairie,38.9491,-91.9952,274,43.739998,2012-01-16
twodafo,29.1658,-95.829,16,56.969997,2012-01-16
tworfaa,31.4777,-96.8882,167,41.879997,2012-01-16
tworfpr,31.4802,-96.8826,162,41.879997,2012-01-16
tworfta,31.4693,-96.8864,173,41.879997,2012-01-16
twosfpr,30.6176,-97.2938,157,64.04,2012-01-16
ucnrsanzaborrego,33.2401,-116.3886,214,15.49,2012-01-16
ufona,27.3836,-81.950856,25,41.61,2012-01-16
uiefmaize2,40.0628,-88.1961,224,49.0,2012-01-16
uiefmiscanthus2,40.0628,-88.1984,221,49.0,2012-01-16
uiefprairie2,40.0637,-88.1973,224,49.0,2012-01-16
uiefsorghum,40.0065,-88.2032,224,50.66,2012-01-16
uiefswitchgrass2,40.0637,-88.1973,224,49.0,2012-01-16
umichbiological,45.55984,-84.71382,230,28.23,2012-01-16
umichbiological2,45.5625,-84.6976,240,43.829998,2012-01-16
unca,35.5951,-82.5515,650,39.17,2012-01-16
usgseros,43.7343,-96.6234,448,50.0,2012-01-16
usmpj,34.43845,-106.2543606,2126,48.44,2012-01-16
usof5,35.7297,-90.0406,70,25.0,2012-01-16
usof6,35.7333,-90.0403,70,25.0,2012-01-16
uwmfieldsta,43.38709,-88.0229,265,50.0,2012-01-16
vaira,38.41328056,-120.9506361,129,27.029999,2012-01-16
vallesburnedconifer,35.8884,-106.5321,3043,35.95,2012-01-16
vallesmixedconifer,35.9192,-106.6142,2752,35.26,2012-01-16
vallesponderosapine,35.864,-106.5964,2501,20.56,2012-01-16
waahila,21.3017,-157.8152,55,37.87,2012-01-16
warrenwilson,35.6069,-82.4421,2198,62.66,2012-01-16
willamettepoplar,44.1368,-123.1823,112,53.289997,2012-01-16
willowcreek,45.805986,-90.07912,521,42.86,2012-01-16
windriver,45.8212833,-121.9520833,371,49.46,2012-01-16
windriverunderstory,45.8212833,-121.9520833,371,49.46,2012-01-16
wolfesneckfarm,43.8305,-70.0715,16,39.29,2012-01-16
worcester,42.2697,-71.8428,185,34.25,2012-01-16
alligatorriver,35.7879,-75.9038,1,45.989998,2012-01-23
arbutuslake,43.98207,-74.23322,535,48.61,2012-01-23
arbutuslakeinlet,43.99336,-74.24527,527,55.199997,2012-01-23
archboldavir,27.176064,-81.21958,8,28.199999,2012-01-23
archboldavirx,27.166627,-81.219828,8,28.199999,2012-01-23
archboldbahia,27.1656,-81.216112,8,28.199999,2012-01-23
archboldpnot,27.187948,-81.200345,9,19.22,2012-01-23
archboldpnotx,27.180677,-81.20068,9,19.22,2012-01-23
arkansascornsoy,34.416,-91.6723,61,43.719997,2012-01-23
arsbrooks10,41.9749,-93.6905,312,50.0,2012-01-23
arsbrooks11,41.9744,-93.6937,313,50.0,2012-01-23
arscolesnorth,42.4884,-93.5225,356,57.69,2012-01-23
arscolessouth,42.4816,-93.5235,352,57.69,2012-01-23
arsgacp1,31.5109,-83.6179,96,36.23,2012-01-23
arsgacp3,31.7563,-83.7516,139,31.47,2012-01-23
arsgacp4,31.7093,-83.7287,127,51.539997,2012-01-23
arsgreatbasinltar098,43.1675,-116.7132,1426,50.0,2012-01-23
arsgreatbasinltar117,43.1432,-116.7357,1625,50.0,2012-01-23
arsgreatbasinltar177,43.0645,-116.7484,2114,50.239998,2012-01-23
arsltarmdcr,39.0587,-75.8513,17,47.16,2012-01-23
arsltarmdcrnatw,39.0575,-75.7531,16,40.96,2012-01-23
arsltarmdcrprcw,39.0667,-75.7609,17,43.329998,2012-01-23
arsltarmdcrresw,39.0549,-75.7532,16,40.96,2012-01-23
arsltarucbec1,40.7537,-78.0057,400,43.879997,2012-01-23
arsltarucbec2,40.7558,-77.9999,396,43.879997,2012-01-23
arsmnswanlake1,45.684508,-95.799703,370,43.37,2012-01-23
arsmorris1,45.6167,-96.1269,341,57.39,2012-01-23
arsmorris2,45.627,-96.127,338,57.39,2012-01-23
arsmorris3,45.6091,-96.1265,342,49.399998,2012-01-23
arsope3ltar,39.0309,-76.8442,41,40.64,2012-01-23
ashburnham,42.6029,-71.926,292,50.0,2012-01-23
asuhighlands,36.2076,-81.7032,1016,56.989998,2012-01-23
austincary,29.738,-82.2188,44,39.94,2012-01-23
barrow,71.28007453,-156.6091492,5,-9999.0,2012-01-23
bartlettir,44.0646,-71.2881,268,31.269999,2012-01-23
bigtraillake,64.9194,-147.822,190,66.82,2012-01-23
bitterbrush001,48.154,-119.9456,667,58.539997,2012-01-23
blackrockforest,41.3974,-74.0239,427,44.6,2012-01-23
bnzblackspruce,64.6963,-148.3235,102,64.51,2012-01-23
bnzrichfen,64.70134,-148.31195,97,74.07,2012-01-23
bnzthermokarstbog,64.6955,-148.3208,104,64.51,2012-01-23
boglakepeatland,47.5051,-93.4893,416,55.699997,2012-01-23
bostoncommon,42.355912,-71.064145,10,16.289999,2012-01-23
bostonu,42.35041,-71.10438,10,14.98,2012-01-23
bouldinalfalfa,38.0985,-121.4993,-5,36.0,2012-01-23
bouldincorn,38.109,-121.535,-5,34.53,2012-01-23
bozeman,45.783056,-110.777778,2332,66.76,2012-01-23
brackishimpoundment,33.2015,-79.2973,1,53.309998,2012-01-23
bullshoals,36.562833,-93.06663,260,56.719997,2012-01-23
burnssagebrush,43.4712,-119.6909,1398,50.0,2012-01-23
butte,45.95304,-112.47964,1682,36.25,2012-01-23
butterice,39.5793,-121.858,33,53.94,2012-01-23
cafboydnorthltar01,46.755104,-117.126052,795,54.309998,2012-01-23
cafboydsouthltar01,46.751809,-117.128502,795,54.309998,2012-01-23
cafcookeastltar01,46.78152,-117.0821,794,36.6,2012-01-23
cafcookwestltar01,46.784037,-117.09083,807,36.6,2012-01-23
caryinstitute,41.7839,-73.7341,127,55.559998,2012-01-23
centralredwoods1,38.632272,-123.301511,200,50.0,2012-01-23
centralredwoods2,38.632272,-123.301511,200,50.0,2012-01-23
cperagm,40.8402,-104.7672,1644,35.69,2012-01-23
cperheavy,40.8153,-104.7386,1652,32.34,2012-01-23
cpertgm,40.833,-104.76,1644,32.35,2012-01-23
cperuvb,40.8055764,-104.7558542,1641,32.34,2012-01-23
cuny,40.8162,-73.9507,42,55.62,2012-01-23
doverdesaltmarsh,39.0888,-75.4368,0,33.89,2012-01-23
downerwoods,43.07938,-87.88076,213,53.41,2012-01-23
dukehw,35.973583,-79.100371,400,38.19,2012-01-23
ecb1,41.5348,-84.8068,275,25.64,2012-01-23
ecb2,41.5321,-84.808,275,25.64,2012-01-23
ecb4,41.1796,-83.0604,240,31.289999,2012-01-23
elverde,18.320654,-65.8199,312,50.43,2012-01-23
flagstaff,35.17961521,-111.6049032,6983,30.99,2012-01-23
flagstaff2,35.179225,-111.604506,6983,30.99,2012-01-23
flagstaffchimneysprings,35.257296,-111.678542,2250,45.53,2012-01-23
forbes,39.232,-121.2972,360,33.219997,2012-01-23
fortpaynealpasture1,34.3824,-85.6428,405,39.77,2012-01-23
fortpaynealpasture2,34.3824,-85.6447,403,48.309998,2012-01-23
gcesapelo,31.4440444,-81.283528,0,32.55,2012-01-23
gilberttract,38.0015,-121.6691,6,26.789999,2012-01-23
glees,41.3644,-106.2394,3150,42.57,2012-01-23
glennorganicrice,39.6805,-122.0026,2,14.95,2012-01-23
glennrice,39.5944,-122.0253,36,49.219997,2012-01-23
goodnow,43.96018,-74.20994,820,41.39,2012-01-23
goodwater,39.22848,-92.11936,264,41.629997,2012-01-23
goodwaterbau,39.23115,-92.15216,274,37.76,2012-01-23
grandteton,43.915017,-110.578036,2054,36.32,2012-01-23
grca1pj,36.0241,-112.2211,1978,57.399998,2012-01-23
greenridge1,39.6905,-78.4067,285,40.69,2012-01-23
harvard,42.5378,-72.1715,340,55.899998,2012-01-23
harvardbarn,42.53532,-72.1899,350,50.0,2012-01-23
harvardbarn2,42.53532,-72.1899,350,50.0,2012-01-23
harvardems2,42.5378,-72.1715,340,55.899998,2012-01-23
harvardfarmnorth,42.520465,-72.182242,355,50.0,2012-01-23
harvardfarmsouth,42.522466,-72.182339,355,50.0,2012-01-23
harvardgarden,42.5291,-72.1863,335,50.0,2012-01-23
harvardhemlock,42.539,-72.18,355,55.899998,2012-01-23
harvardhemlock2,42.539407,-72.177976,355,55.899998,2012-01-23
harvardlph,42.542,-72.185,380,50.0,2012-01-23
hawbeckereddy,40.6608,-77.848849,310,50.0,2012-01-23
hobcawclearcutlongleaf,33.3486,-79.232,4,48.8,2012-01-23
hobcawmaturelongleaf,33.3242,-79.2439,8,48.039997,2012-01-23
homesteadsprings,37.2009,-92.9937,452,49.68,2012-01-23
howland1,45.2041,-68.7403,80,54.559998,2012-01-23
howland2,45.2128,-68.7418,79,54.559998,2012-01-23
hubbardbrook,43.9438,-71.701,253,48.879997,2012-01-23
humnokericea,34.585192,-91.751684,61,45.3,2012-01-23
humnokericec,34.588853,-91.7516729,70,45.3,2012-01-23
huyckpreserveny,42.5266,-74.1587,478,45.26,2012-01-23
hwmo1,20.0212,-155.7331,585,57.0,2012-01-23
hwmo2,19.9766,-155.8298,12,7.0,2012-01-23
hwmo5,20.1117,-155.8151,635,61.98,2012-01-23
ibp,32.589,-106.847,1325,27.41,2012-01-23
imcrkfen,68.60583,-149.31101,900,74.78,2012-01-23
imcrkridge0,68.60681,-149.2958,951,74.78,2012-01-23
imcrkridge1,68.60681,-149.2958,951,74.78,2012-01-23
imcrktussock,68.60633,-149.30408,918,74.78,2012-01-23
jasperridge,37.402028,-122.22104,197,28.57,2012-01-23
jerbajada,32.57992,-106.633793,1402,28.4,2012-01-23
jergrassland,32.5833,-106.8333,1331,27.41,2012-01-23
jernort,32.619,-106.788,1328,25.0,2012-01-23
jernovel,32.6335,-106.8334,1324,25.31,2012-01-23
jernwern,32.6271,-106.7387,1325,38.69,2012-01-23
jersand,32.515,-106.798,1363,30.33,2012-01-23
jershrubland,32.6502,-106.8334,1328,25.31,2012-01-23
junipersavannah,34.4254,-105.8615,1931,49.51,2012-01-23
kamuela,20.015008,-155.661326,850,54.59,2012-01-23
kamuela2,20.014959,-155.661139,830,54.59,2012-01-23
kansas,39.0561,-95.1907,333,39.59,2012-01-23
kelloggcorn,42.437536,-85.3225472,288,50.0,2012-01-23
kempnrs,45.83992,-89.67755,539,23.119999,2012-01-23
kendall,31.73652,-109.94185,1529,32.67,2012-01-23
konza,39.0824,-96.5603,443,52.77,2012-01-23
laupahoehoe,19.9322,-155.2912,1145,58.949997,2012-01-23
ldeocam,41.0039,-73.9053,121,34.36,2012-01-23
lostcreek,46.0827,-89.9792,480,46.77,2012-01-23
luckyhills,31.743896,-110.052023,1366,29.849998,2012-01-23
macleish,42.4484,-72.6804,251,37.09,2012-01-23
macordway,44.8106,-93.0272,264,50.0,2012-01-23
mandanh5,46.775423,-100.95109,593,50.91,2012-01-23
mandani2,46.7614,-100.9257,590,50.18,2012-01-23
manilacotton,35.8872,-90.1371,73,22.64,2012-01-23
marena,36.06434,-97.21271,327,51.199997,2012-01-23
mead1,41.1651,-96.4766,361,49.82,2012-01-23
mead2,41.1649,-96.4701,362,49.82,2012-01-23
mead3,41.1797,-96.4397,363,45.93,2012-01-23
meadpasture,41.1447,-96.4616,356,52.719997,2012-01-23
meadpasturese,41.1447,-96.4616,356,52.719997,2012-01-23
meadpasturesw,41.1447,-96.4616,356,52.719997,2012-01-23
missouriozarks,38.7441,-92.2,219,45.87,2012-01-23
morganmonroe,39.3231,-86.4131,275,53.289997,2012-01-23
morganmonroe2,39.3231,-86.4131,275,53.289997,2012-01-23
nahuku,19.415187,-155.238383,1202,62.46,2012-01-23
nationalelkrefuge,43.488931,-110.737824,1899,31.74,2012-01-23
ncssm,36.018446,-78.92075,175,11.46,2012-01-23
NEON.D01.BART.DP1.00033,44.063869,-71.287375,285,49.12,2012-01-23
NEON.D01.HARV.DP1.00033,42.536911,-72.17265,359,55.899998,2012-01-23
NEON.D01.HOPB.DP1.20002,42.471786,-72.329627,203,41.6,2012-01-23
NEON.D02.BLAN.DP1.00033,39.033698,-78.041788,162,50.0,2012-01-23
NEON.D02.LEWI.DP1.20002,39.09564,-77.98322,152,42.05,2012-01-23
NEON.D02.POSE.DP1.20002,38.89332,-78.14678,293,48.149998,2012-01-23
NEON.D02.SCBI.DP1.00033,38.892925,-78.139494,364,48.149998,2012-01-23
NEON.D02.SERC.DP1.00033,38.89008,-76.56001,30,35.98,2012-01-23
NEON.D03.BARC.DP1.20002,29.676473,-82.009089,35,26.25,2012-01-23
NEON.D03.DSNY.DP1.00033,28.12505,-81.43619,22,33.489998,2012-01-23
NEON.D03.FLNT.DP1.20002,31.185424,-84.437403,27,38.149998,2012-01-23
NEON.D03.JERC.DP1.00033,31.194839,-84.468623,58,38.149998,2012-01-23
NEON.D03.OSBS.DP1.00033,29.689282,-81.993431,56,38.18,2012-01-23
NEON.D03.SUGG.DP1.20002,29.687054,-82.016171,28,26.25,2012-01-23
NEON.D04.CUPE.DP1.20002,18.11352,-66.98676,164,74.68,2012-01-23
NEON.D04.GUAN.DP1.00033,17.96955,-66.8687,136,53.129997,2012-01-23
NEON.D04.GUIL.DP1.20002,18.1741,-66.79851,564,57.469997,2012-01-23
NEON.D04.LAJA.DP1.00033,18.021261,-67.076889,22,41.1,2012-01-23
NEON.D05.CRAM.DP1.20002,46.21111,-89.47825,518,28.539999,2012-01-23
NEON.D05.LIRO.DP1.20002,45.998269,-89.704767,495,32.95,2012-01-23
NEON.D05.STEI.DP1.00033,45.50894,-89.58637,476,38.489998,2012-01-23
NEON.D05.TREE.DP1.00033,45.49373,-89.58572,474,40.32,2012-01-23
NEON.D05.UNDE.DP1.00033,46.23391,-89.537254,529,43.14,2012-01-23
NEON.D06.KING.DP1.20002,39.10506,-96.60336,339,42.14,2012-01-23
NEON.D06.KONA.DP1.00033,39.110446,-96.612935,443,42.14,2012-01-23
NEON.D06.KONZ.DP1.00033,39.10077,-96.56309,415,52.219997,2012-01-23
NEON.D06.MCDI.DP1.20002,38.94428,-96.44197,376,47.98,2012-01-23
NEON.D06.UKFS.DP1.00033,39.040431,-95.19215,330,39.59,2012-01-23
NEON.D07.GRSM.DP1.00033,35.68896,-83.50195,589,25.47,2012-01-23
NEON.D07.LECO.DP1.20002,35.69043,-83.50379,578,25.47,2012-01-23
NEON.D07.MLBS.DP1.00033,37.378314,-80.524847,1177,57.829998,2012-01-23
NEON.D07.ORNL.DP1.00033,35.964128,-84.282588,351,25.26,2012-01-23
NEON.D07.WALK.DP1.20002,35.95947,-84.28041,274,20.96,2012-01-23
NEON.D08.BLWA.DP1.20002,32.541529,-87.798151,23,48.61,2012-01-23
NEON.D08.DELA.DP1.00033,32.541727,-87.803877,36,48.61,2012-01-23
NEON.D08.LENO.DP1.00033,31.85388,-88.16122,10,50.899998,2012-01-23
NEON.D08.MAYF.DP1.20002,32.959657,-87.408128,93,42.399998,2012-01-23
NEON.D08.TALL.DP1.00033,32.95047,-87.393259,167,71.88,2012-01-23
NEON.D08.TOMB.DP1.20002,31.853431,-88.158872,10,50.899998,2012-01-23
NEON.D09.DCFS.DP1.00033,47.161647,-99.106556,574,51.239998,2012-01-23
NEON.D09.NOGP.DP1.00033,46.76972,-100.91535,589,50.0,2012-01-23
NEON.D09.PRLA.DP1.20002,47.15909,-99.11388,563,53.44,2012-01-23
NEON.D09.PRPO.DP1.20002,47.12999,-99.250551,587,54.559998,2012-01-23
NEON.D09.WOOD.DP1.00033,47.1282,-99.241334,585,54.559998,2012-01-23
NEON.D10.ARIK.DP1.20002,39.758246,-102.447103,1188,50.07,2012-01-23
NEON.D10.CPER.DP1.00033,40.81553,-104.7456,1600,32.34,2012-01-23
NEON.D10.HQTW.DP1.00033,40.016704,-105.245612,1601,25.55,2012-01-23
NEON.D10.RMNP.DP1.00033,40.275903,-105.545955,2751,50.0,2012-01-23
NEON.D10.STER.DP1.00033,40.461894,-103.02929,1366,49.46,2012-01-23
NEON.D11.BLUE.DP1.20002,34.444218,-96.624201,288,75.0,2012-01-23
NEON.D11.CLBJ.DP1.00033,33.40123,-97.57,279,70.0,2012-01-23
NEON.D11.OAES.DP1.00033,35.41059,-99.05879,520,57.6,2012-01-23
NEON.D11.PRIN.DP1.20002,33.37859,-97.78226,255,81.61,2012-01-23
NEON.D12.BLDE.DP1.20002,44.95011,-110.58715,2035,27.46,2012-01-23
NEON.D12.YELL.DP1.00033,44.95348,-110.53914,2130,22.25,2012-01-23
NEON.D13.COMO.DP1.20002,40.03496,-105.54487,3036,56.26,2012-01-23
NEON.D13.MOAB.DP1.00033,38.24833,-109.38827,1803,47.57,2012-01-23
NEON.D13.NIWO.DP1.00033,40.05425,-105.58237,3493,56.309998,2012-01-23
NEON.D13.WLOU.DP1.20002,39.891366,-105.915395,2920,35.54,2012-01-23
NEON.D14.JORN.DP1.00033,32.59068,-106.84254,1321,27.41,2012-01-23
NEON.D14.SRER.DP1.00033,31.91068,-110.83549,999,27.5,2012-01-23
NEON.D14.SYCA.DP1.20002,33.749057,-111.506903,644,62.059998,2012-01-23
NEON.D15.ONAQ.DP1.00033,40.177599,-112.452452,1655,50.0,2012-01-23
NEON.D15.REDB.DP1.20002,40.783934,-111.797887,1696,54.899998,2012-01-23
NEON.D16.ABBY.DP1.00033,45.76243,-122.33033,390,52.68,2012-01-23
NEON.D16.MART.DP1.20002,45.791248,-121.931959,354,56.48,2012-01-23
NEON.D16.MCRA.DP1.20002,44.259598,-122.165554,880,60.98,2012-01-23
NEON.D16.WREF.DP1.00033,45.82049,-121.95191,368,53.96,2012-01-23
NEON.D17.BIGC.DP1.20002,37.059719,-119.257549,1133,53.39,2012-01-23
NEON.D17.SJER.DP1.00033,37.10878,-119.73228,398,17.699999,2012-01-23
NEON.D17.SOAP.DP1.00033,37.03337,-119.26219,1210,60.469997,2012-01-23
NEON.D17.TEAK.DP1.00033,37.00583,-119.00602,2149,55.41,2012-01-23
NEON.D17.TECR.DP1.20002,36.955931,-119.027363,2053,59.48,2012-01-23
NEON.D18.BARR.DP1.00033,71.28241,-156.61936,7,-9999.0,2012-01-23
NEON.D18.OKSR.DP1.20002,68.669753,-149.143018,773,48.27,2012-01-23
NEON.D18.TOOK.DP1.20002,68.629562,-149.610509,715,66.439995,2012-01-23
NEON.D18.TOOL.DP1.00033,68.66109,-149.37047,827,73.29,2012-01-23
NEON.D19.BONA.DP1.00033,65.15401,-147.50258,233,77.729996,2012-01-23
NEON.D19.CARI.DP1.20002,65.15306,-147.50246,229,77.729996,2012-01-23
NEON.D19.DEJU.DP1.00033,63.88112,-145.75136,504,69.42,2012-01-23
NEON.D19.HEAL.DP1.00033,63.87569,-149.21334,409,57.73,2012-01-23
NEON.D20.PUUM.DP1.00033,19.55309,-155.31731,1683,68.0,2012-01-23
nevcansnk3a,39.0099,-114.3095,3063,73.26,2012-01-23
nevcanspg1a,38.9253,-114.4082,1792,58.16,2012-01-23
nevcanspg2a,38.8921,-114.3521,2203,77.53,2012-01-23
nevcanspg3a,38.8898,-114.3314,2820,74.68,2012-01-23
nevcanspg4a,38.9061,-114.3089,3360,74.68,2012-01-23
ninemileprairie,40.86801886,-96.82208066,381,52.239998,2012-01-23
nist,39.139,-77.2125,100,45.46,2012-01-23
niwot3,40.03286358,-105.5469702,3050,56.26,2012-01-23
niwot5,40.03286358,-105.5469702,2993,56.26,2012-01-23
northattleboroma,41.98369,-71.31056,60,50.0,2012-01-23
northinletsaltmarsh,33.3455,-79.1957,1,48.8,2012-01-23
oakville,47.899334,-97.316139,268,50.0,2012-01-23
oregonMP,44.4523,-121.5574,1253,50.0,2012-01-23
oregonYP,44.32384,-121.605993,977,50.0,2012-01-23
oregonYPbud,44.3238,-121.606,977,50.0,2012-01-23
othshardwood,44.934805,-68.6655,41,50.0,2012-01-23
othssoftwood,44.934527,-68.664888,41,50.0,2012-01-23
pace,37.9229,-78.2739,100,41.37,2012-01-23
parkschoolbuffalo,42.9637,-78.7834,205,50.0,2012-01-23
piedmontalpasture2,33.8875,-85.6935,238,53.98,2012-01-23
portal,31.9385,-109.0823,1330,5.17,2012-01-23
proctor,44.525,-72.866,403,46.14,2012-01-23
readingma,42.5304,-71.1272,100,50.86,2012-01-23
robinson,37.4671,-83.1576,483,45.059998,2012-01-23
robinson2,37.4671,-83.1576,483,45.059998,2012-01-23
rosemountcons,44.6946,-93.0578,283,50.0,2012-01-23
rosemountconv,44.691,-93.0576,283,50.0,2012-01-23
rosemountnprs,44.6781,-93.0723,274,50.0,2012-01-23
russellsage,32.456961,-91.974322,20,56.91,2012-01-23
sagehen,39.4315,-120.2398,1934,59.239998,2012-01-23
sagehen2,39.4307,-120.2407,1937,50.0,2012-01-23
sagehen3,39.4311,-120.2405,1935,50.0,2012-01-23
sanford,42.726777,-84.464482,268,50.0,2012-01-23
santacruz1,36.9741,-122.0308,11,51.46,2012-01-23
santacruz2,36.9741,-122.0308,11,51.46,2012-01-23
santaluciapreserve1,36.5265,-121.8682,500,41.66,2012-01-23
santaluciapreserve2,36.5265,-121.8682,500,41.66,2012-01-23
segaarboretum10,35.16209,-111.73151,2170,33.21,2012-01-23
segaarboretum2,35.16209,-111.73151,2170,33.21,2012-01-23
segaarboretum3,35.16209,-111.73151,2170,33.21,2012-01-23
segaarboretum4,35.16214,-111.73153,2170,33.21,2012-01-23
segaarboretum6,35.16209,-111.73151,2170,33.21,2012-01-23
segaarboretum9,35.16222,-111.73158,2170,33.21,2012-01-23
segaarboretumforest,35.1613,-111.7359,2173,33.21,2012-01-23
segaarboretummeadow,35.1621,-111.7316,2157,33.21,2012-01-23
segablackpoint,35.6814,-111.4754,1566,43.1,2012-01-23
segabluechute,35.5876,-111.9716,1930,25.119999,2012-01-23
segabluechute1,35.58759,-111.97115,1931,25.119999,2012-01-23
segabluechute2,35.58759,-111.97115,1931,25.119999,2012-01-23
segabluechute4,35.58759,-111.9716,1931,25.119999,2012-01-23
segabluechute6,35.58759,-111.97115,1931,25.119999,2012-01-23
segabluechute7,35.58759,-111.97115,1931,25.119999,2012-01-23
segabluechute8,35.58759,-111.97115,1931,25.119999,2012-01-23
segabradshaw,34.9109,-111.9285,1402,62.26,2012-01-23
segahartprairie,35.3536,-111.7324,2585,65.25,2012-01-23
segalcr,35.7231,-111.321,1275,42.32,2012-01-23
segalcr2,35.7069,-111.36,1495,44.78,2012-01-23
segalittlemountain,36.5865,-112.3634,2276,45.039997,2012-01-23
segasoapcreek,36.751,-111.716,1233,16.38,2012-01-23
segawhitepockets,36.6081,-112.4082,2057,41.41,2012-01-23
sevilletagrass,34.360444,-106.700186,1600,17.52,2012-01-23
sevilletanewgrass,34.358,-106.6799,1603,17.52,2012-01-23
sevilletashrub,34.334956,-106.744469,1603,22.91,2012-01-23
sevMRME10L,34.3438,-106.7269,1604,34.28,2012-01-23
sevMRME11C,34.3438,-106.7268,1604,34.28,2012-01-23
sevMRME1S,34.3442,-106.7272,1604,19.189999,2012-01-23
sevpjrm12,34.38615,-106.52621,1905,47.09,2012-01-23
sevpjrm13,34.38631,-106.52791,1914,47.09,2012-01-23
shalehillsczo,40.6658,-77.9041,310,38.03,2012-01-23
shenandoah,38.6167,-78.35,1037,45.91,2012-01-23
silverton,44.9986,-122.6948,347,55.09,2012-01-23
siwetland,38.0369,-121.7546,-5,-9999.0,2012-01-23
slatefloodplain,38.9094,-107.0282,2725,34.18,2012-01-23
snodgrass1,38.92619636,-106.9714376,3023,15.0,2012-01-23
snodgrass2,38.92619636,-106.9714376,3023,15.0,2012-01-23
snodgrass3,38.92839978,-106.9781196,3141,15.0,2012-01-23
snodgrass4,38.92839978,-106.9781196,3141,15.0,2012-01-23
snodgrass5,38.92744789,-106.9785209,3152,15.0,2012-01-23
snodgrass6,38.92744789,-106.9785209,3152,15.0,2012-01-23
snodgrass7,38.93142134,-106.9852388,3363,15.0,2012-01-23
snodgrass8,38.93142134,-106.9852388,3363,15.0,2012-01-23
southerngreatplains,36.6058,-97.4888,314,38.079998,2012-01-23
springfieldma,42.135162,-72.585972,56,46.539997,2012-01-23
spruceA0EMI,47.5049,-93.4541,413,53.129997,2012-01-23
spruceA0EMT,47.5049,-93.4541,418,53.129997,2012-01-23
spruceA0P07,47.50493,-93.45314,413,53.129997,2012-01-23
spruceA0P07SH,47.50493,-93.45314,413,53.129997,2012-01-23
spruceA0P21,47.50625,-93.45275,413,53.129997,2012-01-23
spruceA0P21SH,47.50625,-93.45275,413,53.129997,2012-01-23
srg,31.7894,-110.8276,1281,18.21,2012-01-23
srm,31.8214,-110.8661,1116,19.6,2012-01-23
statenrice1,38.1235,-121.549,-5,10.76,2012-01-23
stjones,39.088222,-75.43725,2,33.89,2012-01-23
sweetbriar,37.57341,-79.08482,242,36.57,2012-01-23
sweetbriarclearcut,37.5753,-79.0872,242,36.57,2012-01-23
sweetbriargrass,37.5605,-79.0884,240,36.57,2012-01-23
sylvania,46.242,-89.348,540,52.43,2012-01-23
templefieldstation1,40.1667,-75.1894,105,53.36,2012-01-23
tfforest,43.1086,-70.9505,23,40.14,2012-01-23
tidmarshplymouth,41.9157,-70.5754,9,50.0,2012-01-23
tonzi,38.43091667,-120.9658861,177,23.46,2012-01-23
townsenddemeadow,39.3917,-75.6281,11,43.21,2012-01-23
tsubiology,36.1671,-86.8295,164,7.5499997,2012-01-23
tsubiology2,36.1171,-86.8295,100,20.689999,2012-01-23
tuckerprairie,38.9491,-91.9952,274,43.73,2012-01-23
twodafo,29.1658,-95.829,16,52.449997,2012-01-23
tworfaa,31.4777,-96.8882,167,48.5,2012-01-23
tworfpr,31.4802,-96.8826,162,48.5,2012-01-23
tworfta,31.4693,-96.8864,173,48.5,2012-01-23
twosfpr,30.6176,-97.2938,157,75.56,2012-01-23
ucnrsanzaborrego,33.2401,-116.3886,214,15.219999,2012-01-23
ufona,27.3836,-81.950856,25,36.21,2012-01-23
uiefmaize2,40.0628,-88.1961,224,48.079998,2012-01-23
uiefmiscanthus2,40.0628,-88.1984,221,48.079998,2012-01-23
uiefprairie2,40.0637,-88.1973,224,48.079998,2012-01-23
uiefsorghum,40.0065,-88.2032,224,51.559998,2012-01-23
uiefswitchgrass2,40.0637,-88.1973,224,48.079998,2012-01-23
umichbiological,45.55984,-84.71382,230,24.34,2012-01-23
umichbiological2,45.5625,-84.6976,240,43.989998,2012-01-23
unca,35.5951,-82.5515,650,36.87,2012-01-23
usgseros,43.7343,-96.6234,448,50.0,2012-01-23
usmpj,34.43845,-106.2543606,2126,53.02,2012-01-23
usof5,35.7297,-90.0406,70,26.869999,2012-01-23
usof6,35.7333,-90.0403,70,26.869999,2012-01-23
uwmfieldsta,43.38709,-88.0229,265,50.0,2012-01-23
vaira,38.41328056,-120.9506361,129,25.68,2012-01-23
vallesburnedconifer,35.8884,-106.5321,3043,43.62,2012-01-23
vallesmixedconifer,35.9192,-106.6142,2752,38.52,2012-01-23
vallesponderosapine,35.864,-106.5964,2501,22.58,2012-01-23
waahila,21.3017,-157.8152,55,35.64,2012-01-23
warrenwilson,35.6069,-82.4421,2198,60.129997,2012-01-23
willamettepoplar,44.1368,-123.1823,112,54.559998,2012-01-23
willowcreek,45.805986,-90.07912,521,45.27,2012-01-23
windriver,45.8212833,-121.9520833,371,53.96,2012-01-23
windriverunderstory,45.8212833,-121.9520833,371,53.96,2012-01-23
wolfesneckfarm,43.8305,-70.0715,16,33.79,2012-01-23
worcester,42.2697,-71.8428,185,30.67,2012-01-23
alligatorriver,35.7879,-75.9038,1,44.92,2012-01-30
arbutuslake,43.98207,-74.23322,535,43.079998,2012-01-30
arbutuslakeinlet,43.99336,-74.24527,527,57.489998,2012-01-30
archboldavir,27.176064,-81.21958,8,22.48,2012-01-30
archboldavirx,27.166627,-81.219828,8,22.48,2012-01-30
archboldbahia,27.1656,-81.216112,8,22.48,2012-01-30
archboldpnot,27.187948,-81.200345,9,13.41,2012-01-30
archboldpnotx,27.180677,-81.20068,9,13.41,2012-01-30
arkansascornsoy,34.416,-91.6723,61,46.5,2012-01-30
arsbrooks10,41.9749,-93.6905,312,45.789997,2012-01-30
arsbrooks11,41.9744,-93.6937,313,45.789997,2012-01-30
arscolesnorth,42.4884,-93.5225,356,57.039997,2012-01-30
arscolessouth,42.4816,-93.5235,352,57.039997,2012-01-30
arsgacp1,31.5109,-83.6179,96,43.84,2012-01-30
arsgacp3,31.7563,-83.7516,139,36.989998,2012-01-30
arsgacp4,31.7093,-83.7287,127,56.43,2012-01-30
arsgreatbasinltar098,43.1675,-116.7132,1426,52.51,2012-01-30
arsgreatbasinltar117,43.1432,-116.7357,1625,50.0,2012-01-30
arsgreatbasinltar177,43.0645,-116.7484,2114,52.01,2012-01-30
arsltarmdcr,39.0587,-75.8513,17,49.03,2012-01-30
arsltarmdcrnatw,39.0575,-75.7531,16,42.7,2012-01-30
arsltarmdcrprcw,39.0667,-75.7609,17,45.41,2012-01-30
arsltarmdcrresw,39.0549,-75.7532,16,42.7,2012-01-30
arsltarucbec1,40.7537,-78.0057,400,42.48,2012-01-30
arsltarucbec2,40.7558,-77.9999,396,42.48,2012-01-30
arsmnswanlake1,45.684508,-95.799703,370,45.93,2012-01-30
arsmorris1,45.6167,-96.1269,341,56.699997,2012-01-30
arsmorris2,45.627,-96.127,338,56.699997,2012-01-30
arsmorris3,45.6091,-96.1265,342,47.67,2012-01-30
arsope3ltar,39.0309,-76.8442,41,42.94,2012-01-30
ashburnham,42.6029,-71.926,292,50.0,2012-01-30
asuhighlands,36.2076,-81.7032,1016,53.399998,2012-01-30
austincary,29.738,-82.2188,44,37.309998,2012-01-30
barrow,71.28007453,-156.6091492,5,54.46,2012-01-30
bartlettir,44.0646,-71.2881,268,28.13,2012-01-30
bigtraillake,64.9194,-147.822,190,65.33,2012-01-30
bitterbrush001,48.154,-119.9456,667,57.36,2012-01-30
blackrockforest,41.3974,-74.0239,427,44.559998,2012-01-30
bnzblackspruce,64.6963,-148.3235,102,58.64,2012-01-30
bnzrichfen,64.70134,-148.31195,97,69.64,2012-01-30
bnzthermokarstbog,64.6955,-148.3208,104,58.64,2012-01-30
boglakepeatland,47.5051,-93.4893,416,61.66,2012-01-30
bostoncommon,42.355912,-71.064145,10,17.81,2012-01-30
bostonu,42.35041,-71.10438,10,17.81,2012-01-30
bouldinalfalfa,38.0985,-121.4993,-5,35.6,2012-01-30
bouldincorn,38.109,-121.535,-5,34.399998,2012-01-30
bozeman,45.783056,-110.777778,2332,72.42,2012-01-30
brackishimpoundment,33.2015,-79.2973,1,54.239998,2012-01-30
bullshoals,36.562833,-93.06663,260,59.379997,2012-01-30
burnssagebrush,43.4712,-119.6909,1398,50.0,2012-01-30
butte,45.95304,-112.47964,1682,34.07,2012-01-30
butterice,39.5793,-121.858,33,59.64,2012-01-30
cafboydnorthltar01,46.755104,-117.126052,795,48.289997,2012-01-30
cafboydsouthltar01,46.751809,-117.128502,795,48.289997,2012-01-30
cafcookeastltar01,46.78152,-117.0821,794,32.21,2012-01-30
cafcookwestltar01,46.784037,-117.09083,807,32.21,2012-01-30
caryinstitute,41.7839,-73.7341,127,51.03,2012-01-30
centralredwoods1,38.632272,-123.301511,200,50.0,2012-01-30
centralredwoods2,38.632272,-123.301511,200,50.0,2012-01-30
cperagm,40.8402,-104.7672,1644,39.3,2012-01-30
cperheavy,40.8153,-104.7386,1652,33.27,2012-01-30
cpertgm,40.833,-104.76,1644,32.26,2012-01-30
cperuvb,40.8055764,-104.7558542,1641,33.27,2012-01-30
cuny,40.8162,-73.9507,42,48.43,2012-01-30
doverdesaltmarsh,39.0888,-75.4368,0,34.09,2012-01-30
downerwoods,43.07938,-87.88076,213,55.55,2012-01-30
dukehw,35.973583,-79.100371,400,41.8,2012-01-30
ecb1,41.5348,-84.8068,275,25.939999,2012-01-30
ecb2,41.5321,-84.808,275,25.939999,2012-01-30
ecb4,41.1796,-83.0604,240,29.65,2012-01-30
elverde,18.320654,-65.8199,312,56.329998,2012-01-30
flagstaff,35.17961521,-111.6049032,6983,31.81,2012-01-30
flagstaff2,35.179225,-111.604506,6983,31.81,2012-01-30
flagstaffchimneysprings,35.257296,-111.678542,2250,44.42,2012-01-30
forbes,39.232,-121.2972,360,34.02,2012-01-30
fortpaynealpasture1,34.3824,-85.6428,405,35.19,2012-01-30
fortpaynealpasture2,34.3824,-85.6447,403,43.25,2012-01-30
gcesapelo,31.4440444,-81.283528,0,29.189999,2012-01-30
gilberttract,38.0015,-121.6691,6,23.63,2012-01-30
glees,41.3644,-106.2394,3150,41.19,2012-01-30
glennorganicrice,39.6805,-122.0026,2,22.0,2012-01-30
glennrice,39.5944,-122.0253,36,54.96,2012-01-30
goodnow,43.96018,-74.20994,820,32.329998,2012-01-30
goodwater,39.22848,-92.11936,264,44.2,2012-01-30
goodwaterbau,39.23115,-92.15216,274,40.329998,2012-01-30
grandteton,43.915017,-110.578036,2054,35.95,2012-01-30
grca1pj,36.0241,-112.2211,1978,58.239998,2012-01-30
greenridge1,39.6905,-78.4067,285,44.52,2012-01-30
harvard,42.5378,-72.1715,340,52.5,2012-01-30
harvardbarn,42.53532,-72.1899,350,50.0,2012-01-30
harvardbarn2,42.53532,-72.1899,350,50.0,2012-01-30
harvardems2,42.5378,-72.1715,340,52.5,2012-01-30
harvardfarmnorth,42.520465,-72.182242,355,50.0,2012-01-30
harvardfarmsouth,42.522466,-72.182339,355,50.0,2012-01-30
harvardgarden,42.5291,-72.1863,335,50.0,2012-01-30
harvardhemlock,42.539,-72.18,355,52.5,2012-01-30
harvardhemlock2,42.539407,-72.177976,355,52.5,2012-01-30
harvardlph,42.542,-72.185,380,50.0,2012-01-30
hawbeckereddy,40.6608,-77.848849,310,50.0,2012-01-30
hobcawclearcutlongleaf,33.3486,-79.232,4,48.95,2012-01-30
hobcawmaturelongleaf,33.3242,-79.2439,8,49.98,2012-01-30
homesteadsprings,37.2009,-92.9937,452,51.46,2012-01-30
howland1,45.2041,-68.7403,80,50.809998,2012-01-30
howland2,45.2128,-68.7418,79,50.809998,2012-01-30
hubbardbrook,43.9438,-71.701,253,44.329998,2012-01-30
humnokericea,34.585192,-91.751684,61,41.78,2012-01-30
humnokericec,34.588853,-91.7516729,70,41.78,2012-01-30
huyckpreserveny,42.5266,-74.1587,478,42.16,2012-01-30
hwmo1,20.0212,-155.7331,585,62.51,2012-01-30
hwmo2,19.9766,-155.8298,12,8.74,2012-01-30
hwmo5,20.1117,-155.8151,635,61.559998,2012-01-30
ibp,32.589,-106.847,1325,25.97,2012-01-30
imcrkfen,68.60583,-149.31101,900,64.049995,2012-01-30
imcrkridge0,68.60681,-149.2958,951,64.049995,2012-01-30
imcrkridge1,68.60681,-149.2958,951,64.049995,2012-01-30
imcrktussock,68.60633,-149.30408,918,64.049995,2012-01-30
jasperridge,37.402028,-122.22104,197,27.539999,2012-01-30
jerbajada,32.57992,-106.633793,1402,26.449999,2012-01-30
jergrassland,32.5833,-106.8333,1331,25.97,2012-01-30
jernort,32.619,-106.788,1328,22.0,2012-01-30
jernovel,32.6335,-106.8334,1324,22.46,2012-01-30
jernwern,32.6271,-106.7387,1325,38.559998,2012-01-30
jersand,32.515,-106.798,1363,27.0,2012-01-30
jershrubland,32.6502,-106.8334,1328,22.46,2012-01-30
junipersavannah,34.4254,-105.8615,1931,47.48,2012-01-30
kamuela,20.015008,-155.661326,850,53.789997,2012-01-30
kamuela2,20.014959,-155.661139,830,53.789997,2012-01-30
kansas,39.0561,-95.1907,333,39.55,2012-01-30
kelloggcorn,42.437536,-85.3225472,288,50.0,2012-01-30
kempnrs,45.83992,-89.67755,539,25.58,2012-01-30
kendall,31.73652,-109.94185,1529,39.399998,2012-01-30
konza,39.0824,-96.5603,443,49.879997,2012-01-30
laupahoehoe,19.9322,-155.2912,1145,56.27,2012-01-30
ldeocam,41.0039,-73.9053,121,35.309998,2012-01-30
lostcreek,46.0827,-89.9792,480,43.42,2012-01-30
luckyhills,31.743896,-110.052023,1366,28.43,2012-01-30
macleish,42.4484,-72.6804,251,38.95,2012-01-30
macordway,44.8106,-93.0272,264,50.0,2012-01-30
mandanh5,46.775423,-100.95109,593,50.0,2012-01-30
mandani2,46.7614,-100.9257,590,50.0,2012-01-30
manilacotton,35.8872,-90.1371,73,22.58,2012-01-30
marena,36.06434,-97.21271,327,55.41,2012-01-30
mead1,41.1651,-96.4766,361,47.68,2012-01-30
mead2,41.1649,-96.4701,362,47.68,2012-01-30
mead3,41.1797,-96.4397,363,44.95,2012-01-30
meadpasture,41.1447,-96.4616,356,52.32,2012-01-30
meadpasturese,41.1447,-96.4616,356,52.32,2012-01-30
meadpasturesw,41.1447,-96.4616,356,52.32,2012-01-30
missouriozarks,38.7441,-92.2,219,48.84,2012-01-30
morganmonroe,39.3231,-86.4131,275,56.1,2012-01-30
morganmonroe2,39.3231,-86.4131,275,56.1,2012-01-30
nahuku,19.415187,-155.238383,1202,62.73,2012-01-30
nationalelkrefuge,43.488931,-110.737824,1899,35.2,2012-01-30
ncssm,36.018446,-78.92075,175,9.469999,2012-01-30
NEON.D01.BART.DP1.00033,44.063869,-71.287375,285,46.09,2012-01-30
NEON.D01.HARV.DP1.00033,42.536911,-72.17265,359,52.5,2012-01-30
NEON.D01.HOPB.DP1.20002,42.471786,-72.329627,203,45.0,2012-01-30
NEON.D02.BLAN.DP1.00033,39.033698,-78.041788,162,52.78,2012-01-30
NEON.D02.LEWI.DP1.20002,39.09564,-77.98322,152,45.71,2012-01-30
NEON.D02.POSE.DP1.20002,38.89332,-78.14678,293,48.21,2012-01-30
NEON.D02.SCBI.DP1.00033,38.892925,-78.139494,364,48.21,2012-01-30
NEON.D02.SERC.DP1.00033,38.89008,-76.56001,30,36.89,2012-01-30
NEON.D03.BARC.DP1.20002,29.676473,-82.009089,35,21.43,2012-01-30
NEON.D03.DSNY.DP1.00033,28.12505,-81.43619,22,37.2,2012-01-30
NEON.D03.FLNT.DP1.20002,31.185424,-84.437403,27,39.69,2012-01-30
NEON.D03.JERC.DP1.00033,31.194839,-84.468623,58,39.69,2012-01-30
NEON.D03.OSBS.DP1.00033,29.689282,-81.993431,56,35.399998,2012-01-30
NEON.D03.SUGG.DP1.20002,29.687054,-82.016171,28,21.43,2012-01-30
NEON.D04.CUPE.DP1.20002,18.11352,-66.98676,164,79.33,2012-01-30
NEON.D04.GUAN.DP1.00033,17.96955,-66.8687,136,52.39,2012-01-30
NEON.D04.GUIL.DP1.20002,18.1741,-66.79851,564,49.8,2012-01-30
NEON.D04.LAJA.DP1.00033,18.021261,-67.076889,22,41.8,2012-01-30
NEON.D05.CRAM.DP1.20002,46.21111,-89.47825,518,31.47,2012-01-30
NEON.D05.LIRO.DP1.20002,45.998269,-89.704767,495,34.41,2012-01-30
NEON.D05.STEI.DP1.00033,45.50894,-89.58637,476,45.19,2012-01-30
NEON.D05.TREE.DP1.00033,45.49373,-89.58572,474,43.0,2012-01-30
NEON.D05.UNDE.DP1.00033,46.23391,-89.537254,529,37.739998,2012-01-30
NEON.D06.KING.DP1.20002,39.10506,-96.60336,339,40.85,2012-01-30
NEON.D06.KONA.DP1.00033,39.110446,-96.612935,443,40.85,2012-01-30
NEON.D06.KONZ.DP1.00033,39.10077,-96.56309,415,50.67,2012-01-30
NEON.D06.MCDI.DP1.20002,38.94428,-96.44197,376,46.73,2012-01-30
NEON.D06.UKFS.DP1.00033,39.040431,-95.19215,330,39.55,2012-01-30
NEON.D07.GRSM.DP1.00033,35.68896,-83.50195,589,23.119999,2012-01-30
NEON.D07.LECO.DP1.20002,35.69043,-83.50379,578,23.119999,2012-01-30
NEON.D07.MLBS.DP1.00033,37.378314,-80.524847,1177,61.67,2012-01-30
NEON.D07.ORNL.DP1.00033,35.964128,-84.282588,351,26.14,2012-01-30
NEON.D07.WALK.DP1.20002,35.95947,-84.28041,274,16.71,2012-01-30
NEON.D08.BLWA.DP1.20002,32.541529,-87.798151,23,48.09,2012-01-30
NEON.D08.DELA.DP1.00033,32.541727,-87.803877,36,48.09,2012-01-30
NEON.D08.LENO.DP1.00033,31.85388,-88.16122,10,49.89,2012-01-30
NEON.D08.MAYF.DP1.20002,32.959657,-87.408128,93,45.579998,2012-01-30
NEON.D08.TALL.DP1.00033,32.95047,-87.393259,167,72.13,2012-01-30
NEON.D08.TOMB.DP1.20002,31.853431,-88.158872,10,49.89,2012-01-30
NEON.D09.DCFS.DP1.00033,47.161647,-99.106556,574,50.66,2012-01-30
NEON.D09.NOGP.DP1.00033,46.76972,-100.91535,589,50.0,2012-01-30
NEON.D09.PRLA.DP1.20002,47.15909,-99.11388,563,51.809998,2012-01-30
NEON.D09.PRPO.DP1.20002,47.12999,-99.250551,587,53.129997,2012-01-30
NEON.D09.WOOD.DP1.00033,47.1282,-99.241334,585,53.129997,2012-01-30
NEON.D10.ARIK.DP1.20002,39.758246,-102.447103,1188,51.52,2012-01-30
NEON.D10.CPER.DP1.00033,40.81553,-104.7456,1600,33.27,2012-01-30
NEON.D10.HQTW.DP1.00033,40.016704,-105.245612,1601,27.539999,2012-01-30
NEON.D10.RMNP.DP1.00033,40.275903,-105.545955,2751,54.8,2012-01-30
NEON.D10.STER.DP1.00033,40.461894,-103.02929,1366,51.68,2012-01-30
NEON.D11.BLUE.DP1.20002,34.444218,-96.624201,288,77.27,2012-01-30
NEON.D11.CLBJ.DP1.00033,33.40123,-97.57,279,75.27,2012-01-30
NEON.D11.OAES.DP1.00033,35.41059,-99.05879,520,62.399998,2012-01-30
NEON.D11.PRIN.DP1.20002,33.37859,-97.78226,255,77.979996,2012-01-30
NEON.D12.BLDE.DP1.20002,44.95011,-110.58715,2035,28.25,2012-01-30
NEON.D12.YELL.DP1.00033,44.95348,-110.53914,2130,22.8,2012-01-30
NEON.D13.COMO.DP1.20002,40.03496,-105.54487,3036,61.42,2012-01-30
NEON.D13.MOAB.DP1.00033,38.24833,-109.38827,1803,46.32,2012-01-30
NEON.D13.NIWO.DP1.00033,40.05425,-105.58237,3493,59.18,2012-01-30
NEON.D13.WLOU.DP1.20002,39.891366,-105.915395,2920,34.1,2012-01-30
NEON.D14.JORN.DP1.00033,32.59068,-106.84254,1321,25.97,2012-01-30
NEON.D14.SRER.DP1.00033,31.91068,-110.83549,999,29.91,2012-01-30
NEON.D14.SYCA.DP1.20002,33.749057,-111.506903,644,52.21,2012-01-30
NEON.D15.ONAQ.DP1.00033,40.177599,-112.452452,1655,46.07,2012-01-30
NEON.D15.REDB.DP1.20002,40.783934,-111.797887,1696,54.85,2012-01-30
NEON.D16.ABBY.DP1.00033,45.76243,-122.33033,390,58.02,2012-01-30
NEON.D16.MART.DP1.20002,45.791248,-121.931959,354,59.059998,2012-01-30
NEON.D16.MCRA.DP1.20002,44.259598,-122.165554,880,63.89,2012-01-30
NEON.D16.WREF.DP1.00033,45.82049,-121.95191,368,56.76,2012-01-30
NEON.D17.BIGC.DP1.20002,37.059719,-119.257549,1133,59.289997,2012-01-30
NEON.D17.SJER.DP1.00033,37.10878,-119.73228,398,15.86,2012-01-30
NEON.D17.SOAP.DP1.00033,37.03337,-119.26219,1210,64.08,2012-01-30
NEON.D17.TEAK.DP1.00033,37.00583,-119.00602,2149,54.11,2012-01-30
NEON.D17.TECR.DP1.20002,36.955931,-119.027363,2053,62.5,2012-01-30
NEON.D18.BARR.DP1.00033,71.28241,-156.61936,7,54.46,2012-01-30
NEON.D18.OKSR.DP1.20002,68.669753,-149.143018,773,41.42,2012-01-30
NEON.D18.TOOK.DP1.20002,68.629562,-149.610509,715,59.309998,2012-01-30
NEON.D18.TOOL.DP1.00033,68.66109,-149.37047,827,64.01,2012-01-30
NEON.D19.BONA.DP1.00033,65.15401,-147.50258,233,71.51,2012-01-30
NEON.D19.CARI.DP1.20002,65.15306,-147.50246,229,71.51,2012-01-30
NEON.D19.DEJU.DP1.00033,63.88112,-145.75136,504,68.909996,2012-01-30
NEON.D19.HEAL.DP1.00033,63.87569,-149.21334,409,59.84,2012-01-30
NEON.D20.PUUM.DP1.00033,19.55309,-155.31731,1683,67.96,2012-01-30
nevcansnk3a,39.0099,-114.3095,3063,77.72,2012-01-30
nevcanspg1a,38.9253,-114.4082,1792,62.1,2012-01-30
nevcanspg2a,38.8921,-114.3521,2203,82.479996,2012-01-30
nevcanspg3a,38.8898,-114.3314,2820,77.74,2012-01-30
nevcanspg4a,38.9061,-114.3089,3360,77.74,2012-01-30
ninemileprairie,40.86801886,-96.82208066,381,51.079998,2012-01-30
nist,39.139,-77.2125,100,36.579998,2012-01-30
niwot3,40.03286358,-105.5469702,3050,61.42,2012-01-30
niwot5,40.03286358,-105.5469702,2993,61.42,2012-01-30
northattleboroma,41.98369,-71.31056,60,50.0,2012-01-30
northinletsaltmarsh,33.3455,-79.1957,1,48.95,2012-01-30
oakville,47.899334,-97.316139,268,50.0,2012-01-30
oregonMP,44.4523,-121.5574,1253,50.0,2012-01-30
oregonYP,44.32384,-121.605993,977,50.0,2012-01-30
oregonYPbud,44.3238,-121.606,977,50.0,2012-01-30
othshardwood,44.934805,-68.6655,41,48.84,2012-01-30
othssoftwood,44.934527,-68.664888,41,48.84,2012-01-30
pace,37.9229,-78.2739,100,44.61,2012-01-30
parkschoolbuffalo,42.9637,-78.7834,205,50.0,2012-01-30
piedmontalpasture2,33.8875,-85.6935,238,53.67,2012-01-30
portal,31.9385,-109.0823,1330,1.27,2012-01-30
proctor,44.525,-72.866,403,51.0,2012-01-30
readingma,42.5304,-71.1272,100,54.629997,2012-01-30
robinson,37.4671,-83.1576,483,45.629997,2012-01-30
robinson2,37.4671,-83.1576,483,45.629997,2012-01-30
rosemountcons,44.6946,-93.0578,283,50.0,2012-01-30
rosemountconv,44.691,-93.0576,283,50.0,2012-01-30
rosemountnprs,44.6781,-93.0723,274,50.55,2012-01-30
russellsage,32.456961,-91.974322,20,57.61,2012-01-30
sagehen,39.4315,-120.2398,1934,60.399998,2012-01-30
sagehen2,39.4307,-120.2407,1937,50.0,2012-01-30
sagehen3,39.4311,-120.2405,1935,50.0,2012-01-30
