site,lat,lon,elev,values,date
alligatorriver,35.7879,-75.9038,1,43.82,2022-01-03
arbutuslake,43.98207,-74.23322,535,41.239998,2022-01-03
arbutuslakeinlet,43.99336,-74.24527,527,46.23,2022-01-03
archboldavir,27.176064,-81.21958,8,25.89,2022-01-03
archboldavirx,27.166627,-81.219828,8,25.89,2022-01-03
archboldbahia,27.1656,-81.216112,8,25.89,2022-01-03
archboldpnot,27.187948,-81.200345,9,70.979996,2022-01-03
archboldpnotx,27.180677,-81.20068,9,70.979996,2022-01-03
arkansascornsoy,34.416,-91.6723,61,61.649998,2022-01-03
arsbrooks10,41.9749,-93.6905,312,67.159996,2022-01-03
arsbrooks11,41.9744,-93.6937,313,67.159996,2022-01-03
arscolesnorth,42.4884,-93.5225,356,45.82,2022-01-03
arscolessouth,42.4816,-93.5235,352,45.82,2022-01-03
arsgacp1,31.5109,-83.6179,96,42.719997,2022-01-03
arsgacp3,31.7563,-83.7516,139,36.37,2022-01-03
arsgacp4,31.7093,-83.7287,127,75.61,2022-01-03
arsgreatbasinltar098,43.1675,-116.7132,1426,35.02,2022-01-03
arsgreatbasinltar117,43.1432,-116.7357,1625,39.96,2022-01-03
arsgreatbasinltar177,43.0645,-116.7484,2114,47.85,2022-01-03
arsltarmdcr,39.0587,-75.8513,17,53.289997,2022-01-03
arsltarmdcrnatw,39.0575,-75.7531,16,25.92,2022-01-03
arsltarmdcrprcw,39.0667,-75.7609,17,50.0,2022-01-03
arsltarmdcrresw,39.0549,-75.7532,16,25.92,2022-01-03
arsltarucbec1,40.7537,-78.0057,400,48.77,2022-01-03
arsltarucbec2,40.7558,-77.9999,396,48.77,2022-01-03
arsmnswanlake1,45.684508,-95.799703,370,55.469997,2022-01-03
arsmorris1,45.6167,-96.1269,341,48.399998,2022-01-03
arsmorris2,45.627,-96.127,338,48.399998,2022-01-03
arsmorris3,45.6091,-96.1265,342,43.17,2022-01-03
arsope3ltar,39.0309,-76.8442,41,48.399998,2022-01-03
ashburnham,42.6029,-71.926,292,67.549995,2022-01-03
asuhighlands,36.2076,-81.7032,1016,33.13,2022-01-03
austincary,29.738,-82.2188,44,33.26,2022-01-03
barrow,71.28007453,-156.6091492,5,-9999.0,2022-01-03
bartlettir,44.0646,-71.2881,268,48.149998,2022-01-03
bigtraillake,64.9194,-147.822,190,-9999.0,2022-01-03
bitterbrush001,48.154,-119.9456,667,48.27,2022-01-03
blackrockforest,41.3974,-74.0239,427,31.55,2022-01-03
bnzblackspruce,64.6963,-148.3235,102,-9999.0,2022-01-03
bnzrichfen,64.70134,-148.31195,97,-9999.0,2022-01-03
bnzthermokarstbog,64.6955,-148.3208,104,-9999.0,2022-01-03
boglakepeatland,47.5051,-93.4893,416,34.6,2022-01-03
bostoncommon,42.355912,-71.064145,10,-9999.0,2022-01-03
bostonu,42.35041,-71.10438,10,18.369999,2022-01-03
bouldinalfalfa,38.0985,-121.4993,-5,62.129997,2022-01-03
bouldincorn,38.109,-121.535,-5,51.35,2022-01-03
bozeman,45.783056,-110.777778,2332,50.53,2022-01-03
brackishimpoundment,33.2015,-79.2973,1,34.48,2022-01-03
bullshoals,36.562833,-93.06663,260,25.93,2022-01-03
burnssagebrush,43.4712,-119.6909,1398,51.079998,2022-01-03
butte,45.95304,-112.47964,1682,43.93,2022-01-03
butterice,39.5793,-121.858,33,36.67,2022-01-03
cafboydnorthltar01,46.755104,-117.126052,795,59.989998,2022-01-03
cafboydsouthltar01,46.751809,-117.128502,795,59.989998,2022-01-03
cafcookeastltar01,46.78152,-117.0821,794,45.05,2022-01-03
cafcookwestltar01,46.784037,-117.09083,807,45.05,2022-01-03
caryinstitute,41.7839,-73.7341,127,51.67,2022-01-03
centralredwoods1,38.632272,-123.301511,200,49.25,2022-01-03
centralredwoods2,38.632272,-123.301511,200,49.25,2022-01-03
cperagm,40.8402,-104.7672,1644,60.73,2022-01-03
cperheavy,40.8153,-104.7386,1652,35.54,2022-01-03
cpertgm,40.833,-104.76,1644,46.66,2022-01-03
cperuvb,40.8055764,-104.7558542,1641,35.54,2022-01-03
cuny,40.8162,-73.9507,42,75.299995,2022-01-03
doverdesaltmarsh,39.0888,-75.4368,0,35.0,2022-01-03
downerwoods,43.07938,-87.88076,213,44.39,2022-01-03
dukehw,35.973583,-79.100371,400,46.55,2022-01-03
ecb1,41.5348,-84.8068,275,38.739998,2022-01-03
ecb2,41.5321,-84.808,275,38.739998,2022-01-03
ecb4,41.1796,-83.0604,240,55.21,2022-01-03
elverde,18.320654,-65.8199,312,74.75,2022-01-03
flagstaff,35.17961521,-111.6049032,6983,34.57,2022-01-03
flagstaff2,35.179225,-111.604506,6983,34.57,2022-01-03
flagstaffchimneysprings,35.257296,-111.678542,2250,49.539997,2022-01-03
forbes,39.232,-121.2972,360,76.45,2022-01-03
fortpaynealpasture1,34.3824,-85.6428,405,54.93,2022-01-03
fortpaynealpasture2,34.3824,-85.6447,403,83.95,2022-01-03
gcesapelo,31.4440444,-81.283528,0,50.059998,2022-01-03
gilberttract,38.0015,-121.6691,6,46.25,2022-01-03
glees,41.3644,-106.2394,3150,71.799995,2022-01-03
glennorganicrice,39.6805,-122.0026,2,47.539997,2022-01-03
glennrice,39.5944,-122.0253,36,69.86,2022-01-03
goodnow,43.96018,-74.20994,820,51.76,2022-01-03
goodwater,39.22848,-92.11936,264,53.55,2022-01-03
goodwaterbau,39.23115,-92.15216,274,57.69,2022-01-03
grandteton,43.915017,-110.578036,2054,55.0,2022-01-03
grca1pj,36.0241,-112.2211,1978,58.969997,2022-01-03
greenridge1,39.6905,-78.4067,285,58.23,2022-01-03
harvard,42.5378,-72.1715,340,56.26,2022-01-03
harvardbarn,42.53532,-72.1899,350,38.62,2022-01-03
harvardbarn2,42.53532,-72.1899,350,38.62,2022-01-03
harvardems2,42.5378,-72.1715,340,56.26,2022-01-03
harvardfarmnorth,42.520465,-72.182242,355,38.62,2022-01-03
harvardfarmsouth,42.522466,-72.182339,355,38.62,2022-01-03
harvardgarden,42.5291,-72.1863,335,38.62,2022-01-03
harvardhemlock,42.539,-72.18,355,56.26,2022-01-03
harvardhemlock2,42.539407,-72.177976,355,56.26,2022-01-03
harvardlph,42.542,-72.185,380,38.62,2022-01-03
hawbeckereddy,40.6608,-77.848849,310,51.899998,2022-01-03
hobcawclearcutlongleaf,33.3486,-79.232,4,48.899998,2022-01-03
hobcawmaturelongleaf,33.3242,-79.2439,8,45.41,2022-01-03
homesteadsprings,37.2009,-92.9937,452,56.42,2022-01-03
howland1,45.2041,-68.7403,80,56.59,2022-01-03
howland2,45.2128,-68.7418,79,56.59,2022-01-03
hubbardbrook,43.9438,-71.701,253,59.219997,2022-01-03
humnokericea,34.585192,-91.751684,61,14.63,2022-01-03
humnokericec,34.588853,-91.7516729,70,14.63,2022-01-03
huyckpreserveny,42.5266,-74.1587,478,47.73,2022-01-03
hwmo1,20.0212,-155.7331,585,-9999.0,2022-01-03
hwmo2,19.9766,-155.8298,12,-9999.0,2022-01-03
hwmo5,20.1117,-155.8151,635,-9999.0,2022-01-03
ibp,32.589,-106.847,1325,29.34,2022-01-03
imcrkfen,68.60583,-149.31101,900,-9999.0,2022-01-03
imcrkridge0,68.60681,-149.2958,951,-9999.0,2022-01-03
imcrkridge1,68.60681,-149.2958,951,-9999.0,2022-01-03
imcrktussock,68.60633,-149.30408,918,-9999.0,2022-01-03
jasperridge,37.402028,-122.22104,197,48.399998,2022-01-03
jerbajada,32.57992,-106.633793,1402,36.3,2022-01-03
jergrassland,32.5833,-106.8333,1331,29.34,2022-01-03
jernort,32.619,-106.788,1328,35.78,2022-01-03
jernovel,32.6335,-106.8334,1324,24.99,2022-01-03
jernwern,32.6271,-106.7387,1325,48.879997,2022-01-03
jersand,32.515,-106.798,1363,30.47,2022-01-03
jershrubland,32.6502,-106.8334,1328,24.99,2022-01-03
junipersavannah,34.4254,-105.8615,1931,49.399998,2022-01-03
kamuela,20.015008,-155.661326,850,-9999.0,2022-01-03
kamuela2,20.014959,-155.661139,830,-9999.0,2022-01-03
kansas,39.0561,-95.1907,333,51.98,2022-01-03
kelloggcorn,42.437536,-85.3225472,288,56.48,2022-01-03
kempnrs,45.83992,-89.67755,539,-9999.0,2022-01-03
kendall,31.73652,-109.94185,1529,40.07,2022-01-03
konza,39.0824,-96.5603,443,50.0,2022-01-03
laupahoehoe,19.9322,-155.2912,1145,-9999.0,2022-01-03
ldeocam,41.0039,-73.9053,121,-9999.0,2022-01-03
lostcreek,46.0827,-89.9792,480,55.27,2022-01-03
luckyhills,31.743896,-110.052023,1366,29.539999,2022-01-03
macleish,42.4484,-72.6804,251,52.489998,2022-01-03
macordway,44.8106,-93.0272,264,46.89,2022-01-03
mandanh5,46.775423,-100.95109,593,40.54,2022-01-03
mandani2,46.7614,-100.9257,590,39.309998,2022-01-03
manilacotton,35.8872,-90.1371,73,-9999.0,2022-01-03
marena,36.06434,-97.21271,327,29.34,2022-01-03
mead1,41.1651,-96.4766,361,50.629997,2022-01-03
mead2,41.1649,-96.4701,362,50.629997,2022-01-03
mead3,41.1797,-96.4397,363,52.14,2022-01-03
meadpasture,41.1447,-96.4616,356,53.11,2022-01-03
meadpasturese,41.1447,-96.4616,356,53.11,2022-01-03
meadpasturesw,41.1447,-96.4616,356,53.11,2022-01-03
missouriozarks,38.7441,-92.2,219,60.739998,2022-01-03
morganmonroe,39.3231,-86.4131,275,75.28,2022-01-03
morganmonroe2,39.3231,-86.4131,275,75.28,2022-01-03
nahuku,19.415187,-155.238383,1202,-9999.0,2022-01-03
nationalelkrefuge,43.488931,-110.737824,1899,49.69,2022-01-03
ncssm,36.018446,-78.92075,175,8.65,2022-01-03
NEON.D01.BART.DP1.00033,44.063869,-71.287375,285,34.87,2022-01-03
NEON.D01.HARV.DP1.00033,42.536911,-72.17265,359,56.26,2022-01-03
NEON.D01.HOPB.DP1.20002,42.471786,-72.329627,203,40.6,2022-01-03
NEON.D02.BLAN.DP1.00033,39.033698,-78.041788,162,40.29,2022-01-03
NEON.D02.LEWI.DP1.20002,39.09564,-77.98322,152,38.6,2022-01-03
NEON.D02.POSE.DP1.20002,38.89332,-78.14678,293,48.17,2022-01-03
NEON.D02.SCBI.DP1.00033,38.892925,-78.139494,364,48.17,2022-01-03
NEON.D02.SERC.DP1.00033,38.89008,-76.56001,30,33.11,2022-01-03
NEON.D03.BARC.DP1.20002,29.676473,-82.009089,35,27.8,2022-01-03
NEON.D03.DSNY.DP1.00033,28.12505,-81.43619,22,34.6,2022-01-03
NEON.D03.FLNT.DP1.20002,31.185424,-84.437403,27,2.81,2022-01-03
NEON.D03.JERC.DP1.00033,31.194839,-84.468623,58,53.399998,2022-01-03
NEON.D03.OSBS.DP1.00033,29.689282,-81.993431,56,48.51,2022-01-03
NEON.D03.SUGG.DP1.20002,29.687054,-82.016171,28,27.8,2022-01-03
NEON.D04.CUPE.DP1.20002,18.11352,-66.98676,164,50.829998,2022-01-03
NEON.D04.GUAN.DP1.00033,17.96955,-66.8687,136,44.44,2022-01-03
NEON.D04.GUIL.DP1.20002,18.1741,-66.79851,564,69.689995,2022-01-03
NEON.D04.LAJA.DP1.00033,18.021261,-67.076889,22,41.84,2022-01-03
NEON.D05.CRAM.DP1.20002,46.21111,-89.47825,518,59.079998,2022-01-03
NEON.D05.LIRO.DP1.20002,45.998269,-89.704767,495,25.1,2022-01-03
NEON.D05.STEI.DP1.00033,45.50894,-89.58637,476,35.8,2022-01-03
NEON.D05.TREE.DP1.00033,45.49373,-89.58572,474,33.989998,2022-01-03
NEON.D05.UNDE.DP1.00033,46.23391,-89.537254,529,53.41,2022-01-03
NEON.D06.KING.DP1.20002,39.10506,-96.60336,339,35.51,2022-01-03
NEON.D06.KONA.DP1.00033,39.110446,-96.612935,443,35.51,2022-01-03
NEON.D06.KONZ.DP1.00033,39.10077,-96.56309,415,38.3,2022-01-03
NEON.D06.MCDI.DP1.20002,38.94428,-96.44197,376,44.719997,2022-01-03
NEON.D06.UKFS.DP1.00033,39.040431,-95.19215,330,51.98,2022-01-03
NEON.D07.GRSM.DP1.00033,35.68896,-83.50195,589,35.36,2022-01-03
NEON.D07.LECO.DP1.20002,35.69043,-83.50379,578,35.36,2022-01-03
NEON.D07.MLBS.DP1.00033,37.378314,-80.524847,1177,37.399998,2022-01-03
NEON.D07.ORNL.DP1.00033,35.964128,-84.282588,351,23.58,2022-01-03
NEON.D07.WALK.DP1.20002,35.95947,-84.28041,274,54.489998,2022-01-03
NEON.D08.BLWA.DP1.20002,32.541529,-87.798151,23,37.55,2022-01-03
NEON.D08.DELA.DP1.00033,32.541727,-87.803877,36,37.55,2022-01-03
NEON.D08.LENO.DP1.00033,31.85388,-88.16122,10,62.14,2022-01-03
NEON.D08.MAYF.DP1.20002,32.959657,-87.408128,93,48.14,2022-01-03
NEON.D08.TALL.DP1.00033,32.95047,-87.393259,167,11.38,2022-01-03
NEON.D08.TOMB.DP1.20002,31.853431,-88.158872,10,62.14,2022-01-03
NEON.D09.DCFS.DP1.00033,47.161647,-99.106556,574,34.59,2022-01-03
NEON.D09.NOGP.DP1.00033,46.76972,-100.91535,589,38.07,2022-01-03
NEON.D09.PRLA.DP1.20002,47.15909,-99.11388,563,30.88,2022-01-03
NEON.D09.PRPO.DP1.20002,47.12999,-99.250551,587,40.059998,2022-01-03
NEON.D09.WOOD.DP1.00033,47.1282,-99.241334,585,40.059998,2022-01-03
NEON.D10.ARIK.DP1.20002,39.758246,-102.447103,1188,36.38,2022-01-03
NEON.D10.CPER.DP1.00033,40.81553,-104.7456,1600,35.54,2022-01-03
NEON.D10.HQTW.DP1.00033,40.016704,-105.245612,1601,25.17,2022-01-03
NEON.D10.RMNP.DP1.00033,40.275903,-105.545955,2751,37.079998,2022-01-03
NEON.D10.STER.DP1.00033,40.461894,-103.02929,1366,33.69,2022-01-03
NEON.D11.BLUE.DP1.20002,34.444218,-96.624201,288,25.56,2022-01-03
NEON.D11.CLBJ.DP1.00033,33.40123,-97.57,279,30.74,2022-01-03
NEON.D11.OAES.DP1.00033,35.41059,-99.05879,520,23.38,2022-01-03
NEON.D11.PRIN.DP1.20002,33.37859,-97.78226,255,42.2,2022-01-03
NEON.D12.BLDE.DP1.20002,44.95011,-110.58715,2035,38.059998,2022-01-03
NEON.D12.YELL.DP1.00033,44.95348,-110.53914,2130,35.62,2022-01-03
NEON.D13.COMO.DP1.20002,40.03496,-105.54487,3036,22.289999,2022-01-03
NEON.D13.MOAB.DP1.00033,38.24833,-109.38827,1803,54.719997,2022-01-03
NEON.D13.NIWO.DP1.00033,40.05425,-105.58237,3493,50.0,2022-01-03
NEON.D13.WLOU.DP1.20002,39.891366,-105.915395,2920,24.019999,2022-01-03
NEON.D14.JORN.DP1.00033,32.59068,-106.84254,1321,29.34,2022-01-03
NEON.D14.SRER.DP1.00033,31.91068,-110.83549,999,27.939999,2022-01-03
NEON.D14.SYCA.DP1.20002,33.749057,-111.506903,644,56.399998,2022-01-03
NEON.D15.ONAQ.DP1.00033,40.177599,-112.452452,1655,59.75,2022-01-03
NEON.D15.REDB.DP1.20002,40.783934,-111.797887,1696,31.55,2022-01-03
NEON.D16.ABBY.DP1.00033,45.76243,-122.33033,390,49.62,2022-01-03
NEON.D16.MART.DP1.20002,45.791248,-121.931959,354,35.41,2022-01-03
NEON.D16.MCRA.DP1.20002,44.259598,-122.165554,880,31.699999,2022-01-03
NEON.D16.WREF.DP1.00033,45.82049,-121.95191,368,45.8,2022-01-03
NEON.D17.BIGC.DP1.20002,37.059719,-119.257549,1133,36.73,2022-01-03
NEON.D17.SJER.DP1.00033,37.10878,-119.73228,398,58.77,2022-01-03
NEON.D17.SOAP.DP1.00033,37.03337,-119.26219,1210,36.48,2022-01-03
NEON.D17.TEAK.DP1.00033,37.00583,-119.00602,2149,32.17,2022-01-03
NEON.D17.TECR.DP1.20002,36.955931,-119.027363,2053,25.33,2022-01-03
NEON.D18.BARR.DP1.00033,71.28241,-156.61936,7,-9999.0,2022-01-03
NEON.D18.OKSR.DP1.20002,68.669753,-149.143018,773,-9999.0,2022-01-03
NEON.D18.TOOK.DP1.20002,68.629562,-149.610509,715,-9999.0,2022-01-03
NEON.D18.TOOL.DP1.00033,68.66109,-149.37047,827,-9999.0,2022-01-03
NEON.D19.BONA.DP1.00033,65.15401,-147.50258,233,-9999.0,2022-01-03
NEON.D19.CARI.DP1.20002,65.15306,-147.50246,229,-9999.0,2022-01-03
NEON.D19.DEJU.DP1.00033,63.88112,-145.75136,504,-9999.0,2022-01-03
NEON.D19.HEAL.DP1.00033,63.87569,-149.21334,409,33.82,2022-01-03
NEON.D20.PUUM.DP1.00033,19.55309,-155.31731,1683,-9999.0,2022-01-03
nevcansnk3a,39.0099,-114.3095,3063,38.0,2022-01-03
nevcanspg1a,38.9253,-114.4082,1792,38.52,2022-01-03
nevcanspg2a,38.8921,-114.3521,2203,50.07,2022-01-03
nevcanspg3a,38.8898,-114.3314,2820,63.359997,2022-01-03
nevcanspg4a,38.9061,-114.3089,3360,63.359997,2022-01-03
ninemileprairie,40.86801886,-96.82208066,381,46.6,2022-01-03
nist,39.139,-77.2125,100,57.989998,2022-01-03
niwot3,40.03286358,-105.5469702,3050,22.289999,2022-01-03
niwot5,40.03286358,-105.5469702,2993,22.289999,2022-01-03
northattleboroma,41.98369,-71.31056,60,53.78,2022-01-03
northinletsaltmarsh,33.3455,-79.1957,1,50.0,2022-01-03
oakville,47.899334,-97.316139,268,40.37,2022-01-03
oregonMP,44.4523,-121.5574,1253,55.219997,2022-01-03
oregonYP,44.32384,-121.605993,977,54.129997,2022-01-03
oregonYPbud,44.3238,-121.606,977,54.129997,2022-01-03
othshardwood,44.934805,-68.6655,41,61.03,2022-01-03
othssoftwood,44.934527,-68.664888,41,61.03,2022-01-03
pace,37.9229,-78.2739,100,39.34,2022-01-03
parkschoolbuffalo,42.9637,-78.7834,205,33.14,2022-01-03
piedmontalpasture2,33.8875,-85.6935,238,24.59,2022-01-03
portal,31.9385,-109.0823,1330,11.7699995,2022-01-03
proctor,44.525,-72.866,403,57.079998,2022-01-03
readingma,42.5304,-71.1272,100,31.65,2022-01-03
robinson,37.4671,-83.1576,483,70.76,2022-01-03
robinson2,37.4671,-83.1576,483,70.76,2022-01-03
rosemountcons,44.6946,-93.0578,283,47.71,2022-01-03
rosemountconv,44.691,-93.0576,283,47.71,2022-01-03
rosemountnprs,44.6781,-93.0723,274,34.8,2022-01-03
russellsage,32.456961,-91.974322,20,46.89,2022-01-03
sagehen,39.4315,-120.2398,1934,54.35,2022-01-03
sagehen2,39.4307,-120.2407,1937,45.96,2022-01-03
sagehen3,39.4311,-120.2405,1935,45.96,2022-01-03
sanford,42.726777,-84.464482,268,54.78,2022-01-03
santacruz1,36.9741,-122.0308,11,42.73,2022-01-03
santacruz2,36.9741,-122.0308,11,42.73,2022-01-03
santaluciapreserve1,36.5265,-121.8682,500,57.43,2022-01-03
santaluciapreserve2,36.5265,-121.8682,500,57.43,2022-01-03
segaarboretum10,35.16209,-111.73151,2170,48.809998,2022-01-03
segaarboretum2,35.16209,-111.73151,2170,48.809998,2022-01-03
segaarboretum3,35.16209,-111.73151,2170,48.809998,2022-01-03
segaarboretum4,35.16214,-111.73153,2170,48.809998,2022-01-03
segaarboretum6,35.16209,-111.73151,2170,48.809998,2022-01-03
segaarboretum9,35.16222,-111.73158,2170,48.809998,2022-01-03
segaarboretumforest,35.1613,-111.7359,2173,48.809998,2022-01-03
segaarboretummeadow,35.1621,-111.7316,2157,48.809998,2022-01-03
segablackpoint,35.6814,-111.4754,1566,40.27,2022-01-03
segabluechute,35.5876,-111.9716,1930,26.39,2022-01-03
segabluechute1,35.58759,-111.97115,1931,26.39,2022-01-03
segabluechute2,35.58759,-111.97115,1931,26.39,2022-01-03
segabluechute4,35.58759,-111.9716,1931,26.39,2022-01-03
segabluechute6,35.58759,-111.97115,1931,26.39,2022-01-03
segabluechute7,35.58759,-111.97115,1931,26.39,2022-01-03
segabluechute8,35.58759,-111.97115,1931,26.39,2022-01-03
segabradshaw,34.9109,-111.9285,1402,65.689995,2022-01-03
segahartprairie,35.3536,-111.7324,2585,42.809998,2022-01-03
segalcr,35.7231,-111.321,1275,53.93,2022-01-03
segalcr2,35.7069,-111.36,1495,31.25,2022-01-03
segalittlemountain,36.5865,-112.3634,2276,42.66,2022-01-03
segasoapcreek,36.751,-111.716,1233,0.0,2022-01-03
segawhitepockets,36.6081,-112.4082,2057,30.26,2022-01-03
sevilletagrass,34.360444,-106.700186,1600,47.079998,2022-01-03
sevilletanewgrass,34.358,-106.6799,1603,47.079998,2022-01-03
sevilletashrub,34.334956,-106.744469,1603,47.3,2022-01-03
sevMRME10L,34.3438,-106.7269,1604,50.0,2022-01-03
sevMRME11C,34.3438,-106.7268,1604,50.0,2022-01-03
sevMRME1S,34.3442,-106.7272,1604,55.879997,2022-01-03
sevpjrm12,34.38615,-106.52621,1905,38.62,2022-01-03
sevpjrm13,34.38631,-106.52791,1914,38.62,2022-01-03
shalehillsczo,40.6658,-77.9041,310,45.59,2022-01-03
shenandoah,38.6167,-78.35,1037,57.27,2022-01-03
silverton,44.9986,-122.6948,347,36.69,2022-01-03
siwetland,38.0369,-121.7546,-5,60.53,2022-01-03
slatefloodplain,38.9094,-107.0282,2725,32.76,2022-01-03
snodgrass1,38.92619636,-106.9714376,3023,33.98,2022-01-03
snodgrass2,38.92619636,-106.9714376,3023,33.98,2022-01-03
snodgrass3,38.92839978,-106.9781196,3141,33.98,2022-01-03
snodgrass4,38.92839978,-106.9781196,3141,33.98,2022-01-03
snodgrass5,38.92744789,-106.9785209,3152,33.98,2022-01-03
snodgrass6,38.92744789,-106.9785209,3152,33.98,2022-01-03
snodgrass7,38.93142134,-106.9852388,3363,33.98,2022-01-03
snodgrass8,38.93142134,-106.9852388,3363,33.98,2022-01-03
southerngreatplains,36.6058,-97.4888,314,25.119999,2022-01-03
springfieldma,42.135162,-72.585972,56,36.52,2022-01-03
spruceA0EMI,47.5049,-93.4541,413,57.51,2022-01-03
spruceA0EMT,47.5049,-93.4541,418,57.51,2022-01-03
spruceA0P07,47.50493,-93.45314,413,57.51,2022-01-03
spruceA0P07SH,47.50493,-93.45314,413,57.51,2022-01-03
spruceA0P21,47.50625,-93.45275,413,57.51,2022-01-03
spruceA0P21SH,47.50625,-93.45275,413,57.51,2022-01-03
srg,31.7894,-110.8276,1281,25.57,2022-01-03
srm,31.8214,-110.8661,1116,37.76,2022-01-03
statenrice1,38.1235,-121.549,-5,30.679998,2022-01-03
stjones,39.088222,-75.43725,2,35.0,2022-01-03
sweetbriar,37.57341,-79.08482,242,48.8,2022-01-03
sweetbriarclearcut,37.5753,-79.0872,242,48.8,2022-01-03
sweetbriargrass,37.5605,-79.0884,240,48.8,2022-01-03
sylvania,46.242,-89.348,540,57.41,2022-01-03
templefieldstation1,40.1667,-75.1894,105,59.559998,2022-01-03
tfforest,43.1086,-70.9505,23,65.439995,2022-01-03
tidmarshplymouth,41.9157,-70.5754,9,72.84,2022-01-03
tonzi,38.43091667,-120.9658861,177,80.29,2022-01-03
townsenddemeadow,39.3917,-75.6281,11,59.57,2022-01-03
tsubiology,36.1671,-86.8295,164,37.42,2022-01-03
tsubiology2,36.1171,-86.8295,100,27.88,2022-01-03
tuckerprairie,38.9491,-91.9952,274,56.82,2022-01-03
twodafo,29.1658,-95.829,16,73.82,2022-01-03
tworfaa,31.4777,-96.8882,167,21.56,2022-01-03
tworfpr,31.4802,-96.8826,162,21.56,2022-01-03
tworfta,31.4693,-96.8864,173,21.56,2022-01-03
twosfpr,30.6176,-97.2938,157,40.76,2022-01-03
ucnrsanzaborrego,33.2401,-116.3886,214,0.0,2022-01-03
ufona,27.3836,-81.950856,25,46.37,2022-01-03
uiefmaize2,40.0628,-88.1961,224,66.61,2022-01-03
uiefmiscanthus2,40.0628,-88.1984,221,66.61,2022-01-03
uiefprairie2,40.0637,-88.1973,224,66.61,2022-01-03
uiefsorghum,40.0065,-88.2032,224,61.559998,2022-01-03
uiefswitchgrass2,40.0637,-88.1973,224,66.61,2022-01-03
umichbiological,45.55984,-84.71382,230,45.32,2022-01-03
umichbiological2,45.5625,-84.6976,240,-9999.0,2022-01-03
unca,35.5951,-82.5515,650,50.0,2022-01-03
usgseros,43.7343,-96.6234,448,49.379997,2022-01-03
usmpj,34.43845,-106.2543606,2126,32.41,2022-01-03
usof5,35.7297,-90.0406,70,16.47,2022-01-03
usof6,35.7333,-90.0403,70,16.47,2022-01-03
uwmfieldsta,43.38709,-88.0229,265,42.84,2022-01-03
vaira,38.41328056,-120.9506361,129,79.88,2022-01-03
vallesburnedconifer,35.8884,-106.5321,3043,6.68,2022-01-03
vallesmixedconifer,35.9192,-106.6142,2752,34.87,2022-01-03
vallesponderosapine,35.864,-106.5964,2501,16.73,2022-01-03
waahila,21.3017,-157.8152,55,42.35,2022-01-03
warrenwilson,35.6069,-82.4421,2198,45.87,2022-01-03
willamettepoplar,44.1368,-123.1823,112,28.349998,2022-01-03
willowcreek,45.805986,-90.07912,521,35.34,2022-01-03
windriver,45.8212833,-121.9520833,371,45.8,2022-01-03
windriverunderstory,45.8212833,-121.9520833,371,45.8,2022-01-03
wolfesneckfarm,43.8305,-70.0715,16,-9999.0,2022-01-03
worcester,42.2697,-71.8428,185,28.349998,2022-01-03
alligatorriver,35.7879,-75.9038,1,50.289997,2022-01-10
arbutuslake,43.98207,-74.23322,535,43.969997,2022-01-10
arbutuslakeinlet,43.99336,-74.24527,527,37.76,2022-01-10
archboldavir,27.176064,-81.21958,8,38.27,2022-01-10
archboldavirx,27.166627,-81.219828,8,38.27,2022-01-10
archboldbahia,27.1656,-81.216112,8,38.27,2022-01-10
archboldpnot,27.187948,-81.200345,9,70.479996,2022-01-10
archboldpnotx,27.180677,-81.20068,9,70.479996,2022-01-10
arkansascornsoy,34.416,-91.6723,61,59.469997,2022-01-10
arsbrooks10,41.9749,-93.6905,312,66.29,2022-01-10
arsbrooks11,41.9744,-93.6937,313,66.29,2022-01-10
arscolesnorth,42.4884,-93.5225,356,53.8,2022-01-10
arscolessouth,42.4816,-93.5235,352,53.8,2022-01-10
arsgacp1,31.5109,-83.6179,96,42.469997,2022-01-10
arsgacp3,31.7563,-83.7516,139,41.54,2022-01-10
arsgacp4,31.7093,-83.7287,127,80.92,2022-01-10
arsgreatbasinltar098,43.1675,-116.7132,1426,34.309998,2022-01-10
arsgreatbasinltar117,43.1432,-116.7357,1625,37.59,2022-01-10
arsgreatbasinltar177,43.0645,-116.7484,2114,43.76,2022-01-10
arsltarmdcr,39.0587,-75.8513,17,49.789997,2022-01-10
arsltarmdcrnatw,39.0575,-75.7531,16,31.67,2022-01-10
arsltarmdcrprcw,39.0667,-75.7609,17,54.289997,2022-01-10
arsltarmdcrresw,39.0549,-75.7532,16,31.67,2022-01-10
arsltarucbec1,40.7537,-78.0057,400,42.989998,2022-01-10
arsltarucbec2,40.7558,-77.9999,396,42.989998,2022-01-10
arsmnswanlake1,45.684508,-95.799703,370,61.75,2022-01-10
arsmorris1,45.6167,-96.1269,341,63.469997,2022-01-10
arsmorris2,45.627,-96.127,338,63.469997,2022-01-10
arsmorris3,45.6091,-96.1265,342,53.37,2022-01-10
arsope3ltar,39.0309,-76.8442,41,52.219997,2022-01-10
ashburnham,42.6029,-71.926,292,71.409996,2022-01-10
asuhighlands,36.2076,-81.7032,1016,34.579998,2022-01-10
austincary,29.738,-82.2188,44,42.67,2022-01-10
barrow,71.28007453,-156.6091492,5,-9999.0,2022-01-10
bartlettir,44.0646,-71.2881,268,60.57,2022-01-10
bigtraillake,64.9194,-147.822,190,51.149998,2022-01-10
bitterbrush001,48.154,-119.9456,667,50.34,2022-01-10
blackrockforest,41.3974,-74.0239,427,28.609999,2022-01-10
bnzblackspruce,64.6963,-148.3235,102,60.609997,2022-01-10
bnzrichfen,64.70134,-148.31195,97,39.51,2022-01-10
bnzthermokarstbog,64.6955,-148.3208,104,60.609997,2022-01-10
boglakepeatland,47.5051,-93.4893,416,40.059998,2022-01-10
bostoncommon,42.355912,-71.064145,10,-9999.0,2022-01-10
bostonu,42.35041,-71.10438,10,20.17,2022-01-10
bouldinalfalfa,38.0985,-121.4993,-5,63.239998,2022-01-10
bouldincorn,38.109,-121.535,-5,51.94,2022-01-10
bozeman,45.783056,-110.777778,2332,50.289997,2022-01-10
brackishimpoundment,33.2015,-79.2973,1,39.32,2022-01-10
bullshoals,36.562833,-93.06663,260,24.859999,2022-01-10
burnssagebrush,43.4712,-119.6909,1398,47.57,2022-01-10
butte,45.95304,-112.47964,1682,47.89,2022-01-10
butterice,39.5793,-121.858,33,42.45,2022-01-10
cafboydnorthltar01,46.755104,-117.126052,795,59.539997,2022-01-10
cafboydsouthltar01,46.751809,-117.128502,795,59.539997,2022-01-10
cafcookeastltar01,46.78152,-117.0821,794,45.46,2022-01-10
cafcookwestltar01,46.784037,-117.09083,807,45.46,2022-01-10
caryinstitute,41.7839,-73.7341,127,53.18,2022-01-10
centralredwoods1,38.632272,-123.301511,200,50.8,2022-01-10
centralredwoods2,38.632272,-123.301511,200,50.8,2022-01-10
cperagm,40.8402,-104.7672,1644,62.739998,2022-01-10
cperheavy,40.8153,-104.7386,1652,34.82,2022-01-10
cpertgm,40.833,-104.76,1644,45.35,2022-01-10
cperuvb,40.8055764,-104.7558542,1641,34.82,2022-01-10
cuny,40.8162,-73.9507,42,76.03,2022-01-10
doverdesaltmarsh,39.0888,-75.4368,0,34.79,2022-01-10
downerwoods,43.07938,-87.88076,213,44.75,2022-01-10
dukehw,35.973583,-79.100371,400,45.7,2022-01-10
ecb1,41.5348,-84.8068,275,39.18,2022-01-10
ecb2,41.5321,-84.808,275,39.18,2022-01-10
ecb4,41.1796,-83.0604,240,55.11,2022-01-10
elverde,18.320654,-65.8199,312,75.84,2022-01-10
flagstaff,35.17961521,-111.6049032,6983,38.239998,2022-01-10
flagstaff2,35.179225,-111.604506,6983,38.239998,2022-01-10
flagstaffchimneysprings,35.257296,-111.678542,2250,52.07,2022-01-10
forbes,39.232,-121.2972,360,69.95,2022-01-10
fortpaynealpasture1,34.3824,-85.6428,405,55.19,2022-01-10
fortpaynealpasture2,34.3824,-85.6447,403,86.759995,2022-01-10
gcesapelo,31.4440444,-81.283528,0,51.48,2022-01-10
gilberttract,38.0015,-121.6691,6,47.82,2022-01-10
glees,41.3644,-106.2394,3150,71.32,2022-01-10
glennorganicrice,39.6805,-122.0026,2,52.309998,2022-01-10
glennrice,39.5944,-122.0253,36,70.61,2022-01-10
goodnow,43.96018,-74.20994,820,51.85,2022-01-10
goodwater,39.22848,-92.11936,264,57.17,2022-01-10
goodwaterbau,39.23115,-92.15216,274,58.379997,2022-01-10
grandteton,43.915017,-110.578036,2054,55.719997,2022-01-10
grca1pj,36.0241,-112.2211,1978,58.879997,2022-01-10
greenridge1,39.6905,-78.4067,285,54.1,2022-01-10
harvard,42.5378,-72.1715,340,71.729996,2022-01-10
harvardbarn,42.53532,-72.1899,350,46.219997,2022-01-10
harvardbarn2,42.53532,-72.1899,350,46.219997,2022-01-10
harvardems2,42.5378,-72.1715,340,71.729996,2022-01-10
harvardfarmnorth,42.520465,-72.182242,355,46.219997,2022-01-10
harvardfarmsouth,42.522466,-72.182339,355,46.219997,2022-01-10
harvardgarden,42.5291,-72.1863,335,46.219997,2022-01-10
harvardhemlock,42.539,-72.18,355,71.729996,2022-01-10
harvardhemlock2,42.539407,-72.177976,355,71.729996,2022-01-10
harvardlph,42.542,-72.185,380,46.219997,2022-01-10
hawbeckereddy,40.6608,-77.848849,310,55.93,2022-01-10
hobcawclearcutlongleaf,33.3486,-79.232,4,50.93,2022-01-10
hobcawmaturelongleaf,33.3242,-79.2439,8,46.44,2022-01-10
homesteadsprings,37.2009,-92.9937,452,56.289997,2022-01-10
howland1,45.2041,-68.7403,80,63.489998,2022-01-10
howland2,45.2128,-68.7418,79,63.489998,2022-01-10
hubbardbrook,43.9438,-71.701,253,64.18,2022-01-10
humnokericea,34.585192,-91.751684,61,18.529999,2022-01-10
humnokericec,34.588853,-91.7516729,70,18.529999,2022-01-10
huyckpreserveny,42.5266,-74.1587,478,49.27,2022-01-10
hwmo1,20.0212,-155.7331,585,-9999.0,2022-01-10
hwmo2,19.9766,-155.8298,12,-9999.0,2022-01-10
hwmo5,20.1117,-155.8151,635,-9999.0,2022-01-10
ibp,32.589,-106.847,1325,39.21,2022-01-10
imcrkfen,68.60583,-149.31101,900,-9999.0,2022-01-10
imcrkridge0,68.60681,-149.2958,951,-9999.0,2022-01-10
imcrkridge1,68.60681,-149.2958,951,-9999.0,2022-01-10
imcrktussock,68.60633,-149.30408,918,-9999.0,2022-01-10
jasperridge,37.402028,-122.22104,197,53.809998,2022-01-10
jerbajada,32.57992,-106.633793,1402,39.53,2022-01-10
jergrassland,32.5833,-106.8333,1331,39.21,2022-01-10
jernort,32.619,-106.788,1328,35.41,2022-01-10
jernovel,32.6335,-106.8334,1324,30.46,2022-01-10
jernwern,32.6271,-106.7387,1325,48.3,2022-01-10
jersand,32.515,-106.798,1363,33.68,2022-01-10
jershrubland,32.6502,-106.8334,1328,30.46,2022-01-10
junipersavannah,34.4254,-105.8615,1931,50.649998,2022-01-10
kamuela,20.015008,-155.661326,850,-9999.0,2022-01-10
kamuela2,20.014959,-155.661139,830,-9999.0,2022-01-10
kansas,39.0561,-95.1907,333,52.11,2022-01-10
kelloggcorn,42.437536,-85.3225472,288,57.84,2022-01-10
kempnrs,45.83992,-89.67755,539,-9999.0,2022-01-10
kendall,31.73652,-109.94185,1529,55.16,2022-01-10
konza,39.0824,-96.5603,443,56.489998,2022-01-10
laupahoehoe,19.9322,-155.2912,1145,-9999.0,2022-01-10
ldeocam,41.0039,-73.9053,121,-9999.0,2022-01-10
lostcreek,46.0827,-89.9792,480,62.39,2022-01-10
luckyhills,31.743896,-110.052023,1366,47.219997,2022-01-10
macleish,42.4484,-72.6804,251,54.48,2022-01-10
macordway,44.8106,-93.0272,264,41.719997,2022-01-10
mandanh5,46.775423,-100.95109,593,42.86,2022-01-10
mandani2,46.7614,-100.9257,590,42.71,2022-01-10
manilacotton,35.8872,-90.1371,73,-9999.0,2022-01-10
marena,36.06434,-97.21271,327,22.55,2022-01-10
mead1,41.1651,-96.4766,361,55.3,2022-01-10
mead2,41.1649,-96.4701,362,55.3,2022-01-10
mead3,41.1797,-96.4397,363,57.23,2022-01-10
meadpasture,41.1447,-96.4616,356,54.92,2022-01-10
meadpasturese,41.1447,-96.4616,356,54.92,2022-01-10
meadpasturesw,41.1447,-96.4616,356,54.92,2022-01-10
missouriozarks,38.7441,-92.2,219,64.75,2022-01-10
morganmonroe,39.3231,-86.4131,275,77.67,2022-01-10
morganmonroe2,39.3231,-86.4131,275,77.67,2022-01-10
nahuku,19.415187,-155.238383,1202,-9999.0,2022-01-10
nationalelkrefuge,43.488931,-110.737824,1899,59.37,2022-01-10
ncssm,36.018446,-78.92075,175,23.08,2022-01-10
NEON.D01.BART.DP1.00033,44.063869,-71.287375,285,23.43,2022-01-10
NEON.D01.HARV.DP1.00033,42.536911,-72.17265,359,71.729996,2022-01-10
NEON.D01.HOPB.DP1.20002,42.471786,-72.329627,203,47.67,2022-01-10
NEON.D02.BLAN.DP1.00033,39.033698,-78.041788,162,43.64,2022-01-10
NEON.D02.LEWI.DP1.20002,39.09564,-77.98322,152,45.89,2022-01-10
NEON.D02.POSE.DP1.20002,38.89332,-78.14678,293,46.399998,2022-01-10
NEON.D02.SCBI.DP1.00033,38.892925,-78.139494,364,46.399998,2022-01-10
NEON.D02.SERC.DP1.00033,38.89008,-76.56001,30,36.649998,2022-01-10
NEON.D03.BARC.DP1.20002,29.676473,-82.009089,35,38.489998,2022-01-10
NEON.D03.DSNY.DP1.00033,28.12505,-81.43619,22,33.57,2022-01-10
NEON.D03.FLNT.DP1.20002,31.185424,-84.437403,27,16.52,2022-01-10
NEON.D03.JERC.DP1.00033,31.194839,-84.468623,58,63.68,2022-01-10
NEON.D03.OSBS.DP1.00033,29.689282,-81.993431,56,51.039997,2022-01-10
NEON.D03.SUGG.DP1.20002,29.687054,-82.016171,28,38.489998,2022-01-10
NEON.D04.CUPE.DP1.20002,18.11352,-66.98676,164,49.91,2022-01-10
NEON.D04.GUAN.DP1.00033,17.96955,-66.8687,136,44.719997,2022-01-10
NEON.D04.GUIL.DP1.20002,18.1741,-66.79851,564,85.729996,2022-01-10
NEON.D04.LAJA.DP1.00033,18.021261,-67.076889,22,40.57,2022-01-10
NEON.D05.CRAM.DP1.20002,46.21111,-89.47825,518,71.189995,2022-01-10
NEON.D05.LIRO.DP1.20002,45.998269,-89.704767,495,29.56,2022-01-10
NEON.D05.STEI.DP1.00033,45.50894,-89.58637,476,40.96,2022-01-10
NEON.D05.TREE.DP1.00033,45.49373,-89.58572,474,41.61,2022-01-10
NEON.D05.UNDE.DP1.00033,46.23391,-89.537254,529,57.149998,2022-01-10
NEON.D06.KING.DP1.20002,39.10506,-96.60336,339,34.469997,2022-01-10
NEON.D06.KONA.DP1.00033,39.110446,-96.612935,443,34.469997,2022-01-10
NEON.D06.KONZ.DP1.00033,39.10077,-96.56309,415,36.68,2022-01-10
NEON.D06.MCDI.DP1.20002,38.94428,-96.44197,376,41.46,2022-01-10
NEON.D06.UKFS.DP1.00033,39.040431,-95.19215,330,52.11,2022-01-10
NEON.D07.GRSM.DP1.00033,35.68896,-83.50195,589,38.39,2022-01-10
NEON.D07.LECO.DP1.20002,35.69043,-83.50379,578,38.39,2022-01-10
NEON.D07.MLBS.DP1.00033,37.378314,-80.524847,1177,48.11,2022-01-10
NEON.D07.ORNL.DP1.00033,35.964128,-84.282588,351,43.07,2022-01-10
NEON.D07.WALK.DP1.20002,35.95947,-84.28041,274,66.56,2022-01-10
NEON.D08.BLWA.DP1.20002,32.541529,-87.798151,23,40.66,2022-01-10
NEON.D08.DELA.DP1.00033,32.541727,-87.803877,36,40.66,2022-01-10
NEON.D08.LENO.DP1.00033,31.85388,-88.16122,10,63.559998,2022-01-10
NEON.D08.MAYF.DP1.20002,32.959657,-87.408128,93,47.01,2022-01-10
NEON.D08.TALL.DP1.00033,32.95047,-87.393259,167,8.0199995,2022-01-10
NEON.D08.TOMB.DP1.20002,31.853431,-88.158872,10,63.559998,2022-01-10
NEON.D09.DCFS.DP1.00033,47.161647,-99.106556,574,35.28,2022-01-10
NEON.D09.NOGP.DP1.00033,46.76972,-100.91535,589,47.289997,2022-01-10
NEON.D09.PRLA.DP1.20002,47.15909,-99.11388,563,31.019999,2022-01-10
NEON.D09.PRPO.DP1.20002,47.12999,-99.250551,587,42.64,2022-01-10
NEON.D09.WOOD.DP1.00033,47.1282,-99.241334,585,42.64,2022-01-10
NEON.D10.ARIK.DP1.20002,39.758246,-102.447103,1188,37.04,2022-01-10
NEON.D10.CPER.DP1.00033,40.81553,-104.7456,1600,34.82,2022-01-10
NEON.D10.HQTW.DP1.00033,40.016704,-105.245612,1601,21.74,2022-01-10
NEON.D10.RMNP.DP1.00033,40.275903,-105.545955,2751,39.399998,2022-01-10
NEON.D10.STER.DP1.00033,40.461894,-103.02929,1366,33.14,2022-01-10
NEON.D11.BLUE.DP1.20002,34.444218,-96.624201,288,25.35,2022-01-10
NEON.D11.CLBJ.DP1.00033,33.40123,-97.57,279,36.25,2022-01-10
NEON.D11.OAES.DP1.00033,35.41059,-99.05879,520,26.269999,2022-01-10
NEON.D11.PRIN.DP1.20002,33.37859,-97.78226,255,33.94,2022-01-10
NEON.D12.BLDE.DP1.20002,44.95011,-110.58715,2035,36.19,2022-01-10
NEON.D12.YELL.DP1.00033,44.95348,-110.53914,2130,33.5,2022-01-10
NEON.D13.COMO.DP1.20002,40.03496,-105.54487,3036,11.719999,2022-01-10
NEON.D13.MOAB.DP1.00033,38.24833,-109.38827,1803,47.879997,2022-01-10
NEON.D13.NIWO.DP1.00033,40.05425,-105.58237,3493,55.039997,2022-01-10
NEON.D13.WLOU.DP1.20002,39.891366,-105.915395,2920,26.51,2022-01-10
NEON.D14.JORN.DP1.00033,32.59068,-106.84254,1321,39.21,2022-01-10
NEON.D14.SRER.DP1.00033,31.91068,-110.83549,999,35.75,2022-01-10
NEON.D14.SYCA.DP1.20002,33.749057,-111.506903,644,55.469997,2022-01-10
NEON.D15.ONAQ.DP1.00033,40.177599,-112.452452,1655,58.239998,2022-01-10
NEON.D15.REDB.DP1.20002,40.783934,-111.797887,1696,31.41,2022-01-10
NEON.D16.ABBY.DP1.00033,45.76243,-122.33033,390,54.25,2022-01-10
NEON.D16.MART.DP1.20002,45.791248,-121.931959,354,42.26,2022-01-10
NEON.D16.MCRA.DP1.20002,44.259598,-122.165554,880,31.15,2022-01-10
NEON.D16.WREF.DP1.00033,45.82049,-121.95191,368,28.99,2022-01-10
NEON.D17.BIGC.DP1.20002,37.059719,-119.257549,1133,34.51,2022-01-10
NEON.D17.SJER.DP1.00033,37.10878,-119.73228,398,56.91,2022-01-10
NEON.D17.SOAP.DP1.00033,37.03337,-119.26219,1210,28.92,2022-01-10
NEON.D17.TEAK.DP1.00033,37.00583,-119.00602,2149,35.59,2022-01-10
NEON.D17.TECR.DP1.20002,36.955931,-119.027363,2053,22.519999,2022-01-10
NEON.D18.BARR.DP1.00033,71.28241,-156.61936,7,-9999.0,2022-01-10
NEON.D18.OKSR.DP1.20002,68.669753,-149.143018,773,-9999.0,2022-01-10
NEON.D18.TOOK.DP1.20002,68.629562,-149.610509,715,-9999.0,2022-01-10
NEON.D18.TOOL.DP1.00033,68.66109,-149.37047,827,-9999.0,2022-01-10
NEON.D19.BONA.DP1.00033,65.15401,-147.50258,233,47.61,2022-01-10
NEON.D19.CARI.DP1.20002,65.15306,-147.50246,229,47.61,2022-01-10
NEON.D19.DEJU.DP1.00033,63.88112,-145.75136,504,21.98,2022-01-10
NEON.D19.HEAL.DP1.00033,63.87569,-149.21334,409,30.279999,2022-01-10
NEON.D20.PUUM.DP1.00033,19.55309,-155.31731,1683,-9999.0,2022-01-10
nevcansnk3a,39.0099,-114.3095,3063,30.859999,2022-01-10
nevcanspg1a,38.9253,-114.4082,1792,38.17,2022-01-10
nevcanspg2a,38.8921,-114.3521,2203,58.1,2022-01-10
nevcanspg3a,38.8898,-114.3314,2820,61.719997,2022-01-10
nevcanspg4a,38.9061,-114.3089,3360,61.719997,2022-01-10
ninemileprairie,40.86801886,-96.82208066,381,50.59,2022-01-10
nist,39.139,-77.2125,100,68.229996,2022-01-10
niwot3,40.03286358,-105.5469702,3050,11.719999,2022-01-10
niwot5,40.03286358,-105.5469702,2993,11.719999,2022-01-10
northattleboroma,41.98369,-71.31056,60,57.26,2022-01-10
northinletsaltmarsh,33.3455,-79.1957,1,50.0,2022-01-10
oakville,47.899334,-97.316139,268,43.329998,2022-01-10
oregonMP,44.4523,-121.5574,1253,53.239998,2022-01-10
oregonYP,44.32384,-121.605993,977,42.57,2022-01-10
oregonYPbud,44.3238,-121.606,977,42.57,2022-01-10
othshardwood,44.934805,-68.6655,41,69.15,2022-01-10
othssoftwood,44.934527,-68.664888,41,69.15,2022-01-10
pace,37.9229,-78.2739,100,28.519999,2022-01-10
parkschoolbuffalo,42.9637,-78.7834,205,33.899998,2022-01-10
piedmontalpasture2,33.8875,-85.6935,238,34.91,2022-01-10
portal,31.9385,-109.0823,1330,19.97,2022-01-10
proctor,44.525,-72.866,403,63.6,2022-01-10
readingma,42.5304,-71.1272,100,32.41,2022-01-10
robinson,37.4671,-83.1576,483,73.0,2022-01-10
robinson2,37.4671,-83.1576,483,73.0,2022-01-10
rosemountcons,44.6946,-93.0578,283,46.26,2022-01-10
rosemountconv,44.691,-93.0576,283,46.26,2022-01-10
rosemountnprs,44.6781,-93.0723,274,40.36,2022-01-10
russellsage,32.456961,-91.974322,20,50.0,2022-01-10
sagehen,39.4315,-120.2398,1934,57.62,2022-01-10
sagehen2,39.4307,-120.2407,1937,48.67,2022-01-10
sagehen3,39.4311,-120.2405,1935,48.67,2022-01-10
sanford,42.726777,-84.464482,268,57.02,2022-01-10
santacruz1,36.9741,-122.0308,11,41.54,2022-01-10
santacruz2,36.9741,-122.0308,11,41.54,2022-01-10
santaluciapreserve1,36.5265,-121.8682,500,58.93,2022-01-10
santaluciapreserve2,36.5265,-121.8682,500,58.93,2022-01-10
segaarboretum10,35.16209,-111.73151,2170,51.42,2022-01-10
segaarboretum2,35.16209,-111.73151,2170,51.42,2022-01-10
segaarboretum3,35.16209,-111.73151,2170,51.42,2022-01-10
segaarboretum4,35.16214,-111.73153,2170,51.42,2022-01-10
segaarboretum6,35.16209,-111.73151,2170,51.42,2022-01-10
segaarboretum9,35.16222,-111.73158,2170,51.42,2022-01-10
segaarboretumforest,35.1613,-111.7359,2173,51.42,2022-01-10
segaarboretummeadow,35.1621,-111.7316,2157,51.42,2022-01-10
segablackpoint,35.6814,-111.4754,1566,42.39,2022-01-10
segabluechute,35.5876,-111.9716,1930,26.599998,2022-01-10
segabluechute1,35.58759,-111.97115,1931,26.599998,2022-01-10
segabluechute2,35.58759,-111.97115,1931,26.599998,2022-01-10
segabluechute4,35.58759,-111.9716,1931,26.599998,2022-01-10
segabluechute6,35.58759,-111.97115,1931,26.599998,2022-01-10
segabluechute7,35.58759,-111.97115,1931,26.599998,2022-01-10
segabluechute8,35.58759,-111.97115,1931,26.599998,2022-01-10
segabradshaw,34.9109,-111.9285,1402,67.26,2022-01-10
segahartprairie,35.3536,-111.7324,2585,43.489998,2022-01-10
segalcr,35.7231,-111.321,1275,51.87,2022-01-10
segalcr2,35.7069,-111.36,1495,30.429998,2022-01-10
segalittlemountain,36.5865,-112.3634,2276,42.48,2022-01-10
segasoapcreek,36.751,-111.716,1233,11.19,2022-01-10
segawhitepockets,36.6081,-112.4082,2057,29.65,2022-01-10
sevilletagrass,34.360444,-106.700186,1600,27.3,2022-01-10
sevilletanewgrass,34.358,-106.6799,1603,27.3,2022-01-10
sevilletashrub,34.334956,-106.744469,1603,35.05,2022-01-10
sevMRME10L,34.3438,-106.7269,1604,31.179998,2022-01-10
sevMRME11C,34.3438,-106.7268,1604,31.179998,2022-01-10
sevMRME1S,34.3442,-106.7272,1604,46.1,2022-01-10
sevpjrm12,34.38615,-106.52621,1905,40.91,2022-01-10
sevpjrm13,34.38631,-106.52791,1914,40.91,2022-01-10
shalehillsczo,40.6658,-77.9041,310,39.64,2022-01-10
shenandoah,38.6167,-78.35,1037,51.489998,2022-01-10
silverton,44.9986,-122.6948,347,35.54,2022-01-10
siwetland,38.0369,-121.7546,-5,62.039997,2022-01-10
slatefloodplain,38.9094,-107.0282,2725,38.77,2022-01-10
snodgrass1,38.92619636,-106.9714376,3023,31.599998,2022-01-10
snodgrass2,38.92619636,-106.9714376,3023,31.599998,2022-01-10
snodgrass3,38.92839978,-106.9781196,3141,31.599998,2022-01-10
snodgrass4,38.92839978,-106.9781196,3141,31.599998,2022-01-10
snodgrass5,38.92744789,-106.9785209,3152,31.599998,2022-01-10
snodgrass6,38.92744789,-106.9785209,3152,31.599998,2022-01-10
snodgrass7,38.93142134,-106.9852388,3363,31.599998,2022-01-10
snodgrass8,38.93142134,-106.9852388,3363,31.599998,2022-01-10
southerngreatplains,36.6058,-97.4888,314,23.89,2022-01-10
springfieldma,42.135162,-72.585972,56,35.87,2022-01-10
spruceA0EMI,47.5049,-93.4541,413,63.699997,2022-01-10
spruceA0EMT,47.5049,-93.4541,418,63.699997,2022-01-10
spruceA0P07,47.50493,-93.45314,413,63.699997,2022-01-10
spruceA0P07SH,47.50493,-93.45314,413,63.699997,2022-01-10
spruceA0P21,47.50625,-93.45275,413,63.699997,2022-01-10
spruceA0P21SH,47.50625,-93.45275,413,63.699997,2022-01-10
srg,31.7894,-110.8276,1281,27.269999,2022-01-10
srm,31.8214,-110.8661,1116,35.73,2022-01-10
statenrice1,38.1235,-121.549,-5,34.42,2022-01-10
stjones,39.088222,-75.43725,2,34.79,2022-01-10
sweetbriar,37.57341,-79.08482,242,44.399998,2022-01-10
sweetbriarclearcut,37.5753,-79.0872,242,44.399998,2022-01-10
sweetbriargrass,37.5605,-79.0884,240,44.399998,2022-01-10
sylvania,46.242,-89.348,540,70.59,2022-01-10
templefieldstation1,40.1667,-75.1894,105,64.29,2022-01-10
tfforest,43.1086,-70.9505,23,63.37,2022-01-10
tidmarshplymouth,41.9157,-70.5754,9,68.33,2022-01-10
tonzi,38.43091667,-120.9658861,177,78.95,2022-01-10
townsenddemeadow,39.3917,-75.6281,11,48.98,2022-01-10
tsubiology,36.1671,-86.8295,164,43.3,2022-01-10
tsubiology2,36.1171,-86.8295,100,27.369999,2022-01-10
tuckerprairie,38.9491,-91.9952,274,61.539997,2022-01-10
twodafo,29.1658,-95.829,16,65.34,2022-01-10
tworfaa,31.4777,-96.8882,167,22.15,2022-01-10
tworfpr,31.4802,-96.8826,162,22.15,2022-01-10
tworfta,31.4693,-96.8864,173,22.15,2022-01-10
twosfpr,30.6176,-97.2938,157,40.85,2022-01-10
ucnrsanzaborrego,33.2401,-116.3886,214,0.0,2022-01-10
ufona,27.3836,-81.950856,25,50.0,2022-01-10
uiefmaize2,40.0628,-88.1961,224,67.76,2022-01-10
uiefmiscanthus2,40.0628,-88.1984,221,67.76,2022-01-10
uiefprairie2,40.0637,-88.1973,224,67.76,2022-01-10
uiefsorghum,40.0065,-88.2032,224,62.1,2022-01-10
uiefswitchgrass2,40.0637,-88.1973,224,67.76,2022-01-10
umichbiological,45.55984,-84.71382,230,50.17,2022-01-10
umichbiological2,45.5625,-84.6976,240,-9999.0,2022-01-10
unca,35.5951,-82.5515,650,64.82,2022-01-10
usgseros,43.7343,-96.6234,448,53.96,2022-01-10
usmpj,34.43845,-106.2543606,2126,33.48,2022-01-10
usof5,35.7297,-90.0406,70,12.58,2022-01-10
usof6,35.7333,-90.0403,70,12.58,2022-01-10
uwmfieldsta,43.38709,-88.0229,265,40.18,2022-01-10
vaira,38.41328056,-120.9506361,129,77.31,2022-01-10
vallesburnedconifer,35.8884,-106.5321,3043,10.99,2022-01-10
vallesmixedconifer,35.9192,-106.6142,2752,36.98,2022-01-10
vallesponderosapine,35.864,-106.5964,2501,21.99,2022-01-10
waahila,21.3017,-157.8152,55,38.79,2022-01-10
warrenwilson,35.6069,-82.4421,2198,45.89,2022-01-10
willamettepoplar,44.1368,-123.1823,112,27.269999,2022-01-10
willowcreek,45.805986,-90.07912,521,47.309998,2022-01-10
windriver,45.8212833,-121.9520833,371,28.99,2022-01-10
windriverunderstory,45.8212833,-121.9520833,371,28.99,2022-01-10
wolfesneckfarm,43.8305,-70.0715,16,-9999.0,2022-01-10
worcester,42.2697,-71.8428,185,27.849998,2022-01-10
alligatorriver,35.7879,-75.9038,1,50.78,2022-01-17
arbutuslake,43.98207,-74.23322,535,48.39,2022-01-17
arbutuslakeinlet,43.99336,-74.24527,527,41.84,2022-01-17
archboldavir,27.176064,-81.21958,8,42.25,2022-01-17
archboldavirx,27.166627,-81.219828,8,42.25,2022-01-17
archboldbahia,27.1656,-81.216112,8,42.25,2022-01-17
archboldpnot,27.187948,-81.200345,9,73.08,2022-01-17
archboldpnotx,27.180677,-81.20068,9,73.08,2022-01-17
arkansascornsoy,34.416,-91.6723,61,59.75,2022-01-17
arsbrooks10,41.9749,-93.6905,312,66.67,2022-01-17
arsbrooks11,41.9744,-93.6937,313,66.67,2022-01-17
arscolesnorth,42.4884,-93.5225,356,54.48,2022-01-17
arscolessouth,42.4816,-93.5235,352,54.48,2022-01-17
arsgacp1,31.5109,-83.6179,96,44.68,2022-01-17
arsgacp3,31.7563,-83.7516,139,42.68,2022-01-17
arsgacp4,31.7093,-83.7287,127,82.0,2022-01-17
arsgreatbasinltar098,43.1675,-116.7132,1426,31.46,2022-01-17
arsgreatbasinltar117,43.1432,-116.7357,1625,36.6,2022-01-17
arsgreatbasinltar177,43.0645,-116.7484,2114,44.3,2022-01-17
arsltarmdcr,39.0587,-75.8513,17,53.579998,2022-01-17
arsltarmdcrnatw,39.0575,-75.7531,16,39.71,2022-01-17
arsltarmdcrprcw,39.0667,-75.7609,17,60.0,2022-01-17
arsltarmdcrresw,39.0549,-75.7532,16,39.71,2022-01-17
arsltarucbec1,40.7537,-78.0057,400,41.45,2022-01-17
arsltarucbec2,40.7558,-77.9999,396,41.45,2022-01-17
arsmnswanlake1,45.684508,-95.799703,370,67.86,2022-01-17
arsmorris1,45.6167,-96.1269,341,63.09,2022-01-17
arsmorris2,45.627,-96.127,338,63.09,2022-01-17
arsmorris3,45.6091,-96.1265,342,55.03,2022-01-17
arsope3ltar,39.0309,-76.8442,41,56.18,2022-01-17
ashburnham,42.6029,-71.926,292,72.02,2022-01-17
asuhighlands,36.2076,-81.7032,1016,48.46,2022-01-17
austincary,29.738,-82.2188,44,44.48,2022-01-17
barrow,71.28007453,-156.6091492,5,-9999.0,2022-01-17
bartlettir,44.0646,-71.2881,268,60.98,2022-01-17
bigtraillake,64.9194,-147.822,190,48.5,2022-01-17
bitterbrush001,48.154,-119.9456,667,49.45,2022-01-17
blackrockforest,41.3974,-74.0239,427,31.15,2022-01-17
bnzblackspruce,64.6963,-148.3235,102,55.66,2022-01-17
bnzrichfen,64.70134,-148.31195,97,37.51,2022-01-17
bnzthermokarstbog,64.6955,-148.3208,104,55.66,2022-01-17
boglakepeatland,47.5051,-93.4893,416,44.86,2022-01-17
bostoncommon,42.355912,-71.064145,10,-9999.0,2022-01-17
bostonu,42.35041,-71.10438,10,25.109999,2022-01-17
bouldinalfalfa,38.0985,-121.4993,-5,63.859997,2022-01-17
bouldincorn,38.109,-121.535,-5,55.25,2022-01-17
bozeman,45.783056,-110.777778,2332,52.75,2022-01-17
brackishimpoundment,33.2015,-79.2973,1,40.16,2022-01-17
bullshoals,36.562833,-93.06663,260,29.74,2022-01-17
burnssagebrush,43.4712,-119.6909,1398,42.52,2022-01-17
butte,45.95304,-112.47964,1682,52.64,2022-01-17
butterice,39.5793,-121.858,33,46.01,2022-01-17
cafboydnorthltar01,46.755104,-117.126052,795,57.86,2022-01-17
cafboydsouthltar01,46.751809,-117.128502,795,57.86,2022-01-17
cafcookeastltar01,46.78152,-117.0821,794,45.19,2022-01-17
cafcookwestltar01,46.784037,-117.09083,807,45.19,2022-01-17
caryinstitute,41.7839,-73.7341,127,56.199997,2022-01-17
centralredwoods1,38.632272,-123.301511,200,51.309998,2022-01-17
centralredwoods2,38.632272,-123.301511,200,51.309998,2022-01-17
cperagm,40.8402,-104.7672,1644,62.27,2022-01-17
cperheavy,40.8153,-104.7386,1652,33.62,2022-01-17
cpertgm,40.833,-104.76,1644,42.719997,2022-01-17
cperuvb,40.8055764,-104.7558542,1641,33.62,2022-01-17
cuny,40.8162,-73.9507,42,77.46,2022-01-17
doverdesaltmarsh,39.0888,-75.4368,0,37.579998,2022-01-17
downerwoods,43.07938,-87.88076,213,45.35,2022-01-17
dukehw,35.973583,-79.100371,400,59.739998,2022-01-17
ecb1,41.5348,-84.8068,275,38.44,2022-01-17
ecb2,41.5321,-84.808,275,38.44,2022-01-17
ecb4,41.1796,-83.0604,240,51.199997,2022-01-17
elverde,18.320654,-65.8199,312,66.54,2022-01-17
flagstaff,35.17961521,-111.6049032,6983,41.86,2022-01-17
flagstaff2,35.179225,-111.604506,6983,41.86,2022-01-17
flagstaffchimneysprings,35.257296,-111.678542,2250,47.87,2022-01-17
forbes,39.232,-121.2972,360,61.51,2022-01-17
fortpaynealpasture1,34.3824,-85.6428,405,65.14,2022-01-17
fortpaynealpasture2,34.3824,-85.6447,403,89.909996,2022-01-17
gcesapelo,31.4440444,-81.283528,0,51.0,2022-01-17
gilberttract,38.0015,-121.6691,6,47.559998,2022-01-17
glees,41.3644,-106.2394,3150,67.83,2022-01-17
glennorganicrice,39.6805,-122.0026,2,44.93,2022-01-17
glennrice,39.5944,-122.0253,36,71.17,2022-01-17
goodnow,43.96018,-74.20994,820,52.379997,2022-01-17
goodwater,39.22848,-92.11936,264,59.059998,2022-01-17
goodwaterbau,39.23115,-92.15216,274,55.219997,2022-01-17
grandteton,43.915017,-110.578036,2054,53.879997,2022-01-17
grca1pj,36.0241,-112.2211,1978,55.55,2022-01-17
greenridge1,39.6905,-78.4067,285,49.579998,2022-01-17
harvard,42.5378,-72.1715,340,68.07,2022-01-17
harvardbarn,42.53532,-72.1899,350,42.129997,2022-01-17
harvardbarn2,42.53532,-72.1899,350,42.129997,2022-01-17
harvardems2,42.5378,-72.1715,340,68.07,2022-01-17
harvardfarmnorth,42.520465,-72.182242,355,42.129997,2022-01-17
harvardfarmsouth,42.522466,-72.182339,355,42.129997,2022-01-17
harvardgarden,42.5291,-72.1863,335,42.129997,2022-01-17
harvardhemlock,42.539,-72.18,355,68.07,2022-01-17
harvardhemlock2,42.539407,-72.177976,355,68.07,2022-01-17
harvardlph,42.542,-72.185,380,42.129997,2022-01-17
hawbeckereddy,40.6608,-77.848849,310,44.27,2022-01-17
hobcawclearcutlongleaf,33.3486,-79.232,4,52.989998,2022-01-17
hobcawmaturelongleaf,33.3242,-79.2439,8,50.82,2022-01-17
homesteadsprings,37.2009,-92.9937,452,52.84,2022-01-17
howland1,45.2041,-68.7403,80,72.7,2022-01-17
howland2,45.2128,-68.7418,79,72.7,2022-01-17
hubbardbrook,43.9438,-71.701,253,59.34,2022-01-17
humnokericea,34.585192,-91.751684,61,17.91,2022-01-17
humnokericec,34.588853,-91.7516729,70,17.91,2022-01-17
huyckpreserveny,42.5266,-74.1587,478,48.92,2022-01-17
hwmo1,20.0212,-155.7331,585,-9999.0,2022-01-17
hwmo2,19.9766,-155.8298,12,-9999.0,2022-01-17
hwmo5,20.1117,-155.8151,635,-9999.0,2022-01-17
ibp,32.589,-106.847,1325,39.989998,2022-01-17
imcrkfen,68.60583,-149.31101,900,-9999.0,2022-01-17
imcrkridge0,68.60681,-149.2958,951,-9999.0,2022-01-17
imcrkridge1,68.60681,-149.2958,951,-9999.0,2022-01-17
imcrktussock,68.60633,-149.30408,918,-9999.0,2022-01-17
jasperridge,37.402028,-122.22104,197,52.05,2022-01-17
jerbajada,32.57992,-106.633793,1402,43.079998,2022-01-17
jergrassland,32.5833,-106.8333,1331,39.989998,2022-01-17
jernort,32.619,-106.788,1328,35.09,2022-01-17
jernovel,32.6335,-106.8334,1324,31.15,2022-01-17
jernwern,32.6271,-106.7387,1325,47.96,2022-01-17
jersand,32.515,-106.798,1363,39.25,2022-01-17
jershrubland,32.6502,-106.8334,1328,31.15,2022-01-17
junipersavannah,34.4254,-105.8615,1931,50.53,2022-01-17
kamuela,20.015008,-155.661326,850,-9999.0,2022-01-17
kamuela2,20.014959,-155.661139,830,-9999.0,2022-01-17
kansas,39.0561,-95.1907,333,57.57,2022-01-17
kelloggcorn,42.437536,-85.3225472,288,52.37,2022-01-17
kempnrs,45.83992,-89.67755,539,-9999.0,2022-01-17
kendall,31.73652,-109.94185,1529,58.19,2022-01-17
konza,39.0824,-96.5603,443,56.059998,2022-01-17
laupahoehoe,19.9322,-155.2912,1145,-9999.0,2022-01-17
ldeocam,41.0039,-73.9053,121,-9999.0,2022-01-17
lostcreek,46.0827,-89.9792,480,61.94,2022-01-17
luckyhills,31.743896,-110.052023,1366,51.16,2022-01-17
macleish,42.4484,-72.6804,251,55.92,2022-01-17
macordway,44.8106,-93.0272,264,44.12,2022-01-17
mandanh5,46.775423,-100.95109,593,44.39,2022-01-17
mandani2,46.7614,-100.9257,590,41.46,2022-01-17
manilacotton,35.8872,-90.1371,73,-9999.0,2022-01-17
marena,36.06434,-97.21271,327,32.27,2022-01-17
mead1,41.1651,-96.4766,361,52.77,2022-01-17
mead2,41.1649,-96.4701,362,52.77,2022-01-17
mead3,41.1797,-96.4397,363,57.969997,2022-01-17
meadpasture,41.1447,-96.4616,356,55.62,2022-01-17
meadpasturese,41.1447,-96.4616,356,55.62,2022-01-17
meadpasturesw,41.1447,-96.4616,356,55.62,2022-01-17
missouriozarks,38.7441,-92.2,219,66.78,2022-01-17
morganmonroe,39.3231,-86.4131,275,75.29,2022-01-17
morganmonroe2,39.3231,-86.4131,275,75.29,2022-01-17
nahuku,19.415187,-155.238383,1202,-9999.0,2022-01-17
nationalelkrefuge,43.488931,-110.737824,1899,60.42,2022-01-17
ncssm,36.018446,-78.92075,175,30.49,2022-01-17
NEON.D01.BART.DP1.00033,44.063869,-71.287375,285,24.82,2022-01-17
NEON.D01.HARV.DP1.00033,42.536911,-72.17265,359,68.07,2022-01-17
NEON.D01.HOPB.DP1.20002,42.471786,-72.329627,203,51.239998,2022-01-17
NEON.D02.BLAN.DP1.00033,39.033698,-78.041788,162,38.399998,2022-01-17
NEON.D02.LEWI.DP1.20002,39.09564,-77.98322,152,43.379997,2022-01-17
NEON.D02.POSE.DP1.20002,38.89332,-78.14678,293,47.34,2022-01-17
NEON.D02.SCBI.DP1.00033,38.892925,-78.139494,364,47.34,2022-01-17
NEON.D02.SERC.DP1.00033,38.89008,-76.56001,30,40.92,2022-01-17
NEON.D03.BARC.DP1.20002,29.676473,-82.009089,35,54.21,2022-01-17
NEON.D03.DSNY.DP1.00033,28.12505,-81.43619,22,37.73,2022-01-17
NEON.D03.FLNT.DP1.20002,31.185424,-84.437403,27,23.68,2022-01-17
NEON.D03.JERC.DP1.00033,31.194839,-84.468623,58,65.58,2022-01-17
NEON.D03.OSBS.DP1.00033,29.689282,-81.993431,56,52.03,2022-01-17
NEON.D03.SUGG.DP1.20002,29.687054,-82.016171,28,54.21,2022-01-17
NEON.D04.CUPE.DP1.20002,18.11352,-66.98676,164,48.61,2022-01-17
NEON.D04.GUAN.DP1.00033,17.96955,-66.8687,136,46.28,2022-01-17
NEON.D04.GUIL.DP1.20002,18.1741,-66.79851,564,82.14,2022-01-17
NEON.D04.LAJA.DP1.00033,18.021261,-67.076889,22,38.649998,2022-01-17
NEON.D05.CRAM.DP1.20002,46.21111,-89.47825,518,84.08,2022-01-17
NEON.D05.LIRO.DP1.20002,45.998269,-89.704767,495,41.05,2022-01-17
NEON.D05.STEI.DP1.00033,45.50894,-89.58637,476,42.75,2022-01-17
NEON.D05.TREE.DP1.00033,45.49373,-89.58572,474,44.96,2022-01-17
NEON.D05.UNDE.DP1.00033,46.23391,-89.537254,529,67.01,2022-01-17
NEON.D06.KING.DP1.20002,39.10506,-96.60336,339,34.75,2022-01-17
NEON.D06.KONA.DP1.00033,39.110446,-96.612935,443,34.75,2022-01-17
NEON.D06.KONZ.DP1.00033,39.10077,-96.56309,415,37.239998,2022-01-17
NEON.D06.MCDI.DP1.20002,38.94428,-96.44197,376,40.91,2022-01-17
NEON.D06.UKFS.DP1.00033,39.040431,-95.19215,330,57.57,2022-01-17
NEON.D07.GRSM.DP1.00033,35.68896,-83.50195,589,41.85,2022-01-17
NEON.D07.LECO.DP1.20002,35.69043,-83.50379,578,41.85,2022-01-17
NEON.D07.MLBS.DP1.00033,37.378314,-80.524847,1177,55.89,2022-01-17
NEON.D07.ORNL.DP1.00033,35.964128,-84.282588,351,54.1,2022-01-17
NEON.D07.WALK.DP1.20002,35.95947,-84.28041,274,69.7,2022-01-17
NEON.D08.BLWA.DP1.20002,32.541529,-87.798151,23,49.059998,2022-01-17
NEON.D08.DELA.DP1.00033,32.541727,-87.803877,36,49.059998,2022-01-17
NEON.D08.LENO.DP1.00033,31.85388,-88.16122,10,77.42,2022-01-17
NEON.D08.MAYF.DP1.20002,32.959657,-87.408128,93,55.649998,2022-01-17
NEON.D08.TALL.DP1.00033,32.95047,-87.393259,167,19.22,2022-01-17
NEON.D08.TOMB.DP1.20002,31.853431,-88.158872,10,77.42,2022-01-17
NEON.D09.DCFS.DP1.00033,47.161647,-99.106556,574,38.41,2022-01-17
NEON.D09.NOGP.DP1.00033,46.76972,-100.91535,589,47.25,2022-01-17
NEON.D09.PRLA.DP1.20002,47.15909,-99.11388,563,31.96,2022-01-17
NEON.D09.PRPO.DP1.20002,47.12999,-99.250551,587,46.59,2022-01-17
NEON.D09.WOOD.DP1.00033,47.1282,-99.241334,585,46.59,2022-01-17
NEON.D10.ARIK.DP1.20002,39.758246,-102.447103,1188,38.64,2022-01-17
NEON.D10.CPER.DP1.00033,40.81553,-104.7456,1600,33.62,2022-01-17
NEON.D10.HQTW.DP1.00033,40.016704,-105.245612,1601,20.93,2022-01-17
NEON.D10.RMNP.DP1.00033,40.275903,-105.545955,2751,45.5,2022-01-17
NEON.D10.STER.DP1.00033,40.461894,-103.02929,1366,33.7,2022-01-17
NEON.D11.BLUE.DP1.20002,34.444218,-96.624201,288,21.63,2022-01-17
NEON.D11.CLBJ.DP1.00033,33.40123,-97.57,279,39.71,2022-01-17
NEON.D11.OAES.DP1.00033,35.41059,-99.05879,520,28.33,2022-01-17
NEON.D11.PRIN.DP1.20002,33.37859,-97.78226,255,25.439999,2022-01-17
NEON.D12.BLDE.DP1.20002,44.95011,-110.58715,2035,35.21,2022-01-17
NEON.D12.YELL.DP1.00033,44.95348,-110.53914,2130,36.35,2022-01-17
NEON.D13.COMO.DP1.20002,40.03496,-105.54487,3036,28.109999,2022-01-17
NEON.D13.MOAB.DP1.00033,38.24833,-109.38827,1803,47.149998,2022-01-17
NEON.D13.NIWO.DP1.00033,40.05425,-105.58237,3493,56.879997,2022-01-17
NEON.D13.WLOU.DP1.20002,39.891366,-105.915395,2920,26.4,2022-01-17
NEON.D14.JORN.DP1.00033,32.59068,-106.84254,1321,39.989998,2022-01-17
NEON.D14.SRER.DP1.00033,31.91068,-110.83549,999,41.54,2022-01-17
NEON.D14.SYCA.DP1.20002,33.749057,-111.506903,644,47.59,2022-01-17
NEON.D15.ONAQ.DP1.00033,40.177599,-112.452452,1655,56.42,2022-01-17
NEON.D15.REDB.DP1.20002,40.783934,-111.797887,1696,31.51,2022-01-17
NEON.D16.ABBY.DP1.00033,45.76243,-122.33033,390,58.059998,2022-01-17
NEON.D16.MART.DP1.20002,45.791248,-121.931959,354,45.5,2022-01-17
NEON.D16.MCRA.DP1.20002,44.259598,-122.165554,880,39.91,2022-01-17
NEON.D16.WREF.DP1.00033,45.82049,-121.95191,368,27.539999,2022-01-17
NEON.D17.BIGC.DP1.20002,37.059719,-119.257549,1133,27.66,2022-01-17
NEON.D17.SJER.DP1.00033,37.10878,-119.73228,398,54.57,2022-01-17
NEON.D17.SOAP.DP1.00033,37.03337,-119.26219,1210,25.75,2022-01-17
NEON.D17.TEAK.DP1.00033,37.00583,-119.00602,2149,31.09,2022-01-17
NEON.D17.TECR.DP1.20002,36.955931,-119.027363,2053,26.17,2022-01-17
NEON.D18.BARR.DP1.00033,71.28241,-156.61936,7,-9999.0,2022-01-17
NEON.D18.OKSR.DP1.20002,68.669753,-149.143018,773,-9999.0,2022-01-17
NEON.D18.TOOK.DP1.20002,68.629562,-149.610509,715,-9999.0,2022-01-17
NEON.D18.TOOL.DP1.00033,68.66109,-149.37047,827,-9999.0,2022-01-17
NEON.D19.BONA.DP1.00033,65.15401,-147.50258,233,45.76,2022-01-17
NEON.D19.CARI.DP1.20002,65.15306,-147.50246,229,45.76,2022-01-17
NEON.D19.DEJU.DP1.00033,63.88112,-145.75136,504,21.48,2022-01-17
NEON.D19.HEAL.DP1.00033,63.87569,-149.21334,409,29.22,2022-01-17
NEON.D20.PUUM.DP1.00033,19.55309,-155.31731,1683,-9999.0,2022-01-17
nevcansnk3a,39.0099,-114.3095,3063,35.75,2022-01-17
nevcanspg1a,38.9253,-114.4082,1792,35.8,2022-01-17
nevcanspg2a,38.8921,-114.3521,2203,57.84,2022-01-17
nevcanspg3a,38.8898,-114.3314,2820,60.69,2022-01-17
nevcanspg4a,38.9061,-114.3089,3360,60.69,2022-01-17
ninemileprairie,40.86801886,-96.82208066,381,53.69,2022-01-17
nist,39.139,-77.2125,100,76.97,2022-01-17
niwot3,40.03286358,-105.5469702,3050,28.109999,2022-01-17
niwot5,40.03286358,-105.5469702,2993,28.109999,2022-01-17
northattleboroma,41.98369,-71.31056,60,56.84,2022-01-17
northinletsaltmarsh,33.3455,-79.1957,1,50.0,2022-01-17
oakville,47.899334,-97.316139,268,45.6,2022-01-17
oregonMP,44.4523,-121.5574,1253,52.03,2022-01-17
oregonYP,44.32384,-121.605993,977,44.309998,2022-01-17
oregonYPbud,44.3238,-121.606,977,44.309998,2022-01-17
othshardwood,44.934805,-68.6655,41,69.54,2022-01-17
othssoftwood,44.934527,-68.664888,41,69.54,2022-01-17
pace,37.9229,-78.2739,100,34.53,2022-01-17
parkschoolbuffalo,42.9637,-78.7834,205,32.59,2022-01-17
piedmontalpasture2,33.8875,-85.6935,238,38.829998,2022-01-17
portal,31.9385,-109.0823,1330,20.72,2022-01-17
proctor,44.525,-72.866,403,67.24,2022-01-17
readingma,42.5304,-71.1272,100,31.529999,2022-01-17
robinson,37.4671,-83.1576,483,75.08,2022-01-17
robinson2,37.4671,-83.1576,483,75.08,2022-01-17
rosemountcons,44.6946,-93.0578,283,45.219997,2022-01-17
rosemountconv,44.691,-93.0576,283,45.219997,2022-01-17
rosemountnprs,44.6781,-93.0723,274,40.059998,2022-01-17
russellsage,32.456961,-91.974322,20,52.75,2022-01-17
sagehen,39.4315,-120.2398,1934,59.16,2022-01-17
sagehen2,39.4307,-120.2407,1937,48.239998,2022-01-17
sagehen3,39.4311,-120.2405,1935,48.239998,2022-01-17
sanford,42.726777,-84.464482,268,47.82,2022-01-17
santacruz1,36.9741,-122.0308,11,40.37,2022-01-17
santacruz2,36.9741,-122.0308,11,40.37,2022-01-17
santaluciapreserve1,36.5265,-121.8682,500,58.43,2022-01-17
santaluciapreserve2,36.5265,-121.8682,500,58.43,2022-01-17
segaarboretum10,35.16209,-111.73151,2170,53.989998,2022-01-17
segaarboretum2,35.16209,-111.73151,2170,53.989998,2022-01-17
segaarboretum3,35.16209,-111.73151,2170,53.989998,2022-01-17
segaarboretum4,35.16214,-111.73153,2170,53.989998,2022-01-17
segaarboretum6,35.16209,-111.73151,2170,53.989998,2022-01-17
segaarboretum9,35.16222,-111.73158,2170,53.989998,2022-01-17
segaarboretumforest,35.1613,-111.7359,2173,53.989998,2022-01-17
segaarboretummeadow,35.1621,-111.7316,2157,53.989998,2022-01-17
segablackpoint,35.6814,-111.4754,1566,43.98,2022-01-17
segabluechute,35.5876,-111.9716,1930,27.859999,2022-01-17
segabluechute1,35.58759,-111.97115,1931,27.859999,2022-01-17
segabluechute2,35.58759,-111.97115,1931,27.859999,2022-01-17
segabluechute4,35.58759,-111.9716,1931,27.859999,2022-01-17
segabluechute6,35.58759,-111.97115,1931,27.859999,2022-01-17
segabluechute7,35.58759,-111.97115,1931,27.859999,2022-01-17
segabluechute8,35.58759,-111.97115,1931,27.859999,2022-01-17
segabradshaw,34.9109,-111.9285,1402,62.57,2022-01-17
segahartprairie,35.3536,-111.7324,2585,49.96,2022-01-17
segalcr,35.7231,-111.321,1275,42.5,2022-01-17
segalcr2,35.7069,-111.36,1495,27.58,2022-01-17
segalittlemountain,36.5865,-112.3634,2276,41.77,2022-01-17
segasoapcreek,36.751,-111.716,1233,13.46,2022-01-17
segawhitepockets,36.6081,-112.4082,2057,26.779999,2022-01-17
sevilletagrass,34.360444,-106.700186,1600,27.519999,2022-01-17
sevilletanewgrass,34.358,-106.6799,1603,27.519999,2022-01-17
sevilletashrub,34.334956,-106.744469,1603,36.239998,2022-01-17
sevMRME10L,34.3438,-106.7269,1604,32.63,2022-01-17
sevMRME11C,34.3438,-106.7268,1604,32.63,2022-01-17
sevMRME1S,34.3442,-106.7272,1604,49.17,2022-01-17
sevpjrm12,34.38615,-106.52621,1905,40.42,2022-01-17
sevpjrm13,34.38631,-106.52791,1914,40.42,2022-01-17
shalehillsczo,40.6658,-77.9041,310,41.46,2022-01-17
shenandoah,38.6167,-78.35,1037,45.14,2022-01-17
silverton,44.9986,-122.6948,347,36.57,2022-01-17
siwetland,38.0369,-121.7546,-5,62.059998,2022-01-17
slatefloodplain,38.9094,-107.0282,2725,44.71,2022-01-17
snodgrass1,38.92619636,-106.9714376,3023,24.189999,2022-01-17
snodgrass2,38.92619636,-106.9714376,3023,24.189999,2022-01-17
snodgrass3,38.92839978,-106.9781196,3141,24.189999,2022-01-17
snodgrass4,38.92839978,-106.9781196,3141,24.189999,2022-01-17
snodgrass5,38.92744789,-106.9785209,3152,24.189999,2022-01-17
snodgrass6,38.92744789,-106.9785209,3152,24.189999,2022-01-17
snodgrass7,38.93142134,-106.9852388,3363,24.189999,2022-01-17
snodgrass8,38.93142134,-106.9852388,3363,24.189999,2022-01-17
southerngreatplains,36.6058,-97.4888,314,18.6,2022-01-17
springfieldma,42.135162,-72.585972,56,42.42,2022-01-17
spruceA0EMI,47.5049,-93.4541,413,66.21,2022-01-17
spruceA0EMT,47.5049,-93.4541,418,66.21,2022-01-17
spruceA0P07,47.50493,-93.45314,413,66.21,2022-01-17
spruceA0P07SH,47.50493,-93.45314,413,66.21,2022-01-17
spruceA0P21,47.50625,-93.45275,413,66.21,2022-01-17
spruceA0P21SH,47.50625,-93.45275,413,66.21,2022-01-17
srg,31.7894,-110.8276,1281,28.88,2022-01-17
srm,31.8214,-110.8661,1116,32.95,2022-01-17
statenrice1,38.1235,-121.549,-5,37.579998,2022-01-17
stjones,39.088222,-75.43725,2,37.579998,2022-01-17
sweetbriar,37.57341,-79.08482,242,48.23,2022-01-17
sweetbriarclearcut,37.5753,-79.0872,242,48.23,2022-01-17
sweetbriargrass,37.5605,-79.0884,240,48.23,2022-01-17
sylvania,46.242,-89.348,540,78.52,2022-01-17
templefieldstation1,40.1667,-75.1894,105,69.0,2022-01-17
tfforest,43.1086,-70.9505,23,62.94,2022-01-17
tidmarshplymouth,41.9157,-70.5754,9,65.01,2022-01-17
tonzi,38.43091667,-120.9658861,177,75.0,2022-01-17
townsenddemeadow,39.3917,-75.6281,11,43.46,2022-01-17
tsubiology,36.1671,-86.8295,164,51.59,2022-01-17
tsubiology2,36.1171,-86.8295,100,28.599998,2022-01-17
tuckerprairie,38.9491,-91.9952,274,57.96,2022-01-17
twodafo,29.1658,-95.829,16,58.1,2022-01-17
tworfaa,31.4777,-96.8882,167,21.55,2022-01-17
tworfpr,31.4802,-96.8826,162,21.55,2022-01-17
tworfta,31.4693,-96.8864,173,21.55,2022-01-17
twosfpr,30.6176,-97.2938,157,42.35,2022-01-17
ucnrsanzaborrego,33.2401,-116.3886,214,0.0,2022-01-17
ufona,27.3836,-81.950856,25,50.0,2022-01-17
uiefmaize2,40.0628,-88.1961,224,67.56,2022-01-17
uiefmiscanthus2,40.0628,-88.1984,221,67.56,2022-01-17
uiefprairie2,40.0637,-88.1973,224,67.56,2022-01-17
uiefsorghum,40.0065,-88.2032,224,62.109997,2022-01-17
uiefswitchgrass2,40.0637,-88.1973,224,67.56,2022-01-17
umichbiological,45.55984,-84.71382,230,50.98,2022-01-17
umichbiological2,45.5625,-84.6976,240,-9999.0,2022-01-17
unca,35.5951,-82.5515,650,72.99,2022-01-17
usgseros,43.7343,-96.6234,448,53.219997,2022-01-17
usmpj,34.43845,-106.2543606,2126,35.91,2022-01-17
usof5,35.7297,-90.0406,70,6.3799996,2022-01-17
usof6,35.7333,-90.0403,70,6.3799996,2022-01-17
uwmfieldsta,43.38709,-88.0229,265,38.11,2022-01-17
vaira,38.41328056,-120.9506361,129,74.799995,2022-01-17
vallesburnedconifer,35.8884,-106.5321,3043,11.88,2022-01-17
vallesmixedconifer,35.9192,-106.6142,2752,36.92,2022-01-17
vallesponderosapine,35.864,-106.5964,2501,21.439999,2022-01-17
waahila,21.3017,-157.8152,55,37.45,2022-01-17
warrenwilson,35.6069,-82.4421,2198,50.879997,2022-01-17
willamettepoplar,44.1368,-123.1823,112,31.38,2022-01-17
willowcreek,45.805986,-90.07912,521,55.05,2022-01-17
windriver,45.8212833,-121.9520833,371,27.539999,2022-01-17
windriverunderstory,45.8212833,-121.9520833,371,27.539999,2022-01-17
wolfesneckfarm,43.8305,-70.0715,16,-9999.0,2022-01-17
worcester,42.2697,-71.8428,185,29.369999,2022-01-17
alligatorriver,35.7879,-75.9038,1,47.809998,2022-01-24
arbutuslake,43.98207,-74.23322,535,39.809998,2022-01-24
arbutuslakeinlet,43.99336,-74.24527,527,49.579998,2022-01-24
archboldavir,27.176064,-81.21958,8,38.079998,2022-01-24
archboldavirx,27.166627,-81.219828,8,38.079998,2022-01-24
archboldbahia,27.1656,-81.216112,8,38.079998,2022-01-24
archboldpnot,27.187948,-81.200345,9,73.56,2022-01-24
archboldpnotx,27.180677,-81.20068,9,73.56,2022-01-24
arkansascornsoy,34.416,-91.6723,61,65.17,2022-01-24
arsbrooks10,41.9749,-93.6905,312,63.02,2022-01-24
arsbrooks11,41.9744,-93.6937,313,63.02,2022-01-24
arscolesnorth,42.4884,-93.5225,356,54.82,2022-01-24
arscolessouth,42.4816,-93.5235,352,54.82,2022-01-24
arsgacp1,31.5109,-83.6179,96,45.5,2022-01-24
arsgacp3,31.7563,-83.7516,139,49.329998,2022-01-24
arsgacp4,31.7093,-83.7287,127,81.33,2022-01-24
arsgreatbasinltar098,43.1675,-116.7132,1426,33.79,2022-01-24
arsgreatbasinltar117,43.1432,-116.7357,1625,36.92,2022-01-24
arsgreatbasinltar177,43.0645,-116.7484,2114,39.93,2022-01-24
arsltarmdcr,39.0587,-75.8513,17,52.85,2022-01-24
arsltarmdcrnatw,39.0575,-75.7531,16,42.19,2022-01-24
arsltarmdcrprcw,39.0667,-75.7609,17,61.98,2022-01-24
arsltarmdcrresw,39.0549,-75.7532,16,42.19,2022-01-24
arsltarucbec1,40.7537,-78.0057,400,41.62,2022-01-24
arsltarucbec2,40.7558,-77.9999,396,41.62,2022-01-24
arsmnswanlake1,45.684508,-95.799703,370,67.979996,2022-01-24
arsmorris1,45.6167,-96.1269,341,61.6,2022-01-24
arsmorris2,45.627,-96.127,338,61.6,2022-01-24
arsmorris3,45.6091,-96.1265,342,55.449997,2022-01-24
arsope3ltar,39.0309,-76.8442,41,57.649998,2022-01-24
ashburnham,42.6029,-71.926,292,71.439995,2022-01-24
asuhighlands,36.2076,-81.7032,1016,55.44,2022-01-24
austincary,29.738,-82.2188,44,47.6,2022-01-24
barrow,71.28007453,-156.6091492,5,-9999.0,2022-01-24
bartlettir,44.0646,-71.2881,268,60.26,2022-01-24
bigtraillake,64.9194,-147.822,190,47.329998,2022-01-24
bitterbrush001,48.154,-119.9456,667,53.19,2022-01-24
blackrockforest,41.3974,-74.0239,427,34.93,2022-01-24
bnzblackspruce,64.6963,-148.3235,102,52.829998,2022-01-24
bnzrichfen,64.70134,-148.31195,97,37.14,2022-01-24
bnzthermokarstbog,64.6955,-148.3208,104,52.829998,2022-01-24
boglakepeatland,47.5051,-93.4893,416,49.64,2022-01-24
bostoncommon,42.355912,-71.064145,10,-9999.0,2022-01-24
bostonu,42.35041,-71.10438,10,28.84,2022-01-24
bouldinalfalfa,38.0985,-121.4993,-5,62.449997,2022-01-24
bouldincorn,38.109,-121.535,-5,56.25,2022-01-24
bozeman,45.783056,-110.777778,2332,62.789997,2022-01-24
brackishimpoundment,33.2015,-79.2973,1,41.1,2022-01-24
bullshoals,36.562833,-93.06663,260,45.219997,2022-01-24
burnssagebrush,43.4712,-119.6909,1398,42.94,2022-01-24
butte,45.95304,-112.47964,1682,57.17,2022-01-24
butterice,39.5793,-121.858,33,49.92,2022-01-24
cafboydnorthltar01,46.755104,-117.126052,795,54.48,2022-01-24
cafboydsouthltar01,46.751809,-117.128502,795,54.48,2022-01-24
cafcookeastltar01,46.78152,-117.0821,794,45.18,2022-01-24
cafcookwestltar01,46.784037,-117.09083,807,45.18,2022-01-24
caryinstitute,41.7839,-73.7341,127,52.739998,2022-01-24
centralredwoods1,38.632272,-123.301511,200,50.96,2022-01-24
centralredwoods2,38.632272,-123.301511,200,50.96,2022-01-24
cperagm,40.8402,-104.7672,1644,63.989998,2022-01-24
cperheavy,40.8153,-104.7386,1652,34.489998,2022-01-24
cpertgm,40.833,-104.76,1644,41.11,2022-01-24
cperuvb,40.8055764,-104.7558542,1641,34.489998,2022-01-24
cuny,40.8162,-73.9507,42,75.35,2022-01-24
doverdesaltmarsh,39.0888,-75.4368,0,39.93,2022-01-24
downerwoods,43.07938,-87.88076,213,47.379997,2022-01-24
dukehw,35.973583,-79.100371,400,63.98,2022-01-24
ecb1,41.5348,-84.8068,275,39.77,2022-01-24
ecb2,41.5321,-84.808,275,39.77,2022-01-24
ecb4,41.1796,-83.0604,240,47.6,2022-01-24
elverde,18.320654,-65.8199,312,56.59,2022-01-24
flagstaff,35.17961521,-111.6049032,6983,46.539997,2022-01-24
flagstaff2,35.179225,-111.604506,6983,46.539997,2022-01-24
flagstaffchimneysprings,35.257296,-111.678542,2250,47.37,2022-01-24
forbes,39.232,-121.2972,360,57.46,2022-01-24
fortpaynealpasture1,34.3824,-85.6428,405,75.14,2022-01-24
fortpaynealpasture2,34.3824,-85.6447,403,90.479996,2022-01-24
gcesapelo,31.4440444,-81.283528,0,47.23,2022-01-24
gilberttract,38.0015,-121.6691,6,46.93,2022-01-24
glees,41.3644,-106.2394,3150,62.199997,2022-01-24
glennorganicrice,39.6805,-122.0026,2,38.5,2022-01-24
glennrice,39.5944,-122.0253,36,70.54,2022-01-24
goodnow,43.96018,-74.20994,820,60.0,2022-01-24
goodwater,39.22848,-92.11936,264,61.57,2022-01-24
goodwaterbau,39.23115,-92.15216,274,52.69,2022-01-24
grandteton,43.915017,-110.578036,2054,53.239998,2022-01-24
grca1pj,36.0241,-112.2211,1978,58.64,2022-01-24
greenridge1,39.6905,-78.4067,285,44.98,2022-01-24
harvard,42.5378,-72.1715,340,67.6,2022-01-24
harvardbarn,42.53532,-72.1899,350,44.19,2022-01-24
harvardbarn2,42.53532,-72.1899,350,44.19,2022-01-24
harvardems2,42.5378,-72.1715,340,67.6,2022-01-24
harvardfarmnorth,42.520465,-72.182242,355,44.19,2022-01-24
harvardfarmsouth,42.522466,-72.182339,355,44.19,2022-01-24
harvardgarden,42.5291,-72.1863,335,44.19,2022-01-24
harvardhemlock,42.539,-72.18,355,67.6,2022-01-24
harvardhemlock2,42.539407,-72.177976,355,67.6,2022-01-24
harvardlph,42.542,-72.185,380,44.19,2022-01-24
hawbeckereddy,40.6608,-77.848849,310,42.02,2022-01-24
hobcawclearcutlongleaf,33.3486,-79.232,4,54.69,2022-01-24
hobcawmaturelongleaf,33.3242,-79.2439,8,54.34,2022-01-24
homesteadsprings,37.2009,-92.9937,452,53.789997,2022-01-24
howland1,45.2041,-68.7403,80,75.61,2022-01-24
howland2,45.2128,-68.7418,79,75.61,2022-01-24
hubbardbrook,43.9438,-71.701,253,51.41,2022-01-24
humnokericea,34.585192,-91.751684,61,16.529999,2022-01-24
humnokericec,34.588853,-91.7516729,70,16.529999,2022-01-24
huyckpreserveny,42.5266,-74.1587,478,47.87,2022-01-24
hwmo1,20.0212,-155.7331,585,-9999.0,2022-01-24
hwmo2,19.9766,-155.8298,12,-9999.0,2022-01-24
hwmo5,20.1117,-155.8151,635,-9999.0,2022-01-24
ibp,32.589,-106.847,1325,36.96,2022-01-24
imcrkfen,68.60583,-149.31101,900,27.359999,2022-01-24
imcrkridge0,68.60681,-149.2958,951,27.359999,2022-01-24
imcrkridge1,68.60681,-149.2958,951,27.359999,2022-01-24
imcrktussock,68.60633,-149.30408,918,27.359999,2022-01-24
jasperridge,37.402028,-122.22104,197,47.98,2022-01-24
jerbajada,32.57992,-106.633793,1402,45.059998,2022-01-24
jergrassland,32.5833,-106.8333,1331,36.96,2022-01-24
jernort,32.619,-106.788,1328,31.82,2022-01-24
jernovel,32.6335,-106.8334,1324,33.46,2022-01-24
jernwern,32.6271,-106.7387,1325,46.309998,2022-01-24
jersand,32.515,-106.798,1363,45.219997,2022-01-24
jershrubland,32.6502,-106.8334,1328,33.46,2022-01-24
junipersavannah,34.4254,-105.8615,1931,50.76,2022-01-24
kamuela,20.015008,-155.661326,850,-9999.0,2022-01-24
kamuela2,20.014959,-155.661139,830,-9999.0,2022-01-24
kansas,39.0561,-95.1907,333,57.69,2022-01-24
kelloggcorn,42.437536,-85.3225472,288,47.84,2022-01-24
kempnrs,45.83992,-89.67755,539,-9999.0,2022-01-24
kendall,31.73652,-109.94185,1529,62.91,2022-01-24
konza,39.0824,-96.5603,443,55.75,2022-01-24
laupahoehoe,19.9322,-155.2912,1145,-9999.0,2022-01-24
ldeocam,41.0039,-73.9053,121,-9999.0,2022-01-24
lostcreek,46.0827,-89.9792,480,63.03,2022-01-24
luckyhills,31.743896,-110.052023,1366,50.719997,2022-01-24
macleish,42.4484,-72.6804,251,54.629997,2022-01-24
macordway,44.8106,-93.0272,264,44.0,2022-01-24
mandanh5,46.775423,-100.95109,593,44.76,2022-01-24
mandani2,46.7614,-100.9257,590,41.079998,2022-01-24
manilacotton,35.8872,-90.1371,73,-9999.0,2022-01-24
marena,36.06434,-97.21271,327,40.82,2022-01-24
mead1,41.1651,-96.4766,361,53.26,2022-01-24
mead2,41.1649,-96.4701,362,53.26,2022-01-24
mead3,41.1797,-96.4397,363,54.42,2022-01-24
meadpasture,41.1447,-96.4616,356,54.92,2022-01-24
meadpasturese,41.1447,-96.4616,356,54.92,2022-01-24
meadpasturesw,41.1447,-96.4616,356,54.92,2022-01-24
missouriozarks,38.7441,-92.2,219,71.57,2022-01-24
morganmonroe,39.3231,-86.4131,275,74.75,2022-01-24
morganmonroe2,39.3231,-86.4131,275,74.75,2022-01-24
nahuku,19.415187,-155.238383,1202,-9999.0,2022-01-24
nationalelkrefuge,43.488931,-110.737824,1899,55.34,2022-01-24
ncssm,36.018446,-78.92075,175,22.92,2022-01-24
NEON.D01.BART.DP1.00033,44.063869,-71.287375,285,35.3,2022-01-24
NEON.D01.HARV.DP1.00033,42.536911,-72.17265,359,67.6,2022-01-24
NEON.D01.HOPB.DP1.20002,42.471786,-72.329627,203,53.1,2022-01-24
NEON.D02.BLAN.DP1.00033,39.033698,-78.041788,162,34.55,2022-01-24
NEON.D02.LEWI.DP1.20002,39.09564,-77.98322,152,37.76,2022-01-24
NEON.D02.POSE.DP1.20002,38.89332,-78.14678,293,53.69,2022-01-24
NEON.D02.SCBI.DP1.00033,38.892925,-78.139494,364,53.69,2022-01-24
NEON.D02.SERC.DP1.00033,38.89008,-76.56001,30,41.45,2022-01-24
NEON.D03.BARC.DP1.20002,29.676473,-82.009089,35,52.94,2022-01-24
NEON.D03.DSNY.DP1.00033,28.12505,-81.43619,22,42.969997,2022-01-24
NEON.D03.FLNT.DP1.20002,31.185424,-84.437403,27,24.619999,2022-01-24
NEON.D03.JERC.DP1.00033,31.194839,-84.468623,58,62.43,2022-01-24
NEON.D03.OSBS.DP1.00033,29.689282,-81.993431,56,53.73,2022-01-24
NEON.D03.SUGG.DP1.20002,29.687054,-82.016171,28,52.94,2022-01-24
NEON.D04.CUPE.DP1.20002,18.11352,-66.98676,164,53.84,2022-01-24
NEON.D04.GUAN.DP1.00033,17.96955,-66.8687,136,45.399998,2022-01-24
NEON.D04.GUIL.DP1.20002,18.1741,-66.79851,564,76.47,2022-01-24
NEON.D04.LAJA.DP1.00033,18.021261,-67.076889,22,39.23,2022-01-24
NEON.D05.CRAM.DP1.20002,46.21111,-89.47825,518,91.47,2022-01-24
NEON.D05.LIRO.DP1.20002,45.998269,-89.704767,495,48.8,2022-01-24
NEON.D05.STEI.DP1.00033,45.50894,-89.58637,476,46.18,2022-01-24
NEON.D05.TREE.DP1.00033,45.49373,-89.58572,474,49.78,2022-01-24
NEON.D05.UNDE.DP1.00033,46.23391,-89.537254,529,70.72,2022-01-24
NEON.D06.KING.DP1.20002,39.10506,-96.60336,339,30.89,2022-01-24
NEON.D06.KONA.DP1.00033,39.110446,-96.612935,443,30.89,2022-01-24
NEON.D06.KONZ.DP1.00033,39.10077,-96.56309,415,35.48,2022-01-24
NEON.D06.MCDI.DP1.20002,38.94428,-96.44197,376,40.309998,2022-01-24
NEON.D06.UKFS.DP1.00033,39.040431,-95.19215,330,57.69,2022-01-24
NEON.D07.GRSM.DP1.00033,35.68896,-83.50195,589,38.75,2022-01-24
NEON.D07.LECO.DP1.20002,35.69043,-83.50379,578,38.75,2022-01-24
NEON.D07.MLBS.DP1.00033,37.378314,-80.524847,1177,57.86,2022-01-24
NEON.D07.ORNL.DP1.00033,35.964128,-84.282588,351,55.07,2022-01-24
NEON.D07.WALK.DP1.20002,35.95947,-84.28041,274,70.95,2022-01-24
NEON.D08.BLWA.DP1.20002,32.541529,-87.798151,23,52.14,2022-01-24
NEON.D08.DELA.DP1.00033,32.541727,-87.803877,36,52.14,2022-01-24
NEON.D08.LENO.DP1.00033,31.85388,-88.16122,10,84.56,2022-01-24
NEON.D08.MAYF.DP1.20002,32.959657,-87.408128,93,60.1,2022-01-24
NEON.D08.TALL.DP1.00033,32.95047,-87.393259,167,30.359999,2022-01-24
NEON.D08.TOMB.DP1.20002,31.853431,-88.158872,10,84.56,2022-01-24
NEON.D09.DCFS.DP1.00033,47.161647,-99.106556,574,45.129997,2022-01-24
NEON.D09.NOGP.DP1.00033,46.76972,-100.91535,589,46.289997,2022-01-24
NEON.D09.PRLA.DP1.20002,47.15909,-99.11388,563,37.12,2022-01-24
NEON.D09.PRPO.DP1.20002,47.12999,-99.250551,587,53.84,2022-01-24
NEON.D09.WOOD.DP1.00033,47.1282,-99.241334,585,53.84,2022-01-24
NEON.D10.ARIK.DP1.20002,39.758246,-102.447103,1188,39.719997,2022-01-24
NEON.D10.CPER.DP1.00033,40.81553,-104.7456,1600,34.489998,2022-01-24
NEON.D10.HQTW.DP1.00033,40.016704,-105.245612,1601,23.93,2022-01-24
NEON.D10.RMNP.DP1.00033,40.275903,-105.545955,2751,46.73,2022-01-24
NEON.D10.STER.DP1.00033,40.461894,-103.02929,1366,37.82,2022-01-24
NEON.D11.BLUE.DP1.20002,34.444218,-96.624201,288,23.279999,2022-01-24
NEON.D11.CLBJ.DP1.00033,33.40123,-97.57,279,41.25,2022-01-24
NEON.D11.OAES.DP1.00033,35.41059,-99.05879,520,30.359999,2022-01-24
NEON.D11.PRIN.DP1.20002,33.37859,-97.78226,255,22.34,2022-01-24
NEON.D12.BLDE.DP1.20002,44.95011,-110.58715,2035,34.579998,2022-01-24
NEON.D12.YELL.DP1.00033,44.95348,-110.53914,2130,36.23,2022-01-24
NEON.D13.COMO.DP1.20002,40.03496,-105.54487,3036,46.57,2022-01-24
NEON.D13.MOAB.DP1.00033,38.24833,-109.38827,1803,50.89,2022-01-24
NEON.D13.NIWO.DP1.00033,40.05425,-105.58237,3493,62.109997,2022-01-24
NEON.D13.WLOU.DP1.20002,39.891366,-105.915395,2920,21.9,2022-01-24
NEON.D14.JORN.DP1.00033,32.59068,-106.84254,1321,36.96,2022-01-24
NEON.D14.SRER.DP1.00033,31.91068,-110.83549,999,43.52,2022-01-24
NEON.D14.SYCA.DP1.20002,33.749057,-111.506903,644,43.27,2022-01-24
NEON.D15.ONAQ.DP1.00033,40.177599,-112.452452,1655,54.92,2022-01-24
NEON.D15.REDB.DP1.20002,40.783934,-111.797887,1696,35.35,2022-01-24
NEON.D16.ABBY.DP1.00033,45.76243,-122.33033,390,57.82,2022-01-24
NEON.D16.MART.DP1.20002,45.791248,-121.931959,354,57.32,2022-01-24
NEON.D16.MCRA.DP1.20002,44.259598,-122.165554,880,43.11,2022-01-24
NEON.D16.WREF.DP1.00033,45.82049,-121.95191,368,26.769999,2022-01-24
NEON.D17.BIGC.DP1.20002,37.059719,-119.257549,1133,26.529999,2022-01-24
NEON.D17.SJER.DP1.00033,37.10878,-119.73228,398,51.559998,2022-01-24
NEON.D17.SOAP.DP1.00033,37.03337,-119.26219,1210,26.269999,2022-01-24
NEON.D17.TEAK.DP1.00033,37.00583,-119.00602,2149,27.08,2022-01-24
NEON.D17.TECR.DP1.20002,36.955931,-119.027363,2053,29.41,2022-01-24
NEON.D18.BARR.DP1.00033,71.28241,-156.61936,7,-9999.0,2022-01-24
NEON.D18.OKSR.DP1.20002,68.669753,-149.143018,773,4.14,2022-01-24
NEON.D18.TOOK.DP1.20002,68.629562,-149.610509,715,29.59,2022-01-24
NEON.D18.TOOL.DP1.00033,68.66109,-149.37047,827,51.989998,2022-01-24
NEON.D19.BONA.DP1.00033,65.15401,-147.50258,233,44.969997,2022-01-24
NEON.D19.CARI.DP1.20002,65.15306,-147.50246,229,44.969997,2022-01-24
NEON.D19.DEJU.DP1.00033,63.88112,-145.75136,504,22.439999,2022-01-24
NEON.D19.HEAL.DP1.00033,63.87569,-149.21334,409,28.97,2022-01-24
NEON.D20.PUUM.DP1.00033,19.55309,-155.31731,1683,-9999.0,2022-01-24
nevcansnk3a,39.0099,-114.3095,3063,47.03,2022-01-24
nevcanspg1a,38.9253,-114.4082,1792,40.35,2022-01-24
nevcanspg2a,38.8921,-114.3521,2203,59.48,2022-01-24
nevcanspg3a,38.8898,-114.3314,2820,61.6,2022-01-24
nevcanspg4a,38.9061,-114.3089,3360,61.6,2022-01-24
ninemileprairie,40.86801886,-96.82208066,381,53.85,2022-01-24
nist,39.139,-77.2125,100,75.71,2022-01-24
niwot3,40.03286358,-105.5469702,3050,46.57,2022-01-24
niwot5,40.03286358,-105.5469702,2993,46.57,2022-01-24
northattleboroma,41.98369,-71.31056,60,52.11,2022-01-24
northinletsaltmarsh,33.3455,-79.1957,1,50.0,2022-01-24
oakville,47.899334,-97.316139,268,46.329998,2022-01-24
oregonMP,44.4523,-121.5574,1253,48.35,2022-01-24
oregonYP,44.32384,-121.605993,977,50.26,2022-01-24
oregonYPbud,44.3238,-121.606,977,50.26,2022-01-24
othshardwood,44.934805,-68.6655,41,72.42,2022-01-24
othssoftwood,44.934527,-68.664888,41,72.42,2022-01-24
pace,37.9229,-78.2739,100,36.21,2022-01-24
parkschoolbuffalo,42.9637,-78.7834,205,28.449999,2022-01-24
piedmontalpasture2,33.8875,-85.6935,238,34.5,2022-01-24
portal,31.9385,-109.0823,1330,21.66,2022-01-24
proctor,44.525,-72.866,403,74.189995,2022-01-24
readingma,42.5304,-71.1272,100,31.06,2022-01-24
robinson,37.4671,-83.1576,483,72.369995,2022-01-24
robinson2,37.4671,-83.1576,483,72.369995,2022-01-24
rosemountcons,44.6946,-93.0578,283,45.51,2022-01-24
rosemountconv,44.691,-93.0576,283,45.51,2022-01-24
rosemountnprs,44.6781,-93.0723,274,40.18,2022-01-24
russellsage,32.456961,-91.974322,20,49.539997,2022-01-24
sagehen,39.4315,-120.2398,1934,53.739998,2022-01-24
sagehen2,39.4307,-120.2407,1937,48.61,2022-01-24
sagehen3,39.4311,-120.2405,1935,48.61,2022-01-24
sanford,42.726777,-84.464482,268,44.55,2022-01-24
santacruz1,36.9741,-122.0308,11,39.55,2022-01-24
santacruz2,36.9741,-122.0308,11,39.55,2022-01-24
santaluciapreserve1,36.5265,-121.8682,500,57.969997,2022-01-24
santaluciapreserve2,36.5265,-121.8682,500,57.969997,2022-01-24
segaarboretum10,35.16209,-111.73151,2170,53.73,2022-01-24
segaarboretum2,35.16209,-111.73151,2170,53.73,2022-01-24
segaarboretum3,35.16209,-111.73151,2170,53.73,2022-01-24
segaarboretum4,35.16214,-111.73153,2170,53.73,2022-01-24
segaarboretum6,35.16209,-111.73151,2170,53.73,2022-01-24
segaarboretum9,35.16222,-111.73158,2170,53.73,2022-01-24
segaarboretumforest,35.1613,-111.7359,2173,53.73,2022-01-24
segaarboretummeadow,35.1621,-111.7316,2157,53.73,2022-01-24
segablackpoint,35.6814,-111.4754,1566,40.6,2022-01-24
segabluechute,35.5876,-111.9716,1930,28.55,2022-01-24
segabluechute1,35.58759,-111.97115,1931,28.55,2022-01-24
segabluechute2,35.58759,-111.97115,1931,28.55,2022-01-24
segabluechute4,35.58759,-111.9716,1931,28.55,2022-01-24
segabluechute6,35.58759,-111.97115,1931,28.55,2022-01-24
segabluechute7,35.58759,-111.97115,1931,28.55,2022-01-24
segabluechute8,35.58759,-111.97115,1931,28.55,2022-01-24
segabradshaw,34.9109,-111.9285,1402,60.34,2022-01-24
segahartprairie,35.3536,-111.7324,2585,52.96,2022-01-24
segalcr,35.7231,-111.321,1275,40.87,2022-01-24
segalcr2,35.7069,-111.36,1495,25.0,2022-01-24
segalittlemountain,36.5865,-112.3634,2276,41.09,2022-01-24
segasoapcreek,36.751,-111.716,1233,11.25,2022-01-24
segawhitepockets,36.6081,-112.4082,2057,32.63,2022-01-24
sevilletagrass,34.360444,-106.700186,1600,33.71,2022-01-24
sevilletanewgrass,34.358,-106.6799,1603,33.71,2022-01-24
sevilletashrub,34.334956,-106.744469,1603,38.7,2022-01-24
sevMRME10L,34.3438,-106.7269,1604,36.19,2022-01-24
sevMRME11C,34.3438,-106.7268,1604,36.19,2022-01-24
sevMRME1S,34.3442,-106.7272,1604,51.809998,2022-01-24
sevpjrm12,34.38615,-106.52621,1905,37.23,2022-01-24
sevpjrm13,34.38631,-106.52791,1914,37.23,2022-01-24
shalehillsczo,40.6658,-77.9041,310,43.64,2022-01-24
shenandoah,38.6167,-78.35,1037,42.34,2022-01-24
silverton,44.9986,-122.6948,347,42.989998,2022-01-24
siwetland,38.0369,-121.7546,-5,61.109997,2022-01-24
slatefloodplain,38.9094,-107.0282,2725,49.84,2022-01-24
snodgrass1,38.92619636,-106.9714376,3023,17.34,2022-01-24
snodgrass2,38.92619636,-106.9714376,3023,17.34,2022-01-24
snodgrass3,38.92839978,-106.9781196,3141,17.34,2022-01-24
snodgrass4,38.92839978,-106.9781196,3141,17.34,2022-01-24
snodgrass5,38.92744789,-106.9785209,3152,17.34,2022-01-24
snodgrass6,38.92744789,-106.9785209,3152,17.34,2022-01-24
snodgrass7,38.93142134,-106.9852388,3363,17.34,2022-01-24
snodgrass8,38.93142134,-106.9852388,3363,17.34,2022-01-24
southerngreatplains,36.6058,-97.4888,314,17.279999,2022-01-24
springfieldma,42.135162,-72.585972,56,43.719997,2022-01-24
spruceA0EMI,47.5049,-93.4541,413,67.81,2022-01-24
spruceA0EMT,47.5049,-93.4541,418,67.81,2022-01-24
spruceA0P07,47.50493,-93.45314,413,67.81,2022-01-24
spruceA0P07SH,47.50493,-93.45314,413,67.81,2022-01-24
spruceA0P21,47.50625,-93.45275,413,67.81,2022-01-24
spruceA0P21SH,47.50625,-93.45275,413,67.81,2022-01-24
srg,31.7894,-110.8276,1281,32.42,2022-01-24
srm,31.8214,-110.8661,1116,32.239998,2022-01-24
statenrice1,38.1235,-121.549,-5,36.469997,2022-01-24
stjones,39.088222,-75.43725,2,39.93,2022-01-24
sweetbriar,37.57341,-79.08482,242,45.27,2022-01-24
sweetbriarclearcut,37.5753,-79.0872,242,45.27,2022-01-24
sweetbriargrass,37.5605,-79.0884,240,45.27,2022-01-24
sylvania,46.242,-89.348,540,81.75,2022-01-24
templefieldstation1,40.1667,-75.1894,105,66.04,2022-01-24
tfforest,43.1086,-70.9505,23,60.21,2022-01-24
tidmarshplymouth,41.9157,-70.5754,9,60.71,2022-01-24
tonzi,38.43091667,-120.9658861,177,72.729996,2022-01-24
townsenddemeadow,39.3917,-75.6281,11,42.129997,2022-01-24
tsubiology,36.1671,-86.8295,164,41.629997,2022-01-24
tsubiology2,36.1171,-86.8295,100,30.55,2022-01-24
tuckerprairie,38.9491,-91.9952,274,55.57,2022-01-24
twodafo,29.1658,-95.829,16,49.399998,2022-01-24
tworfaa,31.4777,-96.8882,167,22.449999,2022-01-24
tworfpr,31.4802,-96.8826,162,22.449999,2022-01-24
tworfta,31.4693,-96.8864,173,22.449999,2022-01-24
twosfpr,30.6176,-97.2938,157,44.14,2022-01-24
ucnrsanzaborrego,33.2401,-116.3886,214,1.99,2022-01-24
ufona,27.3836,-81.950856,25,50.0,2022-01-24
uiefmaize2,40.0628,-88.1961,224,66.52,2022-01-24
uiefmiscanthus2,40.0628,-88.1984,221,66.52,2022-01-24
uiefprairie2,40.0637,-88.1973,224,66.52,2022-01-24
uiefsorghum,40.0065,-88.2032,224,62.48,2022-01-24
uiefswitchgrass2,40.0637,-88.1973,224,66.52,2022-01-24
umichbiological,45.55984,-84.71382,230,53.789997,2022-01-24
umichbiological2,45.5625,-84.6976,240,-9999.0,2022-01-24
unca,35.5951,-82.5515,650,69.409996,2022-01-24
usgseros,43.7343,-96.6234,448,51.329998,2022-01-24
usmpj,34.43845,-106.2543606,2126,36.489998,2022-01-24
usof5,35.7297,-90.0406,70,8.01,2022-01-24
usof6,35.7333,-90.0403,70,8.01,2022-01-24
uwmfieldsta,43.38709,-88.0229,265,36.07,2022-01-24
vaira,38.41328056,-120.9506361,129,71.25,2022-01-24
vallesburnedconifer,35.8884,-106.5321,3043,14.94,2022-01-24
vallesmixedconifer,35.9192,-106.6142,2752,36.41,2022-01-24
vallesponderosapine,35.864,-106.5964,2501,17.93,2022-01-24
waahila,21.3017,-157.8152,55,36.93,2022-01-24
warrenwilson,35.6069,-82.4421,2198,60.41,2022-01-24
willamettepoplar,44.1368,-123.1823,112,30.49,2022-01-24
willowcreek,45.805986,-90.07912,521,59.789997,2022-01-24
windriver,45.8212833,-121.9520833,371,26.769999,2022-01-24
windriverunderstory,45.8212833,-121.9520833,371,26.769999,2022-01-24
wolfesneckfarm,43.8305,-70.0715,16,-9999.0,2022-01-24
worcester,42.2697,-71.8428,185,26.47,2022-01-24
alligatorriver,35.7879,-75.9038,1,45.55,2022-01-31
arbutuslake,43.98207,-74.23322,535,41.989998,2022-01-31
arbutuslakeinlet,43.99336,-74.24527,527,56.579998,2022-01-31
archboldavir,27.176064,-81.21958,8,39.29,2022-01-31
archboldavirx,27.166627,-81.219828,8,39.29,2022-01-31
archboldbahia,27.1656,-81.216112,8,39.29,2022-01-31
archboldpnot,27.187948,-81.200345,9,68.9,2022-01-31
archboldpnotx,27.180677,-81.20068,9,68.9,2022-01-31
arkansascornsoy,34.416,-91.6723,61,66.15,2022-01-31
arsbrooks10,41.9749,-93.6905,312,60.16,2022-01-31
arsbrooks11,41.9744,-93.6937,313,60.16,2022-01-31
arscolesnorth,42.4884,-93.5225,356,57.61,2022-01-31
arscolessouth,42.4816,-93.5235,352,57.61,2022-01-31
arsgacp1,31.5109,-83.6179,96,52.629997,2022-01-31
arsgacp3,31.7563,-83.7516,139,50.16,2022-01-31
arsgacp4,31.7093,-83.7287,127,78.45,2022-01-31
arsgreatbasinltar098,43.1675,-116.7132,1426,33.32,2022-01-31
arsgreatbasinltar117,43.1432,-116.7357,1625,27.699999,2022-01-31
arsgreatbasinltar177,43.0645,-116.7484,2114,33.399998,2022-01-31
arsltarmdcr,39.0587,-75.8513,17,54.89,2022-01-31
arsltarmdcrnatw,39.0575,-75.7531,16,43.34,2022-01-31
arsltarmdcrprcw,39.0667,-75.7609,17,64.84,2022-01-31
arsltarmdcrresw,39.0549,-75.7532,16,43.34,2022-01-31
arsltarucbec1,40.7537,-78.0057,400,42.73,2022-01-31
arsltarucbec2,40.7558,-77.9999,396,42.73,2022-01-31
arsmnswanlake1,45.684508,-95.799703,370,69.06,2022-01-31
arsmorris1,45.6167,-96.1269,341,59.039997,2022-01-31
arsmorris2,45.627,-96.127,338,59.039997,2022-01-31
arsmorris3,45.6091,-96.1265,342,60.739998,2022-01-31
arsope3ltar,39.0309,-76.8442,41,64.799995,2022-01-31
ashburnham,42.6029,-71.926,292,68.63,2022-01-31
asuhighlands,36.2076,-81.7032,1016,55.77,2022-01-31
austincary,29.738,-82.2188,44,57.35,2022-01-31
barrow,71.28007453,-156.6091492,5,0.0,2022-01-31
bartlettir,44.0646,-71.2881,268,62.69,2022-01-31
bigtraillake,64.9194,-147.822,190,52.68,2022-01-31
bitterbrush001,48.154,-119.9456,667,53.8,2022-01-31
blackrockforest,41.3974,-74.0239,427,35.85,2022-01-31
bnzblackspruce,64.6963,-148.3235,102,55.64,2022-01-31
bnzrichfen,64.70134,-148.31195,97,39.94,2022-01-31
bnzthermokarstbog,64.6955,-148.3208,104,55.64,2022-01-31
boglakepeatland,47.5051,-93.4893,416,52.239998,2022-01-31
bostoncommon,42.355912,-71.064145,10,-9999.0,2022-01-31
bostonu,42.35041,-71.10438,10,32.79,2022-01-31
bouldinalfalfa,38.0985,-121.4993,-5,65.34,2022-01-31
bouldincorn,38.109,-121.535,-5,58.649998,2022-01-31
bozeman,45.783056,-110.777778,2332,77.54,2022-01-31
brackishimpoundment,33.2015,-79.2973,1,41.239998,2022-01-31
bullshoals,36.562833,-93.06663,260,50.719997,2022-01-31
burnssagebrush,43.4712,-119.6909,1398,36.579998,2022-01-31
butte,45.95304,-112.47964,1682,41.989998,2022-01-31
butterice,39.5793,-121.858,33,57.14,2022-01-31
cafboydnorthltar01,46.755104,-117.126052,795,36.649998,2022-01-31
cafboydsouthltar01,46.751809,-117.128502,795,36.649998,2022-01-31
cafcookeastltar01,46.78152,-117.0821,794,40.67,2022-01-31
cafcookwestltar01,46.784037,-117.09083,807,40.67,2022-01-31
caryinstitute,41.7839,-73.7341,127,45.98,2022-01-31
centralredwoods1,38.632272,-123.301511,200,49.739998,2022-01-31
centralredwoods2,38.632272,-123.301511,200,49.739998,2022-01-31
cperagm,40.8402,-104.7672,1644,47.91,2022-01-31
cperheavy,40.8153,-104.7386,1652,34.76,2022-01-31
cpertgm,40.833,-104.76,1644,27.289999,2022-01-31
cperuvb,40.8055764,-104.7558542,1641,34.76,2022-01-31
cuny,40.8162,-73.9507,42,57.789997,2022-01-31
doverdesaltmarsh,39.0888,-75.4368,0,40.73,2022-01-31
downerwoods,43.07938,-87.88076,213,54.76,2022-01-31
dukehw,35.973583,-79.100371,400,65.09,2022-01-31
ecb1,41.5348,-84.8068,275,41.8,2022-01-31
ecb2,41.5321,-84.808,275,41.8,2022-01-31
ecb4,41.1796,-83.0604,240,44.34,2022-01-31
elverde,18.320654,-65.8199,312,57.27,2022-01-31
flagstaff,35.17961521,-111.6049032,6983,51.78,2022-01-31
flagstaff2,35.179225,-111.604506,6983,51.78,2022-01-31
flagstaffchimneysprings,35.257296,-111.678542,2250,46.3,2022-01-31
forbes,39.232,-121.2972,360,57.43,2022-01-31
fortpaynealpasture1,34.3824,-85.6428,405,79.74,2022-01-31
fortpaynealpasture2,34.3824,-85.6447,403,89.29,2022-01-31
gcesapelo,31.4440444,-81.283528,0,42.92,2022-01-31
gilberttract,38.0015,-121.6691,6,48.14,2022-01-31
glees,41.3644,-106.2394,3150,57.85,2022-01-31
glennorganicrice,39.6805,-122.0026,2,35.309998,2022-01-31
glennrice,39.5944,-122.0253,36,69.57,2022-01-31
goodnow,43.96018,-74.20994,820,56.739998,2022-01-31
goodwater,39.22848,-92.11936,264,61.69,2022-01-31
goodwaterbau,39.23115,-92.15216,274,51.399998,2022-01-31
grandteton,43.915017,-110.578036,2054,54.44,2022-01-31
grca1pj,36.0241,-112.2211,1978,53.01,2022-01-31
greenridge1,39.6905,-78.4067,285,49.34,2022-01-31
harvard,42.5378,-72.1715,340,62.96,2022-01-31
harvardbarn,42.53532,-72.1899,350,46.3,2022-01-31
harvardbarn2,42.53532,-72.1899,350,46.3,2022-01-31
harvardems2,42.5378,-72.1715,340,62.96,2022-01-31
harvardfarmnorth,42.520465,-72.182242,355,46.3,2022-01-31
harvardfarmsouth,42.522466,-72.182339,355,46.3,2022-01-31
harvardgarden,42.5291,-72.1863,335,46.3,2022-01-31
harvardhemlock,42.539,-72.18,355,62.96,2022-01-31
harvardhemlock2,42.539407,-72.177976,355,62.96,2022-01-31
harvardlph,42.542,-72.185,380,46.3,2022-01-31
hawbeckereddy,40.6608,-77.848849,310,45.25,2022-01-31
hobcawclearcutlongleaf,33.3486,-79.232,4,51.89,2022-01-31
hobcawmaturelongleaf,33.3242,-79.2439,8,52.8,2022-01-31
homesteadsprings,37.2009,-92.9937,452,62.69,2022-01-31
howland1,45.2041,-68.7403,80,66.689995,2022-01-31
howland2,45.2128,-68.7418,79,66.689995,2022-01-31
hubbardbrook,43.9438,-71.701,253,40.59,2022-01-31
humnokericea,34.585192,-91.751684,61,17.23,2022-01-31
humnokericec,34.588853,-91.7516729,70,17.23,2022-01-31
huyckpreserveny,42.5266,-74.1587,478,53.76,2022-01-31
hwmo1,20.0212,-155.7331,585,-9999.0,2022-01-31
hwmo2,19.9766,-155.8298,12,-9999.0,2022-01-31
hwmo5,20.1117,-155.8151,635,-9999.0,2022-01-31
ibp,32.589,-106.847,1325,41.69,2022-01-31
imcrkfen,68.60583,-149.31101,900,26.75,2022-01-31
imcrkridge0,68.60681,-149.2958,951,26.75,2022-01-31
imcrkridge1,68.60681,-149.2958,951,26.75,2022-01-31
imcrktussock,68.60633,-149.30408,918,26.75,2022-01-31
jasperridge,37.402028,-122.22104,197,45.34,2022-01-31
jerbajada,32.57992,-106.633793,1402,52.379997,2022-01-31
jergrassland,32.5833,-106.8333,1331,41.69,2022-01-31
jernort,32.619,-106.788,1328,35.84,2022-01-31
jernovel,32.6335,-106.8334,1324,33.329998,2022-01-31
jernwern,32.6271,-106.7387,1325,54.879997,2022-01-31
jersand,32.515,-106.798,1363,50.39,2022-01-31
jershrubland,32.6502,-106.8334,1328,33.329998,2022-01-31
junipersavannah,34.4254,-105.8615,1931,53.289997,2022-01-31
kamuela,20.015008,-155.661326,850,-9999.0,2022-01-31
kamuela2,20.014959,-155.661139,830,-9999.0,2022-01-31
kansas,39.0561,-95.1907,333,58.01,2022-01-31
kelloggcorn,42.437536,-85.3225472,288,42.42,2022-01-31
kempnrs,45.83992,-89.67755,539,-9999.0,2022-01-31
kendall,31.73652,-109.94185,1529,64.86,2022-01-31
konza,39.0824,-96.5603,443,50.0,2022-01-31
laupahoehoe,19.9322,-155.2912,1145,-9999.0,2022-01-31
ldeocam,41.0039,-73.9053,121,-9999.0,2022-01-31
lostcreek,46.0827,-89.9792,480,66.29,2022-01-31
luckyhills,31.743896,-110.052023,1366,65.4,2022-01-31
macleish,42.4484,-72.6804,251,45.079998,2022-01-31
macordway,44.8106,-93.0272,264,49.67,2022-01-31
mandanh5,46.775423,-100.95109,593,50.07,2022-01-31
mandani2,46.7614,-100.9257,590,41.28,2022-01-31
manilacotton,35.8872,-90.1371,73,-9999.0,2022-01-31
marena,36.06434,-97.21271,327,42.93,2022-01-31
mead1,41.1651,-96.4766,361,50.899998,2022-01-31
mead2,41.1649,-96.4701,362,50.899998,2022-01-31
mead3,41.1797,-96.4397,363,53.96,2022-01-31
meadpasture,41.1447,-96.4616,356,57.649998,2022-01-31
meadpasturese,41.1447,-96.4616,356,57.649998,2022-01-31
meadpasturesw,41.1447,-96.4616,356,57.649998,2022-01-31
missouriozarks,38.7441,-92.2,219,68.729996,2022-01-31
morganmonroe,39.3231,-86.4131,275,78.58,2022-01-31
morganmonroe2,39.3231,-86.4131,275,78.58,2022-01-31
nahuku,19.415187,-155.238383,1202,-9999.0,2022-01-31
nationalelkrefuge,43.488931,-110.737824,1899,57.059998,2022-01-31
ncssm,36.018446,-78.92075,175,16.67,2022-01-31
NEON.D01.BART.DP1.00033,44.063869,-71.287375,285,49.739998,2022-01-31
NEON.D01.HARV.DP1.00033,42.536911,-72.17265,359,62.96,2022-01-31
NEON.D01.HOPB.DP1.20002,42.471786,-72.329627,203,50.64,2022-01-31
NEON.D02.BLAN.DP1.00033,39.033698,-78.041788,162,36.37,2022-01-31
NEON.D02.LEWI.DP1.20002,39.09564,-77.98322,152,47.53,2022-01-31
NEON.D02.POSE.DP1.20002,38.89332,-78.14678,293,58.64,2022-01-31
NEON.D02.SCBI.DP1.00033,38.892925,-78.139494,364,58.64,2022-01-31
NEON.D02.SERC.DP1.00033,38.89008,-76.56001,30,35.469997,2022-01-31
NEON.D03.BARC.DP1.20002,29.676473,-82.009089,35,52.0,2022-01-31
NEON.D03.DSNY.DP1.00033,28.12505,-81.43619,22,40.75,2022-01-31
NEON.D03.FLNT.DP1.20002,31.185424,-84.437403,27,15.62,2022-01-31
NEON.D03.JERC.DP1.00033,31.194839,-84.468623,58,45.649998,2022-01-31
NEON.D03.OSBS.DP1.00033,29.689282,-81.993431,56,54.25,2022-01-31
NEON.D03.SUGG.DP1.20002,29.687054,-82.016171,28,52.0,2022-01-31
NEON.D04.CUPE.DP1.20002,18.11352,-66.98676,164,59.73,2022-01-31
NEON.D04.GUAN.DP1.00033,17.96955,-66.8687,136,47.53,2022-01-31
NEON.D04.GUIL.DP1.20002,18.1741,-66.79851,564,75.81,2022-01-31
NEON.D04.LAJA.DP1.00033,18.021261,-67.076889,22,40.379997,2022-01-31
NEON.D05.CRAM.DP1.20002,46.21111,-89.47825,518,86.759995,2022-01-31
NEON.D05.LIRO.DP1.20002,45.998269,-89.704767,495,53.0,2022-01-31
NEON.D05.STEI.DP1.00033,45.50894,-89.58637,476,50.1,2022-01-31
NEON.D05.TREE.DP1.00033,45.49373,-89.58572,474,54.73,2022-01-31
NEON.D05.UNDE.DP1.00033,46.23391,-89.537254,529,71.79,2022-01-31
NEON.D06.KING.DP1.20002,39.10506,-96.60336,339,33.469997,2022-01-31
NEON.D06.KONA.DP1.00033,39.110446,-96.612935,443,33.469997,2022-01-31
NEON.D06.KONZ.DP1.00033,39.10077,-96.56309,415,37.579998,2022-01-31
NEON.D06.MCDI.DP1.20002,38.94428,-96.44197,376,45.34,2022-01-31
NEON.D06.UKFS.DP1.00033,39.040431,-95.19215,330,58.01,2022-01-31
NEON.D07.GRSM.DP1.00033,35.68896,-83.50195,589,27.21,2022-01-31
NEON.D07.LECO.DP1.20002,35.69043,-83.50379,578,27.21,2022-01-31
NEON.D07.MLBS.DP1.00033,37.378314,-80.524847,1177,71.47,2022-01-31
NEON.D07.ORNL.DP1.00033,35.964128,-84.282588,351,49.469997,2022-01-31
NEON.D07.WALK.DP1.20002,35.95947,-84.28041,274,60.05,2022-01-31
NEON.D08.BLWA.DP1.20002,32.541529,-87.798151,23,49.829998,2022-01-31
NEON.D08.DELA.DP1.00033,32.541727,-87.803877,36,49.829998,2022-01-31
NEON.D08.LENO.DP1.00033,31.85388,-88.16122,10,86.18,2022-01-31
NEON.D08.MAYF.DP1.20002,32.959657,-87.408128,93,67.46,2022-01-31
NEON.D08.TALL.DP1.00033,32.95047,-87.393259,167,55.789997,2022-01-31
NEON.D08.TOMB.DP1.20002,31.853431,-88.158872,10,86.18,2022-01-31
NEON.D09.DCFS.DP1.00033,47.161647,-99.106556,574,49.09,2022-01-31
NEON.D09.NOGP.DP1.00033,46.76972,-100.91535,589,52.05,2022-01-31
NEON.D09.PRLA.DP1.20002,47.15909,-99.11388,563,41.05,2022-01-31
NEON.D09.PRPO.DP1.20002,47.12999,-99.250551,587,57.98,2022-01-31
NEON.D09.WOOD.DP1.00033,47.1282,-99.241334,585,57.98,2022-01-31
NEON.D10.ARIK.DP1.20002,39.758246,-102.447103,1188,46.1,2022-01-31
NEON.D10.CPER.DP1.00033,40.81553,-104.7456,1600,34.76,2022-01-31
NEON.D10.HQTW.DP1.00033,40.016704,-105.245612,1601,26.64,2022-01-31
NEON.D10.RMNP.DP1.00033,40.275903,-105.545955,2751,55.6,2022-01-31
NEON.D10.STER.DP1.00033,40.461894,-103.02929,1366,47.789997,2022-01-31
NEON.D11.BLUE.DP1.20002,34.444218,-96.624201,288,21.65,2022-01-31
NEON.D11.CLBJ.DP1.00033,33.40123,-97.57,279,41.559998,2022-01-31
NEON.D11.OAES.DP1.00033,35.41059,-99.05879,520,29.949999,2022-01-31
NEON.D11.PRIN.DP1.20002,33.37859,-97.78226,255,19.99,2022-01-31
NEON.D12.BLDE.DP1.20002,44.95011,-110.58715,2035,33.53,2022-01-31
NEON.D12.YELL.DP1.00033,44.95348,-110.53914,2130,33.12,2022-01-31
NEON.D13.COMO.DP1.20002,40.03496,-105.54487,3036,51.28,2022-01-31
NEON.D13.MOAB.DP1.00033,38.24833,-109.38827,1803,53.39,2022-01-31
NEON.D13.NIWO.DP1.00033,40.05425,-105.58237,3493,63.21,2022-01-31
NEON.D13.WLOU.DP1.20002,39.891366,-105.915395,2920,23.609999,2022-01-31
NEON.D14.JORN.DP1.00033,32.59068,-106.84254,1321,41.69,2022-01-31
NEON.D14.SRER.DP1.00033,31.91068,-110.83549,999,47.92,2022-01-31
NEON.D14.SYCA.DP1.20002,33.749057,-111.506903,644,36.5,2022-01-31
NEON.D15.ONAQ.DP1.00033,40.177599,-112.452452,1655,54.44,2022-01-31
NEON.D15.REDB.DP1.20002,40.783934,-111.797887,1696,50.66,2022-01-31
NEON.D16.ABBY.DP1.00033,45.76243,-122.33033,390,58.27,2022-01-31
NEON.D16.MART.DP1.20002,45.791248,-121.931959,354,53.449997,2022-01-31
NEON.D16.MCRA.DP1.20002,44.259598,-122.165554,880,46.5,2022-01-31
NEON.D16.WREF.DP1.00033,45.82049,-121.95191,368,32.61,2022-01-31
NEON.D17.BIGC.DP1.20002,37.059719,-119.257549,1133,27.63,2022-01-31
NEON.D17.SJER.DP1.00033,37.10878,-119.73228,398,52.94,2022-01-31
NEON.D17.SOAP.DP1.00033,37.03337,-119.26219,1210,22.529999,2022-01-31
NEON.D17.TEAK.DP1.00033,37.00583,-119.00602,2149,27.039999,2022-01-31
NEON.D17.TECR.DP1.20002,36.955931,-119.027363,2053,31.349998,2022-01-31
NEON.D18.BARR.DP1.00033,71.28241,-156.61936,7,0.0,2022-01-31
NEON.D18.OKSR.DP1.20002,68.669753,-149.143018,773,4.83,2022-01-31
NEON.D18.TOOK.DP1.20002,68.629562,-149.610509,715,29.82,2022-01-31
NEON.D18.TOOL.DP1.00033,68.66109,-149.37047,827,54.05,2022-01-31
NEON.D19.BONA.DP1.00033,65.15401,-147.50258,233,52.67,2022-01-31
NEON.D19.CARI.DP1.20002,65.15306,-147.50246,229,52.67,2022-01-31
NEON.D19.DEJU.DP1.00033,63.88112,-145.75136,504,25.449999,2022-01-31
NEON.D19.HEAL.DP1.00033,63.87569,-149.21334,409,29.539999,2022-01-31
NEON.D20.PUUM.DP1.00033,19.55309,-155.31731,1683,-9999.0,2022-01-31
nevcansnk3a,39.0099,-114.3095,3063,59.539997,2022-01-31
nevcanspg1a,38.9253,-114.4082,1792,47.5,2022-01-31
nevcanspg2a,38.8921,-114.3521,2203,59.75,2022-01-31
nevcanspg3a,38.8898,-114.3314,2820,68.439995,2022-01-31
nevcanspg4a,38.9061,-114.3089,3360,68.439995,2022-01-31
ninemileprairie,40.86801886,-96.82208066,381,52.37,2022-01-31
nist,39.139,-77.2125,100,72.77,2022-01-31
niwot3,40.03286358,-105.5469702,3050,51.28,2022-01-31
niwot5,40.03286358,-105.5469702,2993,51.28,2022-01-31
northattleboroma,41.98369,-71.31056,60,43.739998,2022-01-31
northinletsaltmarsh,33.3455,-79.1957,1,50.0,2022-01-31
oakville,47.899334,-97.316139,268,45.579998,2022-01-31
oregonMP,44.4523,-121.5574,1253,42.28,2022-01-31
oregonYP,44.32384,-121.605993,977,46.289997,2022-01-31
oregonYPbud,44.3238,-121.606,977,46.289997,2022-01-31
othshardwood,44.934805,-68.6655,41,77.72,2022-01-31
othssoftwood,44.934527,-68.664888,41,77.72,2022-01-31
pace,37.9229,-78.2739,100,35.739998,2022-01-31
parkschoolbuffalo,42.9637,-78.7834,205,22.09,2022-01-31
piedmontalpasture2,33.8875,-85.6935,238,31.23,2022-01-31
portal,31.9385,-109.0823,1330,20.43,2022-01-31
proctor,44.525,-72.866,403,75.93,2022-01-31
